lat,lon,temp,precip,name
-42.883,147.333,61.9,0.00,Hobart (Ellerslie Road)
-42.199,145.17,63.5,0.00,Cape Sorell
-42.02,147.8,63.5,0.00,Lake Leake Chalet
-41.545,147.214,57.0,0.00,Launceston
-38.099,147.149,51.3,0.00,East Sale
-37.867,144.75,58.3,0.00,Laverton Raaf
-37.733,140.783,63.4,0.00,Mount Gambier Aero
-37.733,144.9,60.6,0.00,Essendon Airport
-37.728,144.902,60.4,0.00,Melbourne Essendon
-35.517,138.817,71.1,0.00,Hindmarsh Island Aws
-35.307,149.195,48.3,0.00,Canberra
-35.165,147.466,54.1,0.00,Wagga Wagga
-34.793,138.633,71.1,0.00,Adelaide Parafield
-33.95,151.2,59.9,0.00,Sydney Intl Airport
-33.946,151.177,59.8,0.00,Sydney Intl
-33.05,151.6,61.9,0.00,Rathminesamo
-32.133,133.7,72.0,0.00,Ceduna Amo
-31.94,115.967,55.4,0.00,Perth Intl
-31.933,115.967,55.4,0.00,Perth Intl/Belmont
-31.917,115.867,62.9,0.00,Perth Metro
-31.542,159.079,69.5,0.35,Lord Howe Island Aero
-31.144,136.817,72.2,0.00,Woomera
-30.833,128.1,66.0,0.00,Forrest Airport
-30.789,121.462,64.4,0.00,Kalgoorlie Boulder
-29.042,167.939,67.4,0.02,Norfolk Island Intl
-28.796,114.708,64.7,0.00,Geraldton
-28.705,121.891,60.4,0.00,Murrin Murrin
-27.55,135.45,71.4,0.00,Oodnadatta Airport
-27.417,153.067,67.3,0.00,Brisbane Airport
-27.383,153.117,67.3,0.00,Brisbane Intl Arpt
-26.614,118.537,74.9,0.00,Meekatharra Airport
-26.413,146.263,63.4,0.00,Charleville
-24.888,113.67,72.3,0.00,Carnarvon Airport
-23.807,133.902,66.3,0.00,Alice Springs
-23.8,133.917,66.1,0.00,Alice Springs Arpt
-23.382,150.475,69.6,0.00,Rockhampton
-21.67,115.12,79.5,0.00,Onslowamo
-21.633,115.117,79.4,0.00,Onslow
-20.667,140.5,73.2,0.00,Cloncurry Airport
-20.378,118.626,77.0,0.00,Port Hedland Intl
-20.233,169.767,77.0,0.67,Aneityum
-19.253,146.765,73.0,0.00,Townsville
-19.25,146.767,72.9,0.00,Townsville(Civ/Mil)
-18.783,168.817,76.7,0.00,Erromango Island
-18.233,127.667,76.3,0.00,Halls Creek Airport
-17.945,122.232,78.5,0.00,Broome Intl
-17.75,168.3,78.5,0.20,Port Vila/Bauerfld
-17.683,141.067,78.0,0.00,Normanton Airport
-17.47,140.83,77.9,0.00,Karumba Flying Base
-16.886,145.755,76.1,1.46,Cairns Intl
-16.883,145.767,76.0,0.00,Cairns Airport
-16.288,149.965,79.2,0.00,Willis Island
-16.27,133.38,77.3,0.00,Dalywatersamo
-16.25,133.367,77.3,0.00,Daly Waters Aws
-14.331,-170.714,84.3,0.00,Tafuna/Pago Pago International Ap
-13.85,167.55,80.0,0.43,Sola/Vanua Lava Isl
-12.415,130.877,81.6,0.00,Darwin Intl
-10.951,142.459,65.6,0.00,Bamaga Injinoo
-9.433,147.217,80.0,0.00,Port Moresby W.O.
-6.733,147.0,76.9,3.70,Lae
-4.2,152.183,79.2,1.26,Rabaul
-2.767,-171.717,81.2,0.00,Canton Island
7.187,100.608,85.2,0.00,Songkhla
7.333,134.483,81.7,0.00,Babelthuap/Koror Air
7.467,151.85,83.1,0.00,Chuuk International Airport
8.733,167.733,79.2,0.00,Bucholz Aaf Kwajalein Kmr Atol Ap
8.967,-79.55,78.8,0.00,Albrook Afb/Balboa
9.367,-79.9,79.3,0.00,Coco Solo
9.483,138.083,84.2,0.00,Yap International Airport
9.958,-83.022,78.4,0.00,Limon Intl
9.967,-84.833,85.0,0.00,Puntarenas
9.97,-84.82,68.8,0.00,Agropecuraria
10.683,-61.617,80.6,0.00,Trinidad Bwi
11.35,162.35,79.7,0.00,Enewetak  Marshall Is
13.483,144.8,80.7,0.00,Guam Wfo
13.567,144.917,81.1,0.00,Andersen Afb
13.913,100.607,88.8,0.00,Bangkok Intl / Don Mueang Intl
14.033,-61.017,74.3,0.16,Castries
14.117,122.95,83.8,0.00,Daet/Bagasbas
14.5,120.917,84.9,0.00,Sangley Point
14.817,120.283,90.3,0.00,Olongapo
15.186,120.56,83.3,0.00,Clark Intl / Diosdado Macapagal Intl
16.375,120.62,68.3,0.00,Baguio
16.733,-169.533,74.8,0.31,Johnston Atoll Airport
16.733,-169.517,74.4,0.00,Johnston Island
17.283,-62.733,76.8,0.43,Basseterre
17.386,102.788,88.7,0.00,Udon Thani
18.433,-69.883,78.9,0.00,Santo Domingo
18.467,-66.117,76.5,0.00,San Juan Ns
18.467,-66.1,75.9,0.00,San Juan City
18.5,-67.133,74.8,0.00,Aquadilla/Borinquen
18.767,98.963,92.2,0.00,Chiang Mai Intl
19.283,166.65,78.1,0.00,Wake Island
19.719,-155.053,69.2,0.00,Hilo International Ap
19.758,-70.57,75.7,0.00,Gregorio Luperon Intl
19.9,-75.15,77.4,0.00,Guantanamo Bay Naval Air Station
20.833,-156.467,71.8,0.00,Puunene Caa Ap
21.317,-158.067,72.1,0.00,Barbers Point
21.324,-157.929,73.5,0.00,Honolulu International Airport
21.42,-77.848,75.1,0.00,Ignacio Agramonte Intl
21.9,-159.6,73.8,0.00,Port Allen Caa Ap
21.984,-159.341,73.2,0.00,Lihue Airport
22.3,114.167,67.5,0.02,Hong Kong Observatory
22.467,-111.533,63.0,0.00,Puerto Cortes
22.633,120.283,75.2,0.00,Kaohsiung
22.793,121.182,73.3,0.00,Jhihhang
22.95,120.206,71.7,0.00,Tainan
22.989,-82.409,77.4,0.00,Jose Marti Intl
23.462,120.393,69.7,0.00,Chiayi
23.517,120.8,52.0,0.00,Ali Shan
23.569,119.628,70.6,0.00,Magong / Penghu
23.742,-99.17,80.7,0.00,Ciudad Victoria   Tamps.
23.767,-98.2,84.5,0.00,Soto La Marina   Tamps.
24.023,121.618,70.1,0.00,Hualien
24.186,120.654,67.5,0.00,Taichung
24.555,-81.752,77.5,0.00,Key West Intl Arpt
24.583,-81.683,77.5,0.00,Key West Nas
24.75,121.767,67.1,0.00,Ilan
24.784,141.323,74.7,0.00,Iwoto
25.056,121.243,65.6,0.00,Taoyuan
25.069,121.552,64.9,0.00,Songshan
25.568,-103.411,76.3,0.00,Torreon Intl
25.791,-80.316,74.1,0.00,Miami Intl Ap
25.914,-97.423,77.7,0.00,Brownsville/S Padre Island Intl Ap
26.196,127.646,72.7,0.00,Naha
26.265,50.152,82.8,0.00,King Abdulaziz Ab
26.317,-98.833,79.3,0.00,Camargo
26.35,127.767,71.2,0.00,Kadena Ab
26.356,127.768,71.2,0.00,Kadena Ab
26.585,-81.861,73.2,0.00,Fort Myers Page Field
26.685,-80.099,73.7,0.00,West Palm Beach Intl Arpt
26.956,-101.47,75.1,0.00,Monclova Intl
27.283,-103.667,69.6,0.00,Sierra Mojada
27.544,-99.461,77.6,0.00,Laredo Air Force Base
27.653,-80.243,72.0,0.00,Vero Beach Municipal Arpt
27.683,-97.283,74.2,0.00,Corpus Christi Nas
27.7,-97.433,73.8,0.00,Corpus Christi Cabaniss Naas
27.741,-98.025,73.5,0.00,Alice International Arpt
27.774,-97.512,74.0,0.00,Corpus Christi International Airport
27.85,-82.517,72.4,0.00,Mac Dill Afb Airport
27.962,-82.54,72.9,0.00,Tampa Intl Arpt
28.101,-80.644,70.3,0.00,Melbourne Regional Ap
28.2,-177.383,72.2,0.00,Henderson Field Airport
28.233,-80.6,71.7,0.00,Patrick Afb Airport
28.457,-99.218,72.9,0.00,Cotulla Faa Ap
28.545,-81.333,72.7,0.00,Orlando Municipal Arpt
28.725,-96.254,71.9,0.00,Palacios Municipal Airport
28.783,-97.083,71.1,0.00,Victoria
28.95,-107.817,56.5,0.00,Temosachic  Chih.
29.096,-111.048,73.4,0.00,General Ignacio P Garcia Intl / Hermosillo Intl
29.17,-118.32,60.1,0.00,Isla Guadalupe
29.183,-81.048,70.6,0.00,Daytona Beach Regional Arpt
29.233,56.567,83.1,0.00,Baft
29.267,-100.283,62.7,0.00,Del Rio(Nexrad)
29.273,-94.859,73.3,0.00,Galveston Scholes Field
29.35,-98.45,70.3,0.00,Brooks Afb
29.367,-100.917,71.1,0.00,Del Rio Intl
29.383,-98.583,71.2,0.00,Lackland Air Force Base (Kelly Field Annex)
29.5,60.883,75.7,0.00,Zawidan
29.533,-98.262,69.6,0.00,Randolph Afb Airport
29.544,-98.484,67.9,0.00,San Antonio International Airport
29.617,-95.167,73.4,0.00,Ellington Field Airport
29.617,52.55,64.0,0.00,Shiraz
29.633,-95.267,72.9,0.00,William P Hobby
29.633,-83.105,68.9,0.00,Cross City Airport
29.951,-94.021,73.5,0.00,Port Arthur Jefferson County
29.997,-90.278,74.1,0.00,Louis Armstrong New Orleans Intl Ap
30.033,-90.083,78.2,0.00,New Orleans Nas
30.049,-90.029,78.5,0.00,Lakefront Airport
30.067,-85.583,71.6,0.00,Tyndall Afb Airport
30.125,-93.228,75.2,0.00,Lake Charles Regional Airport
30.183,-97.68,66.3,0.00,Austin-Bergstrom Intl Airport
30.2,-97.683,66.7,0.00,Bergstrom Afb/Austi
30.205,-91.988,75.6,0.00,Lafayette Regional Airport
30.21,-93.143,74.9,0.00,Lake Charles Wb Airp
30.233,-81.667,69.7,0.00,Jacksonville Nas
30.321,-97.76,67.7,0.00,Austin Mueller Municipal Ap
30.35,-87.317,74.6,0.00,Pensacola Nas
30.35,-87.267,71.0,0.00,Pensacola Chevalier Fld Nas
30.35,57.167,59.6,0.00,Kerman East
30.367,-109.683,71.6,0.00,Pilares De Nacozari   Son.
30.367,-107.95,67.6,0.00,Nueva Casas Grandes   Chih.
30.371,-104.017,58.9,0.00,Marfa
30.371,48.228,82.2,0.00,Abadan
30.393,-84.353,68.0,0.00,Tallahassee Dale Mabry Field
30.4,-87.283,74.3,0.00,Pensacola Corry Fld Naas
30.417,-88.917,72.1,0.00,Keesler Air Force Base
30.478,-87.187,73.5,0.00,Pensacola Regional Ap
30.483,-87.35,73.5,0.00,Pensacola Saufley Nas
30.483,-86.517,71.5,0.00,Eglin Afb Airport
30.495,-81.694,70.8,0.47,Jacksonville International Airport
30.511,-99.766,63.1,0.00,Junction
30.537,-91.147,73.9,0.00,Baton Rouge Ryan Arpt
30.549,47.662,80.0,0.00,Basrah Intl
30.617,-106.517,68.0,0.00,Villa Ahumada
30.626,-88.068,72.8,0.00,Mobile Downtown Airport
30.667,-96.55,69.3,0.00,Bryan Afb
30.688,-88.246,70.9,0.00,Mobile Regional Ap
30.717,-111.833,71.8,0.00,Altar  Son.
30.78,-86.523,71.5,0.00,Crestview Bob Sikes Ap
30.783,-83.277,66.9,0.00,Valdosta Regional Airport
30.836,-85.184,70.1,0.00,Marianna Municipal Ap
31.017,46.233,83.2,0.00,Nasiriya
31.083,-97.683,65.9,0.00,Killeen Muni (Awos)
31.152,-81.391,70.1,0.00,Brunswick Malcolm Mckinnon Ap
31.183,-90.471,71.8,0.00,Mccomb Pike County Ap
31.233,-85.433,69.1,0.00,Dothan Municipal Ap
31.236,-94.754,69.5,0.00,Lufkin Angelina Co
31.3,-113.55,69.4,0.00,Puerto Penasco  Son.
31.352,-100.495,65.9,0.00,San Angelo Regional/Maths Field Ap
31.395,-92.291,72.6,0.00,Esler Regional Airport
31.4,-100.4,65.6,0.00,San Angelo Goodfellow Afb
31.417,-87.033,72.6,0.00,Evergreen Intermediate Fld
31.458,-109.606,65.1,0.00,Douglas Municipal Ap
31.536,-84.194,66.9,0.00,Albany Municipal Ap
31.536,-82.507,65.5,0.00,Alma Bacon County Ap
31.619,-97.228,67.0,0.00,Waco Regional Airport
31.633,-97.067,66.7,0.00,Waco James Connally Afb
31.667,-116.567,61.5,0.00,Ensenada Bc
31.75,-105.083,62.7,0.00,Salt Flat
31.78,-103.202,63.7,0.00,Winkler County Airport
31.811,-106.376,66.4,0.00,El Paso International Airport
31.831,-104.809,54.9,0.00,Guadalupe Pass
31.833,-107.65,65.5,0.00,Columbus Muni
31.833,-107.633,65.2,0.00,Columbus
31.833,-106.4,66.8,0.00,Biggs Afb
31.933,-108.983,66.3,0.00,Rodeo
31.948,-102.209,61.5,0.00,Midland International Airport
31.95,44.95,82.5,0.00,Diwaniya
32.009,-81.146,68.1,0.00,Hunter Aaf
32.131,-110.955,72.3,0.00,Tucson International Ap
32.131,-81.202,68.1,0.00,Savannah/Hilton Head Intl Airport
32.133,-81.2,67.7,0.00,Savannah Chatham Field Aaf
32.133,46.033,81.2,0.00,Kut-Al-Hai
32.167,-110.883,72.6,0.00,Davis-Monthan Afb Airport
32.233,-101.5,61.6,0.00,Big Spring
32.267,-64.85,69.9,0.00,Little Sound
32.283,-106.917,65.3,0.00,Las Cruces Intl
32.3,-86.408,71.3,0.00,Montgomery Dannelly Field
32.321,-90.078,67.3,0.00,Jackson International Airport
32.333,-90.233,67.0,0.00,Jackson 4 Nw
32.334,-104.258,62.7,0.00,Cavern City Air Trml Arpt
32.335,-88.744,70.3,0.00,Meridian Key Field
32.35,-95.4,66.3,0.00,Tyler Pounds Rgnl
32.35,-86.983,72.3,0.00,Craig Fld
32.35,-85.0,66.0,0.00,Lawson Aaf Airport
32.354,-95.403,66.0,0.00,Tyler Pounds Field
32.367,-64.683,67.3,0.00,Naval Atlantic Meterology & Oceanography Facility
32.383,-86.35,70.8,1.02,Maxwell Afb Airport
32.4,-90.783,66.0,0.00,Vicksburg Old
32.411,-99.682,61.5,0.00,Abilene Regional Airport
32.447,-93.824,68.3,0.00,Shreveport Regional Arpt
32.5,-93.667,68.6,0.00,Barksdale Air Force Base
32.516,-92.041,67.2,0.00,Monroe Regional Airport
32.516,-84.942,65.8,0.00,Columbus Metro Airport
32.633,-106.4,65.3,0.00,White Sands Missile Range Site No.39
32.633,-83.6,64.7,0.00,Robins Afb Airport
32.667,-114.6,76.2,0.00,Yuma Intl Arpt
32.685,-83.653,65.5,0.00,Macon Middle Ga Regional Ap
32.693,-103.213,57.3,0.00,Lea County Regional Airport
32.7,-117.2,60.5,0.00,North Island Nas
32.733,-96.967,65.6,0.00,Naval Air Station Operations
32.734,-117.183,60.7,0.00,San Diego Lindbergh Field
32.75,-96.967,65.2,0.00,Dallas Hensley Field Afb
32.751,51.862,57.7,0.00,Esfahan Shahid Beheshti Intl
32.767,-97.45,65.1,0.00,Fort Worth Naval Air Station Jrb/Carswell Field
32.782,-98.06,63.8,0.00,Mineral Wells Airport
32.817,-115.683,76.2,0.00,El Centro Naf
32.819,-97.361,64.0,0.00,Fort Worth Meacham
32.85,-106.1,65.2,0.00,Holloman Afb
32.852,-96.856,64.7,0.00,Dallas Love Field Airport
32.867,-117.133,57.8,0.00,San Diego Miramar Nas
32.883,-112.717,78.2,0.00,Gila Bend Af Aux
32.899,-80.041,70.1,0.08,Charleston Afb/International Airport
32.9,13.283,65.4,0.00,Wheelus Fld
33.033,40.283,74.6,0.00,Rutbah
33.212,-87.616,70.3,0.00,Tuscaloosa Municipal Ap
33.221,-92.814,64.9,0.00,El Dorado Goodwin Field
33.233,-117.417,60.2,0.00,Oceanside Caa Ap
33.233,-107.017,62.2,0.00,Elephant Butte
33.25,-119.45,55.5,0.00,San Nicholas Island
33.3,-111.667,75.8,0.00,Williams Gateway Airport
33.308,-104.508,59.3,0.00,Roswell International Air Center Ap
33.364,-81.963,68.4,0.00,Augusta Regional At Bush Field Ap
33.4,-104.533,58.4,0.00,Roswell Muni Ap
33.405,-118.416,51.8,0.00,Santa Catalina Buffalo Spring
33.428,-112.004,75.5,0.00,Phoenix Sky Harbor Intl Ap
33.433,-112.367,77.6,0.00,Litchfield Park Naf
33.456,-93.988,65.1,0.00,Texarkana Regional Airport-Webb Field
33.496,-90.087,67.2,0.00,Greenwood Municipal Ap
33.566,-86.745,69.8,0.00,Birmingham Municipal Ap
33.586,130.451,55.7,0.00,Fukuoka
33.587,-85.856,68.8,0.00,Anniston Calhoun Co Ap
33.6,-102.05,54.3,0.00,Reese Afb/Lubbock
33.619,-114.714,78.4,0.00,Blythe Riverside Co
33.63,-84.442,64.3,0.00,Atlanta Hartsfield Intl Ap
33.666,-101.823,54.0,0.00,Lubbock International Airport
33.667,-117.733,58.4,0.00,El Toro Mcas
33.683,-116.167,74.8,0.00,Indio Coachella
33.683,-78.933,69.1,0.00,Myrtle Beach Intl Airport
33.783,-118.05,57.2,0.00,Los Alamitos
33.812,-118.146,58.1,0.00,Long Beach / Daugherty Field / Airport
33.812,-78.724,68.7,0.00,North Myrtle Beach Airport
33.867,-84.3,65.5,0.00,Atlanta Nas
33.883,130.653,56.9,0.00,Ashiya
33.9,-117.25,58.6,0.00,March Air Reserve Base
33.917,-84.517,65.2,0.00,Dobbins Air Reserve Base Airport
33.933,-116.967,57.6,0.00,Beaumont 1 E
33.938,-118.389,59.3,0.00,Los Angeles Municipal Arpt
33.942,-81.118,69.4,0.00,Columbia Metro Arpt
33.967,-80.467,68.7,0.00,Shaw Air Force Base
33.979,-98.493,59.7,0.00,Sheppard Afb/Wichita Falls Muni Ap
34.067,-117.65,61.1,0.00,Ontario
34.095,-117.235,61.5,0.00,San Bernardino International Airport
34.117,-119.117,56.8,0.00,Point Mugu Nf
34.175,-91.935,65.6,0.00,Pine Bluff
34.185,-79.724,69.8,0.00,Florence City County Ap
34.201,-118.358,58.3,0.00,Hollywood Burbank Arpt
34.21,-118.489,57.5,0.00,Van Nuys Airport
34.233,-111.333,61.0,0.00,Payson
34.268,-77.9,70.8,0.00,Wilmington
34.3,-97.15,60.4,0.00,Ardmore Intermediate Fld
34.3,-97.017,60.8,0.00,Ardmore Municipal
34.3,-6.6,62.8,0.00,Port Lyautey
34.317,47.083,62.8,0.00,Kermanshan
34.348,-85.161,65.3,0.00,Rome R B Russell Ap
34.35,45.383,79.0,0.00,Khanaqin
34.426,-119.843,56.3,0.00,Santa Barbara Municipal Ap
34.427,-100.283,55.0,0.00,Childress Municipal Ap
34.498,-82.71,65.1,0.00,Anderson County Ap
34.608,-79.059,72.7,0.00,Lumberton Municipal Ap
34.629,-118.084,65.8,0.00,Palmdale Airport
34.65,-98.4,57.6,0.00,Henry Post Aaf Airport
34.652,-112.421,58.5,0.00,Prescott Municipal Ap
34.718,32.486,68.6,0.00,Pafos Intl
34.727,-92.239,64.8,0.00,Little Rock Adams Field
34.744,-118.724,58.4,0.00,Sandberg
34.744,-87.6,68.0,0.00,Muscle Shoals Regional Ap
34.768,-114.619,74.1,0.00,Needles Airport
34.786,135.438,62.2,0.00,Osaka Intl
34.846,-82.346,64.8,0.00,Greenville Downtown Arpt
34.854,-116.786,71.6,0.00,Barstow-Daggett Airport
34.9,-117.867,67.1,0.00,Edwards Air Force Base
34.9,-76.883,69.9,0.00,Cherry Point Mcas
34.917,-81.95,66.9,0.00,Spartanburg
34.933,-120.417,53.0,0.00,Santa Maria Hancock Field
34.95,-100.933,51.9,0.00,Clarendon Municipal Ap
34.983,-89.783,67.2,0.00,Olive Branch
34.989,-99.053,55.6,0.00,Hobart Municipal Ap
35.028,-110.721,55.7,0.00,Winslow Municipal Ap
35.031,-85.201,69.0,0.00,Chattanooga Lovell Field Ap
35.042,-106.616,54.3,0.00,Albuquerque Intl Sunport Airport
35.05,-107.717,49.9,0.00,Acomita Faa Ap
35.056,-89.987,65.0,0.00,Memphis Municipal Arpt
35.067,-108.833,50.4,0.00,Zuni
35.068,-77.048,71.2,0.00,New Bern Craven Co Regl Ap
35.083,-106.017,46.1,0.00,Otto Faa Ap
35.144,-111.666,47.3,0.00,Flagstaff Pulliam Arpt
35.15,33.283,72.7,0.00,Nicosia Airfield
35.165,-107.902,50.2,0.00,Grants-Milan Muni Airport
35.174,-79.009,73.7,0.00,Pope Afb Airport
35.182,-103.603,50.4,0.00,Tucumcari Municipal Arpt
35.217,-75.683,67.6,0.00,Hatteras
35.224,-80.955,67.0,0.00,Charlotte Douglas Municipal A
35.23,-101.704,48.5,0.00,Amarillo Rick Husband Intl Airport
35.233,-33.717,70.2,0.00,Gecitkale
35.255,136.924,63.7,0.00,Nagoya
35.283,62.35,63.3,0.00,Gyshgy
35.333,-116.083,74.6,0.00,Silver Lake Caa Ap
35.333,-94.363,61.4,0.00,Fort Smith Regional Airport
35.35,-89.867,63.7,0.00,Memphis Nas
35.389,-97.601,54.3,0.00,Will Rogers World Airport
35.417,-97.383,56.0,0.00,Tinker Afb Airport
35.432,-82.538,63.5,0.00,Asheville Airport
35.434,-119.054,68.7,0.00,Bakersfield Kern County Arpt
35.469,44.349,79.5,0.00,Kirkuk Ab
35.492,133.236,56.7,0.00,Miho
35.552,139.78,60.5,0.00,Tokyo Intl
35.593,-88.917,63.9,0.00,Jackson Mckellar-Sipes Regl A
35.617,-106.089,46.8,0.00,Santa Fe Municipal Airport
35.654,-105.142,42.9,0.00,Las Vegas Municipal Arpt
35.667,34.567,71.4,0.00,Karpazia
35.67,-120.628,58.3,0.00,Paso Robles Municipal Arpt
35.688,-117.693,71.2,0.00,China Lake Naf
35.7,139.4,60.6,0.00,Tachikawa (Jasdf)
35.743,-81.382,67.4,0.00,Hickory Regional Ap
35.748,139.348,59.1,0.00,Yokota Ab
35.75,139.35,59.1,0.00,Fussa
35.818,-83.986,68.8,0.00,Mc Ghee Tyson Airport
35.833,139.417,59.5,0.00,Iruma
35.842,139.411,59.8,0.00,Iruma
35.892,-78.782,72.6,0.00,Raleigh-Durham International Ap
35.967,-85.783,65.3,0.00,Smithville Caa Ap
35.967,-77.8,72.2,0.00,Rocky Mount
36.0,-89.409,64.3,0.00,Dyersburg Municipal Ap
36.0,-86.517,67.1,0.00,Smyrna
36.01,-94.169,56.3,0.00,Fayetteville Drake Field
36.017,-102.55,46.0,0.00,Dalhart Municipal Ap
36.072,-115.163,63.2,0.00,Las Vegas Mccarran Intl Ap
36.097,-79.943,68.2,0.00,Piedmont Triad International Airport
36.119,-86.689,66.0,0.00,Nashville Berry Field
36.125,-90.924,63.8,0.00,Walnut Ridge Municipal Arpt
36.134,-80.222,67.4,0.00,Winston-Salem Reynolds Ap
36.199,-95.887,57.2,0.00,Tulsa International Airport
36.235,59.641,60.2,0.00,Mashhad Intl / Shahid Hashemi Nejad Intl
36.261,-76.175,63.4,0.00,Monroe Co
36.267,-93.157,59.2,0.00,Boone Co
36.297,-99.769,50.0,0.00,Gage/Shattuck
36.306,43.147,71.8,0.00,Mosul
36.333,-97.917,54.1,0.00,Vance Afb
36.449,-103.154,41.6,0.00,Clayton Municipal Airpark
36.473,-82.404,60.9,0.00,Bristol Tri City Airport
36.573,-79.336,66.3,0.00,Danville Faa Ap
36.6,-121.867,51.4,0.00,Monterey Naf
36.6,-89.983,63.5,0.00,Malden Faa Airport
36.664,-121.608,51.7,0.00,Salinas Municipal Ap
36.717,52.65,51.0,0.00,Babulsar
36.737,-97.102,53.9,0.00,Ponca City Muni
36.741,-104.502,40.5,0.00,Raton Municipal Crews Field A
36.744,-108.229,49.1,0.00,Farmington Municipal Ap
36.78,-119.719,67.2,0.00,Fresno Yosemite International Airport
36.817,-76.033,52.9,0.00,Oceana Nas
36.903,-76.192,53.1,0.00,Norfolk Regional Arpt
36.95,-76.283,52.8,0.00,Norfolk Nas
36.965,-86.424,63.8,0.00,Bowling Green Warren Co Ap
36.967,-84.133,65.4,0.00,Corbin Caa Airport
36.982,35.28,77.0,0.00,Adana
37.05,-113.517,58.0,0.00,St George Interm Fld
37.056,-88.774,63.9,0.00,Paducah Barkley Field
37.067,-77.95,59.5,0.00,Blackstone
37.083,-76.36,53.6,0.00,Langley Afb Airport
37.133,-80.683,60.0,0.00,Pulaski
37.147,-94.502,53.9,0.00,Joplin Municipal Ap
37.167,-98.083,51.5,0.00,Anthony
37.233,69.083,68.2,0.00,Pyandj
37.24,-93.39,52.7,0.00,Springfield Municipal Arpt
37.262,-104.338,40.4,0.00,Trinidad Las Animas County Ap
37.287,67.31,69.0,0.02,Termez
37.317,-79.974,58.9,0.00,Roanoke Woodrum Arpt
37.321,-79.207,56.9,0.00,Lynchburg Municipal Arpt
37.371,-118.358,70.9,0.00,Bishop Airport
37.383,-120.567,67.5,0.00,Castle Afb
37.406,-122.048,57.5,0.00,Mountain View Moffett Fld Nas
37.439,-105.861,42.2,0.00,Alamosa Arpt
37.467,49.467,64.7,0.00,Anzali
37.505,-77.32,53.6,0.00,Richmond Intl Ap
37.6,62.183,69.0,0.00,Bajramaly
37.62,-122.365,52.4,0.00,San Francisco Intl Ap
37.633,-76.567,52.1,0.00,Urbanna
37.668,45.069,67.4,0.00,Uromiyeh
37.67,-95.484,51.7,0.00,Chanute Martin Johnson Ap
37.683,-97.35,49.5,0.00,Wichita
37.706,-112.146,36.0,0.00,Bryce Cnyn Faa Ap
37.709,-113.094,42.7,0.00,Cedar City Municipal Ap
37.721,-122.221,55.9,0.00,Oakland Metropolitan
37.733,-122.2,65.1,0.00,Oakland Nas
37.761,-90.428,58.0,0.00,Farmington
37.769,-99.968,46.5,0.00,Dodge City Municipal Arpt
37.783,-122.317,58.1,0.00,Naval Air Station
37.833,65.2,70.5,0.00,Kerki Intl
37.889,-121.226,64.0,0.00,Stockton Metropolitan Arpt
37.894,40.201,74.1,0.00,Diyarbakir
37.9,-85.967,64.4,0.00,Godman Aaf Airport
37.927,-100.725,46.4,0.00,Garden City Regional Arpt
37.933,-75.433,50.1,0.00,Chincoteague Nas
37.979,32.562,70.7,0.00,Konya
37.987,58.361,67.5,0.00,Ashgabat
38.041,-84.606,61.8,0.00,Lexington Bluegrass Field
38.044,-87.521,63.7,0.00,Evansville Dress Regional Arp
38.049,-103.512,45.4,0.00,La Junta Municipal Ap
38.065,-97.861,49.3,0.00,Hutchinson Municipal Ap
38.067,-122.5,57.7,0.00,Hamilton Aaf
38.067,-78.15,51.0,0.00,Gordonsville Faa Ap
38.131,-91.768,54.0,0.00,Vichy Rolla Natl Arpt
38.181,-85.739,65.7,0.00,Louisville Standiford Field
38.233,-104.633,40.2,0.00,Pueblo Wb Airport
38.267,-121.933,63.8,0.00,Travis Air Force Base
38.289,-104.506,40.6,0.00,Pueblo Memorial Airport
38.3,-94.333,49.8,0.00,Butler Faa Ap
38.3,-76.417,47.8,0.01,Naval Air Station
38.333,-77.033,48.7,0.00,Dahlgren Weapons Lab
38.341,-75.51,47.0,0.00,Salisbury Wicomico Co Ap
38.371,-110.715,44.9,0.00,Hanksville
38.379,-81.59,65.7,0.00,Charleston Kanawha Arpt
38.405,141.22,55.2,0.00,Matsushima
38.417,-113.017,41.2,0.00,Milford Municipal Ap
38.417,-82.5,61.8,0.00,Chesapeake Huntington Ap
38.433,-95.8,48.2,0.00,Lebo Caa Airport
38.433,27.167,58.5,0.04,Izmir/Guzelyali
38.435,38.091,68.9,0.00,Erhac / Malatya
38.45,48.883,62.2,0.00,Astara
38.5,-77.3,48.6,0.00,Quantico Mcas
38.507,-121.495,63.7,0.00,Sacramento Executive Arpt
38.513,27.01,58.5,0.00,Cigli
38.543,68.825,55.8,0.00,Dushanbe
38.55,-89.85,57.8,0.00,Scott Air Force Base/Midamerica Airport
38.567,-121.3,65.8,0.00,Mather Field
38.617,66.267,62.8,0.00,Guzar
38.667,-121.4,66.6,0.00,Sacramento Mcclellan Afb
38.733,30.6,66.5,0.00,Afyon (Mil)
38.753,-90.374,56.3,0.00,St Louis Lambert Int'L Arpt
38.762,-27.091,57.0,0.00,Lajes
38.783,-97.65,49.3,0.00,Salina Muni
38.81,-104.688,34.0,0.00,City Of Colorado Springs Municipal Ap
38.817,-76.867,46.1,0.00,Andrews Air Force Base Airport
38.832,-94.89,46.9,0.00,Olathe Johnson Co Industrial
38.833,-77.017,46.9,0.00,Washington Dc Bolling Field A
38.847,-77.035,47.2,0.00,Ronald Reagan Washington Natl Ap
38.85,-77.033,47.4,0.00,Anacostia Nas
38.876,-98.809,47.0,0.00,Russell Municipal Ap
38.883,-91.433,52.2,0.00,New Florence
38.885,-79.853,59.5,0.00,Elkins Elkins-Randolph Co Arp
38.967,-92.367,50.8,0.00,Columbia Municipal Ap
38.991,-76.489,46.3,0.00,U.S. Naval Academy
39.0,-79.117,51.5,0.00,Petersburg
39.0,-78.233,47.0,0.00,Front Royal
39.043,-84.672,63.0,0.00,Cincinnati Greater Cincinnati
39.05,-96.767,47.8,0.00,Marshall Army Airfield
39.07,-88.533,58.5,0.00,Effingham County Memorial Arpt
39.073,-95.626,47.5,0.00,Topeka Municipal Ap
39.083,63.6,67.7,0.00,Chardzhev
39.1,-122.15,64.2,0.00,Williams Caa Airport
39.117,-93.217,48.3,0.00,Marshall
39.121,-94.597,48.1,0.00,Kansas City Downtown Ap
39.126,-123.201,59.2,0.00,Ukiah Municipal Ap
39.134,-108.54,44.8,0.00,Grand Junction Walker Field
39.173,-76.684,47.0,0.00,Baltimore-Washington Intl Airport
39.2,45.417,66.2,0.00,Naxcivan
39.267,-85.9,61.6,0.00,Columbus Bakalar
39.267,-81.567,62.5,0.00,Parkersburg Wso
39.277,-120.71,54.0,0.00,Blue Canyon Ap
39.317,-120.333,43.2,0.00,Donner Summit
39.367,-101.693,41.0,0.00,Goodland Renner Field
39.367,-94.917,48.2,0.00,Sherman Aaf
39.367,-75.067,45.5,0.00,Millville Municipal Ap
39.376,-99.83,42.7,0.00,Hill City Municipal Ap
39.383,-112.517,43.0,0.00,Delta Faa Ap
39.402,-77.984,44.0,0.00,Martinsburg Eastern Wv Reg Ap
39.417,-118.717,52.9,0.00,Fallon Caa Ap
39.417,-77.383,47.1,0.00,Frederick
39.433,-77.45,44.9,0.00,Frederick Af
39.433,-77.449,45.2,0.00,Frederick Md/Camp Detrick
39.45,-87.3,58.5,0.00,Terre Haute Hulman Regional A
39.45,-74.583,44.8,0.00,Atlantic City Nas
39.452,-74.567,45.2,0.00,Atlantic City International Airport
39.467,-76.167,46.2,0.00,Aberdeen Pvng Grnd
39.484,-119.771,48.9,0.00,Reno Wbo
39.595,47.196,65.2,0.00,Fuzuli
39.619,27.926,58.1,0.00,Balikesir
39.643,-79.916,60.8,0.00,Morgantown Municipal Ap
39.65,-106.917,32.3,0.00,Eagle County Ap
39.673,-75.601,46.0,0.00,Wilmington Dupont Ap
39.7,-104.75,44.0,0.00,Denver Nas
39.701,66.984,57.5,0.00,Samarkand
39.71,39.527,69.6,0.00,Erzincan
39.717,-104.9,38.8,0.00,Denver Lowry Afb
39.717,64.617,66.5,0.00,Buhara
39.732,-86.279,57.7,0.00,Indianapolis Weir Cook Munici
39.75,-104.867,39.1,0.00,Denver Wsfo
39.774,-94.923,45.7,0.00,St Joseph Wbo
39.783,-93.5,46.4,0.00,Chillicothe
39.784,30.582,62.7,0.00,Eskisehir
39.833,-84.05,58.5,0.00,Wright-Patterson Afb Airport
39.845,-89.684,53.3,0.00,Springfield Capital Ap
39.868,-75.231,46.6,0.00,Philadelphia International Ap
39.883,-75.167,47.1,0.00,Philadelphia Naas
39.906,-84.219,57.2,0.00,Dayton Municipal Arpt
39.937,-91.192,49.6,0.00,Quincy Muni Baldwin Fld
39.944,-81.892,58.4,0.00,Zanesville Municipal Ap
39.983,-82.883,60.3,0.00,Columbus Nas
39.991,-82.877,57.4,0.00,Port Columbus International Airport
40.017,-74.6,45.9,0.01,Mcguire Afb Airport
40.033,-74.35,45.6,0.00,Lakehurst Nas
40.068,-118.569,49.5,0.00,Lovelock Derby Field
40.097,-92.543,45.3,0.00,Kirksville Cannon Memorial Ap
40.152,-122.254,65.7,0.00,Red Bluff Municipal Arpt
40.167,-103.217,37.2,0.00,Akron Washington Co Ap
40.176,-80.647,53.4,0.00,Wheeling Ohio County Ap
40.196,-76.772,44.3,0.00,Harrisburg Intl
40.2,-75.15,49.0,0.00,Willow Grove Nas
40.212,44.53,69.5,0.00,Yerevan-Arabkir
40.217,-76.851,43.9,0.00,Harrisburg Capital City Arpt
40.217,69.733,60.3,0.00,Khudjant
40.296,-78.32,40.0,0.00,Altoona Blair Co Arpt
40.3,-88.15,54.7,0.00,Rantoul/Chanute Afb
40.316,-78.834,42.0,0.00,Johnstown Cambria County Ap
40.318,27.978,58.1,0.00,Bandirma
40.35,-112.05,37.8,0.00,Fairfield Caa Ap
40.355,-79.922,52.8,0.00,Pittsburgh Allegheny Co Ap
40.367,-75.967,39.7,0.00,Reading Spaatz Field
40.417,-95.4,42.8,0.00,Tarkio
40.485,-80.214,53.2,0.00,Pittsburgh International Airport
40.517,-101.017,41.4,0.00,Hayes Center
40.583,-73.883,46.3,0.00,New York Floyd Benne
40.612,-116.892,45.0,0.00,Battle Mountain Lander County
40.639,-73.762,47.0,0.00,New York Fort Totten
40.65,-94.0,41.5,0.00,Lamoni Faa Airport
40.651,-75.449,44.6,0.00,Allentown Bethlehem-Easton Ar
40.668,-89.684,50.1,0.00,Peoria Greater Peoria Ap
40.683,-74.169,47.5,0.00,Newark International Arpt
40.705,141.372,49.5,0.00,Misawa Ab
40.721,-114.036,44.4,0.00,Wendover Usaf Auxiliary Field
40.733,-73.6,46.2,0.00,Mitchel Field
40.778,-111.969,42.3,0.00,Salt Lake City International Airport
40.779,-73.88,48.4,0.00,New York Laguardia Arpt
40.783,-91.125,46.4,0.00,Burlington Municipal Ap
40.82,-82.518,50.8,0.12,Mansfield Lahm Rgnl
40.821,-76.864,43.9,0.00,Selinsgrove Penn Valley Ap
40.829,-115.789,40.7,0.00,Elko Municipal Arpt
40.829,35.522,73.1,0.00,Merzifon
40.85,-76.117,41.1,0.00,Park Place 1 Nw Wb
40.851,-96.748,42.7,0.00,Lincoln Air Base
40.9,-78.083,36.7,0.00,Philipsburg Mid-State Arpt
40.902,-117.808,49.8,0.00,Winnemucca Municipal Arpt
40.917,-81.433,49.6,0.00,Akron Akron-Canton Airport
40.961,-98.314,41.5,0.00,Grand Island Arpt
40.971,-85.206,49.4,0.12,Fort Wayne International Airport
40.977,28.821,58.4,0.00,Ataturk
40.978,-124.109,46.5,0.00,Arcata Airport
41.014,-83.669,51.4,0.00,Findlay Airport
41.05,-78.583,37.4,0.00,Curwensville
41.067,-73.708,45.1,0.00,White Plains Westchester Co A
41.099,-102.986,37.0,0.00,Sidney Municipal Ap
41.108,-92.447,42.9,0.00,Ottumwa Industrial Ap
41.117,-111.967,42.0,0.00,Hill Afb Airport
41.117,-95.917,41.8,0.00,Offutt Afb Airport
41.121,-100.669,39.8,0.00,North Platte Lee Bird Field
41.15,-79.1,43.9,0.00,Brookville Faa Ap
41.158,-104.807,34.5,0.00,Cheyenne Airport
41.158,-73.129,44.5,0.00,Bridgeport Municipal Arpt
41.196,-112.011,43.4,0.00,Ogden Airport
41.233,-89.617,47.7,0.00,Bradford
41.243,-76.922,43.5,0.00,Williamsport-Lycoming County
41.255,-80.674,48.4,0.00,Youngstown-Warren Regional Airport
41.258,69.281,62.2,0.00,Yuzhny / Tashkent Islam Karimov Intl
41.264,-72.887,49.2,0.00,New Haven Tweed Airport
41.31,-95.899,42.6,0.00,Omaha Eppley Airfield
41.317,-105.683,28.6,0.00,Laramie General Brees Field
41.317,-74.0,46.6,0.00,Bear Mountain Wb
41.333,-122.333,52.1,0.00,Mount Shasta
41.334,-75.727,41.8,0.00,Wilkes-Barre Scranton Ap
41.4,-110.417,33.3,0.00,Fort Bridger Ap
41.405,-81.853,50.8,0.00,Cleveland Hopkins Intl Ap
41.45,-95.066,40.2,0.00,Atlantic Iowa Caa
41.465,-90.523,46.0,0.00,Moline Quad City Arpt
41.5,-88.167,48.6,0.00,Joliet
41.5,-74.1,42.4,0.00,Stewart International Airport
41.533,-85.783,48.3,0.00,Goshen Municipal Ap
41.534,-93.653,40.7,0.00,Des Moines Municipal Arpt
41.567,-83.467,49.6,0.00,Toledo Wbas
41.567,60.633,61.2,0.00,Urgench
41.583,-71.417,45.1,0.00,Quonset Point Nas
41.594,-109.053,33.4,0.00,Rock Springs Arpt
41.627,-73.884,41.6,0.00,Poughkeepsie Dutchess Co Ap
41.633,-91.543,42.8,0.00,Iowa City Municipal Ap
41.707,-86.316,47.4,0.00,South Bend St Joseph Co Arpt
41.722,-71.433,45.3,0.00,Providence T F Green Arpt
41.736,-72.651,45.1,0.00,Hartford Brainard Fd
41.78,-124.237,47.2,0.00,Crescent City Faa Ai
41.781,-122.468,53.7,0.00,Siskiyou County Airport
41.786,-87.752,48.1,0.00,Chicago Midway Ap
41.8,-107.05,30.7,0.00,Sinclair Caa Ap
41.833,43.383,59.5,0.00,Borzomi
41.867,-71.017,43.9,0.00,Taunton Muni
41.871,-103.593,38.7,0.00,Scottsbluff W B Heilig Fiel
41.938,-72.683,45.2,0.00,Hartford Bradley Intl Ap
41.96,-87.932,46.6,0.00,Chicago O'Hare International Airport
41.983,-87.9,46.2,0.00,Park Ridge Af
41.986,-97.435,39.8,0.00,Norfolk Karl Stefan Mem Arpt
42.017,-113.25,41.3,0.00,Strevell
42.08,-80.183,49.0,0.00,Erie International Ap
42.083,-87.833,46.5,0.00,Naval Air Station
42.083,-76.1,39.5,0.00,Binghamton Tri-Cities Arpt
42.1,-83.167,47.5,0.00,Grosse Ile Nas
42.149,-112.287,38.4,0.00,Malad City Airport
42.158,-72.716,43.3,0.00,Westfield Barnes Muni Ap
42.159,-76.892,39.4,0.00,Elmira Airport
42.167,-121.733,47.3,0.00,Klamath Falls Kingsley Field
42.2,-72.533,46.2,0.00,Westover Afb/Metropolitan Airport
42.207,-75.98,39.5,0.00,Binghamton Broome County Arpt
42.233,-83.533,46.1,0.00,Detroit Willow Run Ap
42.267,-84.467,46.0,0.00,Jackson Reynolds Field
42.267,-71.033,49.6,0.00,Squantum Nas
42.271,-71.873,45.9,0.00,Worcester Municipal Arpt
42.308,-85.251,46.1,0.00,Battle Creek Kellogg Ap
42.35,-89.05,45.2,0.00,Rockford Caa Airport
42.361,-71.01,46.4,0.00,Gen E L Logan International Airport
42.364,69.479,53.0,0.00,Shymkent
42.381,-122.872,51.7,0.00,Medford Jackson County Arpt
42.391,-96.379,39.8,0.00,Sioux City Municipal Arpt
42.409,-83.01,46.0,0.00,Detroit City Airport
42.427,-73.289,50.6,0.00,Pittsfield Municipal Ap
42.47,-71.289,44.2,0.00,Bedford Hanscom Field
42.493,-79.272,46.7,0.00,Dunkirk Chautauqua Co Ap
42.542,-113.766,45.5,0.00,Burley Municipal Arpt
42.554,-92.401,39.7,0.00,Waterloo Municipal Ap
42.571,-77.713,42.9,0.00,Dansville Muni Ap
42.591,-117.864,47.1,0.00,Rome State Airport
42.6,-123.364,46.4,0.00,Sexton Summit
42.608,-82.818,45.6,0.00,Selfridge Air National Guard Base
42.717,130.783,40.2,0.02,Kraskino
42.747,-73.799,43.8,0.00,Albany International Airport
42.75,-105.383,36.0,0.00,Douglas
42.78,-84.579,45.1,0.00,Lansing Capital City Arpt
42.815,-108.726,38.5,0.00,Lander Hunt Field
42.837,-103.098,37.2,0.00,Chadron Municipal Ap
42.85,74.533,53.0,0.02,Bishkek
42.898,-106.474,35.0,0.00,Natrona County International Ap
42.9,-85.667,45.0,0.00,Grand Rapids
42.9,133.9,37.7,0.00,Preobrazhenie
42.917,-114.717,44.5,0.00,Station 999999
42.92,-112.571,43.1,0.00,Pocatello Municipal Arpt
42.94,-78.736,46.3,0.00,Buffalo Niagara International Airpor
42.955,-87.905,42.4,0.51,General Mitchell International Ap
42.967,-83.749,44.4,0.00,Flint Bishop Arpt
43.0,47.5,58.6,0.00,Mahachkala
43.033,44.683,61.2,0.00,Vladikavkaz
43.067,-70.817,50.3,0.00,Portsmouth
43.111,-76.104,44.3,0.02,Syracuse Hancock International Ap
43.117,-77.677,43.4,0.00,Rochester Monroe Co Arpt
43.117,131.933,40.0,0.02,Vladivostok
43.141,-89.345,42.0,0.16,Dane Co Regional-Truax Field Airport
43.154,-93.327,37.4,0.00,Mason City Municipal Arpt
43.167,-75.317,43.5,0.00,Utica Caa Ap
43.171,-86.237,44.0,0.00,Muskegon County Arpt
43.195,-71.501,41.7,0.00,Concord Municipal Arpt
43.212,-90.181,42.3,0.00,Lone Rock Faa Ap
43.233,76.933,55.5,0.20,Almaty
43.234,-75.407,44.2,0.75,Griffiss Airpark
43.239,-123.355,54.6,0.00,Roseburg Municipal Ap
43.25,45.717,62.0,0.00,Groznyj
43.267,68.217,59.5,0.00,Turkestan
43.35,-73.617,44.2,0.00,Glens Falls Ap
43.367,134.8,34.6,0.00,Moryak-Rybolov North
43.413,-124.244,47.8,0.00,North Bend Muni Airport
43.436,5.214,50.8,0.00,Marseille Provence
43.513,43.637,56.2,0.00,Nalchik
43.516,-112.067,39.3,0.00,Idaho Falls Fanning Field
43.533,-84.08,43.1,0.00,Saginaw Tri City Intl Ap
43.567,-116.241,48.8,0.00,Boise Air Terminal
43.578,-96.754,35.8,0.00,Sioux Falls Foss Fld
43.583,-119.05,43.7,0.00,Burns Federal Bldg
43.626,-72.305,38.5,0.00,Lebanon Municipal
43.65,-70.3,40.9,0.00,Portland Intl Jetport
43.677,-79.631,39.8,0.00,Lester B Pearson Intl
43.733,44.667,59.5,0.00,Mozdok
43.827,-66.088,41.0,0.00,Yarmouth
43.86,51.092,64.5,0.00,Aktau
43.879,-91.253,39.5,0.35,La Crosse Municipal Airport
43.904,-92.492,38.2,0.00,Rochester Municipal Arpt
43.983,-84.483,41.0,0.00,Gladwin
43.989,-76.026,44.3,0.01,Watertown Intl Airport
44.021,-117.013,49.2,0.00,Ontario Airport
44.05,43.033,63.4,0.00,Pjatigorsk
44.051,-101.601,35.4,0.00,Philip 1 S
44.128,-123.221,50.6,0.00,Eugene Mahlon Sweet Arpt
44.15,-103.1,33.0,0.00,Ellsworth Air Force Base
44.15,133.867,40.3,0.00,Cuguevka
44.167,-112.217,35.8,0.00,Dubois Faa Airport
44.167,66.75,52.7,0.00,Shieli
44.204,-72.562,39.1,0.00,Montpelier Ap
44.217,-104.933,30.6,0.00,Moorcroft 3 S
44.256,-121.139,44.3,0.00,Redmond Roberts Field
44.283,-85.417,38.6,0.00,Cadillac Wexford Co Ap
44.316,-77.633,40.0,0.00,Stirling Ontario Dot
44.316,-69.797,43.3,0.00,Augusta Airport
44.381,-100.286,34.3,0.00,Pierre Regional Ap
44.398,-98.223,33.4,0.00,Huron Municipal Arpt
44.4,131.383,44.0,0.10,Pogranichnyj
44.468,-73.15,38.8,0.04,Burlington International Airport
44.479,-88.137,38.8,0.75,Austin Straubel International Ap
44.483,34.167,65.1,0.00,Yalta
44.55,-95.083,35.8,0.00,Redwood Falls Muni
44.583,-124.05,46.2,0.00,Newport Municipal Ap
44.583,-75.117,41.7,0.00,Canton 4 Se
44.741,-85.583,41.7,0.00,Traverse City Cherry Capital
44.75,-81.1,37.9,0.00,Wiarton A
44.75,136.15,33.7,0.24,Plastun West
44.769,-106.969,31.8,0.00,Sheridan County Arpt
44.783,44.133,61.2,0.00,Budennovsk
44.828,-0.716,45.3,0.00,Bordeaux Merignac
44.843,-117.809,45.3,0.00,Baker Municipal Ap
44.867,-91.488,36.6,0.00,Eau Claire Municipal Ap
44.883,-93.229,35.0,0.31,Minneapolis-St Paul International Ap
44.883,-93.217,34.5,0.00,Minneapolis Nas
44.883,-63.517,42.4,0.00,Halifax Intl Arpt &
44.905,-123.001,50.3,0.00,Salem Mcnary Field
44.905,-97.15,32.9,0.00,Watertown Municipal Arpt
44.929,-89.628,35.5,0.00,Wausau Municipal Arpt
44.932,-93.056,35.7,0.00,St Paul Downtown Ap
44.936,-74.846,41.1,0.00,Massena Ap
44.95,-68.667,42.5,0.00,Old Town Faa Airport
44.983,41.117,68.0,0.00,Armavir
45.033,35.383,63.4,0.00,Feodosiia
45.033,39.15,69.8,0.00,Krasnodar
45.05,74.033,49.3,0.00,Buribaytal Southeast
45.117,-95.083,33.3,0.00,Wlmr Muni-J L Rice Fd Arpt
45.217,131.983,41.4,0.13,Turij Rog
45.258,-112.554,37.0,0.00,Dillon
45.267,147.967,33.0,0.02,Kurilsk
45.283,-118.0,47.7,0.00,La Grande Muni Ap
45.323,-75.669,40.3,0.00,Ottawa Macdonald Cartier Intl
45.35,42.85,65.3,0.00,Svetlograd
45.417,134.267,38.7,0.00,Malinovo
45.443,-98.413,32.2,0.00,Aberdeen Municipal Arpt
45.467,-73.75,40.3,0.00,Montreal Dorval Intl Ap
45.511,-118.425,39.4,0.00,Meachum Emergency Ap
45.543,-94.051,32.2,0.00,St Cloud Municipal Arpt
45.55,-122.4,52.0,0.00,Portland Troutdale
45.55,34.55,66.7,0.02,Azovskoye
45.564,-84.793,36.0,0.00,Pellston Emmet County Ap
45.583,-70.867,37.1,0.00,Lac Megantic
45.596,-122.609,51.2,0.00,Portland International Airport
45.619,-121.166,52.6,0.00,The Dalles Municipal Arpt
45.648,-68.693,41.0,0.00,Millinocket Municipal Ap
45.667,28.617,60.8,0.00,Bolgrad
45.698,-118.855,51.2,0.00,Pendleton Municipal Arpt
45.698,-110.441,36.6,0.00,Livingston Mission Field
45.717,-121.833,51.9,0.00,Stevenson
45.767,62.117,52.5,0.00,Kazaly
45.788,-111.161,34.9,0.00,Bozeman Gallatin Field
45.807,-108.542,36.5,0.00,Billings Municipal Arpt
45.867,-111.967,36.2,0.00,Whitehall
45.867,133.733,45.4,0.00,Dal'Nerechensk
45.868,-95.394,30.4,0.00,Alexandria Municipal Ap
45.965,-112.501,34.4,0.00,Butte Silver Bow Co Arpt
46.095,-118.287,52.9,0.00,Walla Walla Regional Arpt
46.117,-122.894,49.7,0.00,Kelso Wb Ap
46.117,-67.8,38.2,0.00,Houlton Intl
46.133,-107.533,34.3,0.00,Custer
46.157,-123.883,49.2,0.00,Astoria Clatsop County Arpt
46.167,-60.05,35.1,0.00,Sydney A
46.183,45.35,59.5,0.00,Yashkul'
46.364,-79.423,34.8,0.00,North Bay
46.375,-117.016,48.9,0.00,Lewiston Nez Perce County Arp
46.427,-105.883,34.1,0.00,Miles City Municipal Arpt
46.433,-63.833,39.3,0.00,Summerside
46.479,-84.357,35.8,0.00,Sault Ste Marie
46.483,-122.817,49.0,0.00,Toledo Winlock Muni Ap
46.55,41.05,69.0,0.31,Celina
46.568,-120.543,48.5,0.00,Yakima Air Terminal
46.583,79.1,45.8,0.00,Burlyu-Tyube /Burliu-Tobe
46.606,-111.964,38.1,0.00,Helena Arpt
46.617,141.95,37.5,0.00,Nevelsk
46.638,-113.176,35.8,0.00,Drummond Aviation
46.667,-85.95,34.3,0.00,Grand Marais 2 E
46.783,-100.757,27.2,0.00,Bismarck Municipal Arpt
46.799,-102.797,25.4,0.00,Dickinson Municipal Ap
46.8,75.083,45.5,0.00,Balhash
46.8,134.267,44.9,0.02,Bikin
46.833,35.367,61.0,0.31,Melitopol'
46.837,-92.183,28.6,0.55,Duluth International Airport
46.85,151.867,28.7,0.02,Simusir
46.871,-68.017,38.9,0.00,Caribou Municipal Arpt
46.921,-114.093,41.5,0.00,Missoula Johnson-Bell Fld
46.925,-96.811,31.5,0.00,Hector International Airport
46.926,-98.669,28.7,0.00,Jamestown Municipal Arpt
46.973,-123.93,48.2,0.00,Hoquiam Ap
46.973,-122.903,48.3,0.00,Olympia Municipal Arpt
47.017,28.983,64.0,0.00,Chisinau
47.034,-120.53,43.5,0.00,Ellensburg Bowers Fi
47.049,-109.458,34.3,0.00,Lewistown Municipal Arpt
47.117,51.917,60.8,0.00,Atyrau
47.15,-122.483,49.2,0.00,Mcchord Afb Airport
47.169,-88.489,32.1,0.00,Hancock Houghton Co Ap
47.2,-114.883,40.5,0.00,Superior
47.208,-119.319,49.7,0.00,Grant County Intl Airport
47.277,-121.337,30.3,0.00,Stampede Pass
47.3,-53.983,38.4,0.00,Argentia (Aut)
47.308,-119.515,48.6,0.00,Ephrata Ap Fcwos
47.333,142.8,34.0,0.00,Dolinsk
47.417,10.983,5.5,0.67,Zugspitze Mountain
47.444,-122.314,46.6,0.04,Seattle-Tacoma International Airport
47.457,-115.645,28.3,0.00,Mullan Pass Vor/Dme
47.473,-111.382,41.7,0.00,Great Falls Intl Arpt
47.483,11.067,34.5,0.65,Garmisch (Usa-Hp)
47.517,-111.183,40.0,0.01,Malmstrom Afhp Heliport
47.53,-122.301,48.8,0.01,Boeing Fld/King Co Intl Ap
47.55,134.817,43.0,0.02,Vjazemskaja
47.567,31.333,64.5,0.00,Voznesens'K
47.583,34.45,67.7,0.02,Nikopol'
47.6,138.4,32.9,0.00,Agzu
47.619,-52.752,33.5,0.00,St Johns Intl
47.622,-117.528,45.2,0.00,Spokane International Airport
47.633,-117.65,44.9,0.00,Fairchild Air Force Base
47.633,43.15,63.8,0.00,Kotel'Nikovo
47.667,136.183,43.0,0.00,Gvasjugi
47.683,-122.267,47.6,0.00,Seattle Nas
47.733,130.967,43.8,0.16,Ekaterino-Nikol'Skoe
47.767,-116.817,42.5,0.00,Coeur D Alene Air Te
47.783,27.95,69.8,0.00,Balti
47.8,11.017,29.6,0.43,Hohenpeissenberg
47.85,30.267,61.7,0.00,Liubashivka
47.85,59.617,54.3,0.00,Celkar
47.867,10.617,67.8,0.00,Kaupbeuren
47.883,8.0,22.0,0.59,Feldberg/Schwarzwal
47.9,-122.283,45.1,0.00,Snohomish Co
47.943,-97.184,29.6,0.00,Grand Forks International Ap
47.967,139.533,33.5,0.00,Grossevichi
48.0,-66.683,38.0,0.00,Campbellton Center
48.0,7.85,38.8,0.24,Freiburg (Civ/Fafb)
48.033,33.217,66.1,0.02,Kryvyi Rih
48.067,11.633,35.3,0.00,Neubiberg (Ger-Afb)
48.067,37.767,67.6,0.00,Donets'K
48.067,153.217,29.5,0.02,Matua
48.133,-123.4,46.0,0.00,Port Angeles Wb Ap
48.15,-103.617,27.5,0.00,Williston
48.183,-106.633,35.3,0.00,Glasgow # 2
48.206,11.267,36.5,0.00,Furstenfeldbruck
48.217,46.733,64.0,0.00,Verhnij Baskunchak
48.255,-101.273,24.8,0.00,Minot Faa Ap
48.304,-114.264,40.2,0.00,Kalispell Glacier Pk Int'L Ar
48.321,16.112,43.4,0.00,Tulln
48.322,11.949,36.4,0.00,Erding
48.331,-70.996,40.3,0.00,Bagotville
48.35,-122.667,46.8,0.00,Whidbey Island Nas
48.35,41.867,61.2,0.00,Morozovsk
48.354,11.786,36.0,0.47,Munchen
48.367,-89.317,-10.1,0.00,Thunder Bay
48.383,-124.733,44.9,0.00,Tatoosh Island
48.383,9.95,39.2,0.05,Ulm (Mil/Met)
48.425,10.932,36.4,0.24,Augsburg
48.517,32.2,60.5,0.00,Kirovohrad
48.528,135.188,43.2,0.08,Khabarovsk Novy
48.533,-58.55,40.0,0.00,Stephenville Dymond
48.561,-93.398,27.8,0.00,International Falls Intl Ap
48.567,39.25,67.5,0.00,Luhans'K
48.583,13.467,39.2,0.47,Passau
48.6,34.967,69.5,0.00,Dnipropetrovs'K
48.603,-112.375,36.5,0.00,Cut Bank Muni Ap
48.617,61.267,55.0,0.00,Irgiz
48.65,26.667,59.3,0.08,Kamianets'-Podil' Skyi
48.65,144.733,28.5,0.00,Mys Terpeniya
48.667,9.867,31.7,0.31,Stoetten
48.69,9.222,38.7,0.01,Stuttgart
48.725,2.359,39.5,0.00,Orly
48.733,132.95,41.1,0.16,Birobidzhan
48.767,30.233,63.2,0.00,Uman'
48.794,-122.537,45.3,0.00,Bellingham Intl Airport
48.967,-97.233,29.2,0.00,Pembina
49.017,10.967,37.4,0.14,Weissenburg
49.033,8.367,40.9,0.08,Karlsruhe (Usa-Af)
49.05,12.1,40.6,0.24,Regensburg/Oberhub
49.05,51.867,59.7,0.00,Taipak
49.067,142.033,39.3,0.00,Uglegorsk
49.117,13.133,28.6,0.51,Grosser Arber (Mtn)
49.117,154.533,28.0,0.00,Severgino Southeast
49.183,37.3,70.2,0.00,Izium
49.217,9.517,40.3,0.04,Oehringen
49.233,28.6,64.0,0.08,Vinnytsia
49.414,-82.468,26.4,0.00,Kapuskasing
49.417,130.083,43.9,5.51,Arhara
49.45,136.567,43.3,0.02,Troickoe
49.473,8.514,42.1,0.06,Mannheim City
49.483,129.467,45.4,0.00,Astashikna
49.533,25.667,52.0,0.00,Ternopil'
49.55,134.733,36.2,0.00,Neran
49.567,42.75,63.5,0.00,Serafimovic
49.567,111.967,37.5,0.00,Kyra
49.6,34.55,65.8,0.02,Poltava
49.617,128.65,41.3,0.06,Pojarkovo
49.627,6.212,33.8,0.00,Luxembourg
49.635,63.482,55.3,0.00,Torgai
49.667,12.183,38.3,0.16,Weiden (Mil/Met)
49.671,73.334,38.0,0.02,Karaganda
49.75,6.667,37.7,0.04,Trier/Petrisberg
49.75,142.833,35.5,0.00,Smirnykh
49.767,9.967,40.9,0.05,Wurzburg (Usa-Af)
49.813,23.956,54.0,0.06,Lviv Intl
49.833,118.383,37.1,0.00,Kajlastuj
50.0,33.017,66.2,0.00,Lubny
50.017,8.667,39.5,0.06,Langen
50.026,8.543,42.1,0.00,Frankfurt Main
50.05,8.325,42.2,0.00,Wiesbaden Aaf
50.117,129.467,37.6,0.04,Zavitaja
50.15,48.55,57.2,0.00,Aleksandrov-Gaj
50.167,27.033,61.5,0.00,Shepetivka
50.217,8.45,30.5,0.08,Kleiner Feldberg
50.233,28.733,58.8,0.00,Zhytomyr
50.233,142.583,27.7,0.02,Onor
50.246,57.207,57.0,0.02,Aktyubinsk / Aktobe
50.267,113.267,36.4,0.00,Aksa
50.283,-88.9,25.7,0.00,Armstrong (Aut)  Ont
50.283,-64.15,37.8,0.00,Mingan
50.283,127.483,41.6,0.00,Blagovescensk
50.289,11.855,36.6,0.04,Hof Plauen
50.367,106.45,43.9,0.00,Kjahta
50.4,116.517,34.7,0.00,Borzya
50.4,143.767,29.4,0.00,Pogranichnoe
50.402,30.451,63.8,0.00,Zhuliany Intl
50.417,80.3,45.5,0.16,Semipalatinsk
50.433,131.017,45.5,0.00,Sektagli
50.5,9.95,28.8,0.04,Wasserkuppe (Mount)
50.583,8.7,41.0,0.06,Giessen
50.617,-97.033,26.9,0.00,Gimli Industrial
50.683,156.133,31.4,0.04,Severo-Kuril'Sk
50.7,25.5,55.3,0.02,Luts'K
50.783,127.3,40.5,0.08,Sergejevka
50.783,129.333,40.4,0.02,Bratoljubovka
50.867,78.35,42.3,0.12,Semijarka
50.867,132.25,39.1,0.31,Cekunda
50.9,142.167,37.0,0.00,Aleksandrovsk-Sahalinskij
50.912,5.77,36.2,0.00,Maastricht Aachen
50.917,117.933,31.4,0.04,Aleksandrovskij Zavod
50.95,115.583,33.0,0.00,Olovjannaja
51.022,71.467,43.7,0.08,Astana Intl
51.1,106.65,43.7,0.00,Novoselenginsk
51.151,51.543,59.5,0.00,Uralsk
51.233,33.2,66.8,0.00,Konotop
51.283,26.617,55.8,0.00,Sarny
51.289,6.767,37.6,0.16,Dusseldorf
51.3,9.45,40.0,0.02,Kassel
51.317,28.783,63.8,0.00,Ovruch
51.317,108.867,35.0,0.00,Petrovskij Zavod
51.317,119.617,34.9,0.04,Nerchinskij Zavod
51.35,110.467,38.1,0.00,Hilok
51.35,112.467,34.6,0.00,Ulety
51.35,130.433,40.7,1.09,Verhnjaja Tom
51.35,139.1,37.7,0.00,Suhanovka
51.383,179.267,35.8,0.00,Amchitka Island
51.4,6.967,36.9,0.08,Essen/Mulheim
51.417,135.083,36.5,0.00,Hularin
51.449,4.342,37.0,0.00,Woensdrecht
51.45,3.6,38.4,0.00,Vlissingen
51.45,5.375,36.6,0.00,Eindhoven
51.45,128.117,40.0,0.10,Svobodnyj
51.478,-0.461,37.8,0.02,London Heathrow
51.483,114.533,30.2,0.00,Sedlovaja
51.533,59.983,58.2,0.00,Adamovka
51.55,43.15,61.8,0.00,Balashov
51.565,46.047,63.8,0.00,Tsentralny
51.567,4.932,37.1,0.00,Gilze Rijen
51.567,105.117,30.8,0.04,Tanhoj
51.583,126.75,39.0,0.00,Kumara
51.633,133.267,39.1,0.00,Ust'-Umal'Ta
51.65,103.667,30.8,0.00,Sljudjanka
51.717,135.933,37.2,0.04,Duki
51.733,112.0,35.6,0.00,Mogzon
51.767,36.167,64.8,0.00,Kursk
51.796,55.457,63.5,0.01,Orenburg
51.808,107.438,37.7,0.00,Mukhino
51.817,68.367,50.0,0.00,Atbasar
51.833,41.483,63.2,0.00,Zerdevka
51.867,116.033,35.1,0.00,Shilka
51.883,-176.65,35.5,0.00,Adak Nas
51.917,143.133,29.7,0.00,Nogliki
51.933,3.667,38.0,0.00,Le Goeree
51.983,4.1,38.5,0.00,Hoek Van Holland
51.983,127.65,38.7,0.03,Simanovsk
52.026,113.306,32.6,0.00,Kadala
52.033,4.35,38.2,0.00,Ypenburg(Nafb)
52.033,48.833,66.5,0.00,Pugacev
52.05,106.65,37.4,0.02,Kabansk
52.061,5.873,35.0,0.00,Deelen
52.1,5.183,36.9,0.00,De Bilt
52.117,26.117,55.6,0.09,Pinsk
52.167,4.433,36.4,0.00,Valkenburg
52.167,109.783,37.3,0.00,Horinsk
52.195,77.074,42.5,0.35,Pavlodar
52.217,27.867,62.0,0.04,Zhitckovichi
52.233,117.7,37.5,0.00,Sretensk
52.25,87.117,40.7,0.18,Turocak
52.267,133.983,32.0,0.02,Sofijskij Priisk
52.27,6.874,36.7,0.00,Twente
52.309,4.764,36.5,0.00,Schiphol
52.35,129.917,42.3,0.31,Norsk
52.383,140.467,39.1,0.00,Bogorodskoe
52.4,0.567,34.8,0.00,Lakenheath Raf
52.417,136.5,36.7,0.00,Im Poliny Osipenko
52.461,9.685,40.7,0.02,Hannover
52.473,13.404,47.0,0.00,Tempelhof
52.483,0.517,34.6,0.00,Feltwell
52.483,80.167,42.0,0.18,Rodino
52.5,99.817,36.7,0.02,Orlik (Mtn Stn)
52.533,111.55,28.0,0.00,Sosnovo-Ozerskoe
52.648,0.551,34.3,0.00,Marham
52.65,115.167,29.7,0.00,Usugli
52.667,42.717,56.0,0.00,Kirsanov
52.667,84.917,42.8,0.28,Bijsk Zonal'Naya
52.667,156.233,24.1,0.00,Oktiabr'Skaya
52.7,137.533,39.0,0.00,Guga
52.717,174.1,36.5,0.00,Eareckson As
52.767,109.967,24.9,0.24,Zamakta
52.769,-108.244,38.0,0.00,North Battleford
52.783,126.0,40.0,0.00,Chernjaevo
52.8,131.717,39.7,0.08,Stojba
52.8,173.167,36.9,0.00,Attu Ns
52.817,104.767,42.8,0.00,Ust'Ordynskij
52.85,0.767,35.1,0.00,Sculthorpe (Af Met)
52.867,158.65,32.9,0.00,Petropavlovsk-Kamchatskij
52.883,40.483,58.3,0.00,Micurinsk
52.933,36.0,63.5,0.02,Orel
52.967,4.75,37.5,0.00,Den Helder
52.967,11.133,41.3,0.10,Luchow/Rehbeck
52.967,101.983,44.4,0.00,Inga
52.983,108.283,30.6,0.00,Gorjacinsk
53.048,8.787,39.9,0.04,Bremen
53.067,117.483,33.0,0.08,Zilovo
53.067,132.933,36.4,0.89,Ekimcan
53.083,4.75,39.4,0.00,Texel Island
53.1,105.533,35.9,0.02,Bajandaj
53.12,6.579,37.1,0.00,Eelde
53.133,45.017,65.2,0.00,Penza
53.133,133.967,39.2,0.02,Selemdza
53.2,112.783,29.3,0.00,Romanovka
53.214,34.176,66.7,0.00,Bryansk
53.217,63.617,52.7,0.00,Kostanay
53.229,5.761,37.6,0.00,Leeuwarden
53.25,-131.8,40.2,0.00,Sandspit Awos  Bc
53.283,69.383,46.8,0.10,Kokshetay
53.3,92.417,48.2,0.00,Ermakovskoe
53.317,-60.417,36.3,0.00,Goose Bay Ua
53.35,75.45,44.2,0.00,Ertis
53.364,83.539,40.7,0.06,Barnaul / Mikhaylovka
53.367,-167.9,36.3,0.00,Umnak (Fort Glen)
53.367,5.217,39.2,0.00,Terschelling(Lgt-H)
53.383,-2.65,36.5,0.00,Penketh
53.4,-0.567,35.0,0.00,Hemswell
53.467,85.917,38.8,0.34,Togul
53.467,156.033,24.1,0.00,Kikhchik Kamchatka
53.483,42.633,66.4,0.00,Zametchino
53.505,50.164,62.6,0.00,Kurumoch
53.533,8.583,39.5,0.04,Bremerhaven
53.533,115.617,27.6,0.00,Tungokocen
53.55,118.717,34.0,0.04,Ksen'Evskaja
53.573,-113.521,42.6,0.00,Edmonton City Centre
53.583,55.934,59.5,0.16,Sterlitamak
53.617,109.633,33.0,0.00,Barguzin
53.63,9.988,41.6,0.05,Hamburg
53.633,98.217,41.2,0.00,Alygdzer
53.717,90.367,46.0,0.00,Uybat
53.75,119.733,34.1,0.05,Mogocha
53.933,102.05,44.6,0.45,Zima
53.967,-101.1,30.4,0.00,The Pas Airport
53.967,105.9,36.2,0.00,Kacug
54.083,61.617,56.3,0.00,Troizk
54.117,159.983,33.1,0.00,Semyachik
54.167,74.8,45.8,0.00,Cerlak
54.167,103.017,36.0,0.04,Ust-Uda
54.2,72.967,45.5,0.00,Odesskoe
54.2,111.95,16.2,0.00,Karaftit
54.317,48.333,65.8,0.00,Ulyanovsk
54.333,84.217,40.0,0.12,Masljanino
54.367,66.967,49.2,0.00,Blagoveshchenka
54.367,81.883,44.7,0.00,Ordynskoe
54.433,119.9,32.8,0.16,Tupik
54.483,113.583,15.9,0.00,Bagdarin
54.5,89.933,47.5,0.00,Sira
54.55,36.367,63.7,0.02,Kaluga
54.558,55.874,65.5,0.04,Ufa
54.6,100.633,45.0,0.05,Tulun
54.617,39.717,62.6,0.08,Rjazan'
54.617,52.8,62.5,0.00,Bugul'Ma
54.667,86.183,43.7,0.02,Kolchugino
54.75,32.067,60.8,0.00,Smolensk
54.766,-58.45,36.0,0.00,Cape Harrison Newfoundland Do
54.8,105.167,35.2,0.00,Zhigalovo
54.85,111.15,32.3,0.00,Tassa
54.883,99.033,47.3,0.00,Nizne-Udinsk
54.9,71.25,49.0,0.02,Isil'Kul'
54.95,41.767,67.0,0.00,Elat'Ma
54.967,73.311,48.0,0.02,Omsk Tsentralny
55.0,57.983,58.2,0.00,Kropacevo
55.013,82.651,46.5,0.08,Tolmachevo
55.017,82.233,46.5,0.00,Kocenevo
55.039,-131.579,40.0,0.00,Annette Island Airport
55.117,116.767,29.6,0.00,Kalakan
55.167,34.4,65.5,0.00,Vjaz'Ma
55.2,76.019,42.5,0.00,Tatarsk
55.221,-162.732,34.6,0.00,Cold Bay Airport
55.233,84.4,45.0,0.12,Toguchin
55.3,79.617,46.0,0.00,Ubinskoe
55.3,89.817,42.8,0.08,Uzur
55.383,91.617,40.2,0.01,Balahta
55.383,101.033,42.4,0.03,Tanguj
55.467,113.617,23.0,0.00,Uakit
55.483,105.483,36.4,0.00,Golovskoe
55.509,-4.587,38.4,0.00,Prestwick
55.517,36.0,64.7,0.02,Mozajsk
55.618,12.656,44.3,0.04,Kastrup
55.767,52.067,63.6,0.00,Elabuga
55.783,109.55,25.2,0.00,Nizhneangarsk
55.833,37.617,66.5,0.02,Moskva Vdnh (Dolgoprudnyj)
55.85,32.95,61.0,0.00,Belyj
55.867,72.2,47.8,0.14,Tjukalinsk
55.9,119.6,19.0,0.04,Imeni Odinnadtsatogo
55.967,124.883,30.1,0.10,Nagornyj
56.05,59.583,60.4,0.04,Ntazepetrovsk
56.067,63.65,59.4,0.00,Sadrinsk
56.1,69.433,46.5,0.00,Ishim
56.117,40.35,65.0,0.00,Vladimir
56.2,95.633,44.7,0.08,Kansk
56.317,28.9,59.6,0.02,Idrica
56.317,107.617,33.8,0.00,Kazachinsk
56.35,78.35,42.8,0.04,Severnoe
56.35,98.367,40.5,0.20,Sitkino
56.371,101.698,35.0,0.12,Bratsk
56.45,138.15,28.7,0.00,Ayan
56.5,84.917,43.0,0.55,Tomsk
56.5,115.667,37.3,0.00,Muja
56.6,76.567,45.0,0.16,Kystovka
56.65,57.783,61.3,0.00,Krasnoufimsk
56.65,90.55,39.5,0.16,Bol'Soj Uluj
56.743,60.803,57.5,0.12,Koltsovo
56.75,105.483,38.3,0.00,Ustkut Southwest
56.806,-132.937,37.2,0.00,Petersburg
56.817,70.617,45.5,0.00,Vikulovo
56.833,124.867,32.3,0.16,Culman/Neriugri
56.883,35.867,64.0,0.02,Tver'
56.9,74.383,47.3,0.02,Tara
56.9,93.133,40.8,0.01,Bol'Shaja Murta
56.9,118.267,26.5,0.02,Chara
56.917,23.967,52.6,0.87,Riga
56.95,-158.617,36.9,0.00,Port Heiden
57.048,-135.365,37.5,0.00,Sitka Japonski Ap
57.083,54.75,58.0,0.08,Nozovka
57.117,65.433,52.0,0.00,Tyumen'
57.133,26.717,54.2,0.02,Gulbene
57.15,31.183,59.6,0.00,Holm
57.155,-170.222,33.2,0.00,St Paul Island Airport
57.2,39.417,56.8,0.02,Rostov
57.367,89.317,38.8,0.04,Chindat-In-Krasnoy
57.4,21.533,47.3,0.04,Ventspils
57.517,72.4,44.7,0.00,Tevriz
57.55,34.567,62.6,0.02,Vysnij Volocek
57.583,83.783,40.5,0.04,Molchanovo
57.683,71.183,42.3,0.00,Ust'-Isim
57.751,-152.486,39.1,0.00,Kodiak Airport
57.767,108.067,32.6,0.00,Kirensk
57.817,29.95,61.7,0.01,Dno
57.85,114.2,32.4,0.00,Bodajbo
57.883,60.067,57.0,0.01,Nizhnyj Tagil
57.967,33.233,63.2,0.02,Valdaj
58.05,63.683,54.0,0.00,Turinsk
58.1,-68.417,33.1,0.00,Kuujjuaq A
58.1,38.683,68.2,0.02,Rybinsk
58.15,68.25,42.5,0.00,Tobol'Sk
58.307,26.69,51.0,0.01,Tartu
58.317,82.95,40.0,0.00,Kolpasevo
58.357,-134.564,37.0,0.00,Juneau Municipal Arpt
58.411,-135.709,37.1,0.00,Gustavus
58.467,-78.079,27.0,0.00,Inukjuak Ua
58.483,41.533,69.3,0.00,Buj
58.55,109.767,33.6,0.00,Ichera
58.617,125.367,31.7,0.00,Aldan
58.683,-156.656,36.1,0.00,King Salmon Airport
58.733,-94.05,14.5,0.00,Churchill A Ua  Man
58.733,27.833,52.0,0.04,Gdov
58.733,29.883,57.2,0.04,Luga
58.877,5.638,43.9,0.43,Sola / Stavanger
58.9,34.533,64.5,0.02,Hvojnaja
58.983,54.65,55.8,0.01,Kudymkar
59.243,-135.509,39.4,0.00,Haines
59.35,31.233,62.6,0.00,Ljuban'
59.367,28.6,54.0,0.02,Kingisepp
59.367,143.2,27.7,0.00,Ohotsk
59.4,35.9,61.8,0.02,Babaevo
59.433,-146.333,39.5,0.00,Middleton Island Meteorology Radar Site
59.45,112.583,24.5,0.00,Vitim
59.512,-139.671,38.8,0.00,Yakutat State Ap
59.533,45.467,67.4,0.00,Nikol'Sk
59.6,60.533,55.0,0.00,Serov
59.642,-151.491,35.0,0.00,Homer Municipal Arpt
59.65,33.55,63.9,0.02,Tihvin
59.749,-154.909,36.0,0.00,Iliamna Arpt
59.8,30.263,60.4,0.04,Pulkovo
59.911,150.72,20.4,0.00,Sokol
59.967,42.767,67.0,0.00,Totma
60.017,37.75,62.2,0.02,Belozersk
60.25,90.233,34.2,0.00,Jarcevo
60.383,134.45,39.6,0.00,Ust'-Majya
60.4,120.417,30.0,0.02,Olekminsk
60.467,32.9,62.2,0.10,Svirica
60.467,40.2,64.4,0.02,Vozega
60.489,-145.451,36.4,0.00,M.K.(Mudhole) Smith Arpt
60.533,116.233,28.8,0.00,Njuja
60.58,-151.239,36.9,0.00,Kenai Municipal Ap
60.683,-46.533,38.4,0.00,Simiutaq
60.717,114.883,26.1,0.00,Lensk
60.767,-147.8,39.3,0.00,North Dutch Island C
60.785,-161.829,31.2,0.00,Bethel Airport
60.817,125.317,31.0,0.02,Isit'
60.9,131.983,34.8,0.00,Amga
61.017,36.45,61.8,0.00,Vytegra
61.028,69.086,43.7,0.00,Khanty Mansiysk
61.161,-45.426,46.0,0.00,Narsarsuaq
61.217,-149.855,40.0,0.00,Merrill Field Airport
61.233,-48.1,45.4,0.00,Groennedal
61.233,46.717,64.6,0.02,Kotlas
61.25,-149.8,40.9,0.00,Anchorage/Elmendorf
61.344,73.402,36.2,0.00,Surgut
61.35,166.0,22.6,0.00,Korf
61.483,129.15,36.1,0.00,Pokrovsk
61.572,-149.54,37.6,0.00,Yakataga Ap
61.583,-159.533,33.7,0.00,Aniak Airport
61.583,-64.65,25.3,0.00,Resolution Island
61.667,40.183,60.2,0.02,Njandoma
61.8,36.583,62.5,0.00,Pudoz
61.812,-147.507,33.5,0.00,Sheep Mountain
61.817,34.267,37.0,0.01,Petrozavodsk
61.917,158.983,16.7,0.00,Najahan
61.977,-151.217,38.1,0.00,Skwentna
62.033,132.6,36.0,0.00,Curapca
62.1,42.9,60.5,0.06,Shenkursk
62.15,117.65,30.8,0.00,Suntar
62.159,-145.459,31.2,0.00,Gulkana Airport
62.32,-150.095,37.7,0.00,Talkeetna State Arpt
62.517,-153.883,33.0,0.00,Farewell Faa Ap
62.7,56.2,48.4,0.02,Troicko-Pecherskoe
62.917,34.433,47.0,0.05,Medvezegorsk
62.957,-155.61,34.7,0.00,Mcgrath Arpt
62.962,-141.988,33.8,0.00,Northway Airport
63.033,112.483,30.4,0.00,Chernishevskij
63.117,-77.933,20.0,0.02,Nottingham Island
63.25,143.15,-1.0,0.00,Ojmjakon
63.283,118.333,29.0,0.00,Njurba
63.331,-149.127,31.2,0.00,Summit Airport
63.383,-143.333,32.5,0.00,Tanacross
63.424,-20.279,37.0,0.00,Vestmannaeyjar
63.517,129.483,32.2,0.00,Batamaj
63.583,45.633,50.0,0.04,Sura
63.756,-68.556,27.5,0.00,Iqaluit
63.767,-171.733,19.4,0.00,Gambell
63.767,34.283,44.2,0.35,Segeza
63.767,121.617,29.2,0.00,Viljujsk
63.783,-18.067,36.5,0.00,Kirkjubaejarklaustur
63.833,30.817,41.0,0.55,Reboly
63.883,-160.8,36.5,0.00,Unalakleet Field
63.886,-152.302,33.9,0.00,Minchumina
63.9,38.117,47.7,0.24,Onega
63.933,65.05,42.5,0.00,Berezovo
63.95,-22.616,39.5,0.00,Keflavik /Meeks Fld Wbas
63.967,-22.6,39.3,0.00,Keflavik Naval Air Station
63.967,127.467,27.0,0.00,Sangary
63.994,-145.721,34.5,0.00,Allen Army Airfield
64.13,-21.941,37.5,0.00,Reykjavik
64.378,-173.243,24.8,0.00,Provideniya Bay
64.511,-165.44,33.2,0.00,Nome Municipal Arpt
64.55,-149.072,32.1,0.00,Nenana Municipal Ap
64.567,34.917,37.3,0.12,Raznavolok
64.6,40.717,47.3,0.05,Talagi
64.65,-147.067,38.5,0.00,Fairbanks/Eielson A
64.7,-162.05,30.6,0.00,Moses Point
64.7,43.383,42.6,0.04,Pinega
64.735,177.741,9.0,0.00,Ugolny
64.75,47.65,41.0,0.14,Kojnas
64.804,-147.876,38.5,0.00,Fairbanks International
64.833,-147.617,39.0,0.00,Wainwright Aaf
64.85,-147.583,38.7,0.00,Ladd Aab
64.9,-23.933,37.5,0.00,Gufuskalar
65.175,-152.107,31.8,0.00,Tanana Ralph M Calhoun Mem Ap
65.217,31.167,36.6,0.21,Kalevala
65.55,-24.017,38.0,0.00,Kvigindisdalur
65.617,-168.05,15.4,0.00,Wales
65.66,-18.073,29.3,0.00,Akureyri
65.667,-20.3,34.2,0.00,Blonduos
65.783,-169.083,10.8,0.00,Ratmanova Island
65.867,44.217,37.6,0.00,Mezen'
65.9,34.767,34.4,0.16,Gridino
65.967,56.917,35.0,0.20,Ust'-Usa
66.15,-169.833,9.8,0.02,Mys Uelen
66.183,39.533,34.6,0.00,Pjalica
66.25,52.55,36.5,0.00,Okunev Nos
66.333,36.017,35.8,0.16,Kashkarantsy
66.35,-179.117,16.7,0.02,Egvekinot
66.417,-22.383,35.2,0.00,Hornbjargsviti (Lh)
66.45,-15.95,27.5,0.00,Raufarhofn
66.533,-18.017,29.3,0.00,Grimsey Island
66.533,66.667,33.3,0.12,Salehard
66.567,-145.267,23.9,0.00,Fort Yukon
66.767,123.4,18.1,0.00,Zhigansk
66.867,-162.633,24.4,0.00,Kotzebue Ralph Wein Memorial
66.9,-157.033,35.7,0.00,Shungnak Caa
66.9,-151.717,29.0,0.00,Bettles Caa
66.918,-151.519,29.0,0.00,Bettles Airport
67.017,-50.689,39.1,0.00,Sondre Stromfjord / Kangerlussuaq
67.15,32.35,34.2,0.16,Kandalaksha
67.35,37.05,32.5,0.20,Krasnoscel'E
67.567,133.4,24.2,0.00,Verhojansk
68.733,124.0,23.0,0.00,Dzardzan
68.782,32.751,35.0,0.05,Murmansk
68.9,-179.633,4.5,0.02,Mys Shmidta
69.108,-105.138,-2.0,0.00,Cambridge Bay Ua
69.367,-152.133,-1.1,0.00,Umiat
69.617,162.3,-5.8,0.00,Buhta Ambarcik
69.717,66.8,26.2,0.14,Maresale
69.75,61.7,27.3,0.02,Amaderma
69.817,60.75,26.8,0.00,Yugorskiy Shar
70.083,170.933,-6.0,0.12,Val' Karkay
70.134,-143.577,6.0,0.00,Barter Island Airport
70.4,58.8,25.5,0.00,Vaigach
70.45,-68.55,2.2,0.00,Cylde Airport     &
70.633,162.483,-4.0,0.01,Ostrov Chetyrehstolbovoy
70.683,127.4,7.4,0.02,Kjusjur
70.767,136.217,9.5,0.05,Jubilejnaja
70.983,-178.65,7.0,0.05,Ostrov Vrangelya
71.283,-156.782,4.9,0.00,W Post-Will Rogers Memorial Airport
71.698,128.903,-6.3,0.00,Tiksi
72.367,52.7,28.0,0.04,Malye Karmakuly
73.233,-119.533,3.4,0.00,Thomsen River
73.333,70.05,21.5,0.05,Im. M.V. Popova
74.717,-94.969,-11.6,0.00,Resolute Bay
76.183,63.567,24.0,0.04,Russkaya Gavan'
76.233,-119.333,-10.8,0.00,Mould Bay Airport
76.5,-69.0,-3.6,0.00,Dundas
77.717,104.3,-3.2,0.00,Gmo Im.E.K. Fedorova
78.783,-103.55,-12.2,0.00,Isachsen (Aut)  Nu
78.783,-103.533,-11.6,0.00,Isachsen (Maps)
79.983,-85.933,-14.0,0.00,Eureka
