lat,lon,temp,precip,name
-71.05,-10.9,2.5,0.00,Unkn
-42.199,145.17,50.3,0.08,Cape Sorell
-41.545,147.214,47.0,0.35,Launceston
-38.099,147.149,55.7,0.02,East Sale
-37.867,144.75,53.7,0.01,Laverton Raaf
-37.733,140.783,53.4,0.16,Mount Gambier Aero
-37.728,144.902,53.9,0.00,Melbourne Essendon
-35.517,138.817,56.8,0.00,Hindmarsh Island Aws
-35.307,149.195,56.8,0.00,Canberra
-35.165,147.466,58.1,0.00,Wagga Wagga
-33.946,151.177,65.6,0.00,Sydney Intl
-32.795,151.834,66.0,0.00,Williamtown
-32.133,133.7,60.2,0.01,Ceduna Amo
-31.94,115.967,57.0,0.00,Perth Intl
-31.542,159.079,67.6,0.02,Lord Howe Island Aero
-31.144,136.817,59.2,0.00,Woomera
-30.833,128.1,57.7,0.01,Forrest Airport
-30.789,121.462,56.0,0.00,Kalgoorlie Boulder
-29.042,167.939,65.8,0.28,Norfolk Island Intl
-28.796,114.708,61.4,0.00,Geraldton
-28.705,121.891,60.1,0.00,Murrin Murrin
-27.55,135.45,68.4,0.00,Oodnadatta Airport
-27.417,153.067,68.2,0.00,Brisbane Airport
-26.614,118.537,57.0,0.00,Meekatharra Airport
-26.413,146.263,68.8,0.00,Charleville
-24.888,113.67,67.3,0.00,Carnarvon Airport
-23.807,133.902,70.9,0.00,Alice Springs
-23.382,150.475,68.8,0.00,Rockhampton
-23.007,-47.135,66.4,0.00,Viracopos
-22.875,-43.385,69.9,0.00,Campo Delio Jardim De Mattos
-21.633,115.117,76.6,0.00,Onslow
-20.667,140.5,76.3,0.00,Cloncurry Airport
-20.469,-54.673,70.0,0.00,Campo Grande
-20.378,118.626,74.5,1.10,Port Hedland Intl
-20.233,169.767,73.3,0.31,Aneityum
-19.851,-43.951,65.8,0.00,Pampulha Carlos Drummond De Andrade
-19.253,146.765,74.5,0.00,Townsville
-18.233,127.667,81.7,0.00,Halls Creek Airport
-17.945,122.232,82.9,0.08,Broome Intl
-17.75,168.3,77.7,0.16,Port Vila/Bauerfld
-17.683,141.067,77.7,0.00,Normanton Airport
-16.886,145.755,75.7,0.00,Cairns Intl
-16.288,149.965,76.3,0.00,Willis Island
-16.25,133.367,77.4,0.00,Daly Waters Aws
-13.85,167.55,78.5,0.08,Sola/Vanua Lava Isl
-12.415,130.877,81.9,0.00,Darwin Intl
-10.951,142.459,66.8,0.00,Bamaga Injinoo
-10.567,142.217,80.6,0.00,Thursday Island
-9.433,147.217,79.0,0.12,Port Moresby W.O.
-9.417,159.967,80.5,0.00,Honiara
-6.733,147.0,83.9,0.00,Lae
-5.217,145.8,82.1,1.26,Madang W.O.
-4.2,152.183,81.1,0.00,Rabaul
-2.767,-171.717,80.0,0.00,Canton Island
-1.379,-48.476,78.9,0.00,Val De Cans Julio Cezar Ribeiro Intl
-0.5,166.917,80.7,0.00,Nauru
2.067,-50.85,78.3,0.00,Amapa
5.357,162.958,77.3,0.00,Kosrae
5.883,-162.05,81.3,0.00,Palmyra Island
7.187,100.608,84.5,0.00,Songkhla
7.467,151.85,82.8,0.00,Chuuk International Airport
8.733,167.733,82.9,0.00,Bucholz Aaf Kwajalein Kmr Atol Ap
8.917,-79.6,81.2,0.00,Howard
8.967,-79.55,81.8,0.00,Albrook Afb/Balboa
9.357,-79.867,82.0,0.00,Enrique Adolfo Jimenez
9.367,-79.9,81.6,0.00,Coco Solo
9.483,138.083,82.3,0.00,Yap International Airport
10.683,-61.617,82.7,0.00,Trinidad Bwi
11.35,162.35,82.8,0.00,Enewetak  Marshall Is
13.483,144.8,80.4,0.00,Guam Wfo
13.567,144.917,79.7,0.00,Andersen Afb
13.913,100.607,87.8,0.02,Bangkok Intl / Don Mueang Intl
14.033,-61.017,74.3,0.72,Castries
14.117,122.95,79.7,0.00,Daet/Bagasbas
14.5,120.9,85.1,0.00,Sangley Point
14.509,121.02,84.0,0.00,Ninoy Aquino Intl
14.817,120.283,89.7,0.00,Olongapo
15.186,120.56,84.0,0.00,Clark Intl / Diosdado Macapagal Intl
15.217,145.75,82.6,0.00,Tanapag
15.683,-96.483,82.0,0.00,Puerto Angel  Oax.
16.733,-169.533,77.4,0.00,Johnston Atoll Airport
16.733,-169.517,77.1,0.00,Johnston Island
17.05,-96.717,67.5,0.00,Oaxaca  Oax.
17.283,-62.733,80.0,0.20,Basseterre
17.386,102.788,86.0,0.00,Udon Thani
17.7,-64.813,80.4,0.00,Christiansted Hamilton Field
17.967,-66.4,78.6,0.00,Ponce Santa Isabel
18.433,-69.883,81.3,0.00,Santo Domingo
18.467,-66.117,79.0,0.00,San Juan Ns
18.467,-66.1,78.2,0.00,San Juan City
18.5,-67.133,78.2,0.00,Aquadilla/Borinquen
18.767,98.963,81.1,0.00,Chiang Mai Intl
19.283,166.65,79.5,0.00,Wake Island
19.719,-155.053,70.6,0.00,Hilo International Ap
19.758,-70.57,76.9,0.00,Gregorio Luperon Intl
19.9,-75.15,78.6,0.00,Guantanamo Bay Naval Air Station
20.833,-156.467,73.8,0.00,Puunene Caa Ap
21.317,-158.067,74.4,0.00,Barbers Point
21.324,-157.929,75.1,0.00,Honolulu International Airport
21.42,-77.848,77.8,0.00,Ignacio Agramonte Intl
21.984,-159.341,75.1,0.00,Lihue Airport
22.041,120.73,80.4,0.00,Hengchun
22.15,-80.414,80.0,0.00,Jaime Gonzalez
22.3,114.167,69.8,0.02,Hong Kong Observatory
22.467,-111.533,63.2,0.00,Puerto Cortes
22.633,120.283,78.3,0.00,Kaohsiung
22.793,121.182,78.6,0.00,Jhihhang
22.95,120.206,76.2,0.00,Tainan
22.989,-82.409,75.5,0.00,Jose Marti Intl
23.462,120.393,76.5,0.00,Chiayi
23.517,120.8,53.6,0.00,Ali Shan
23.569,119.628,72.5,0.00,Magong / Penghu
23.742,-99.17,79.4,0.00,Ciudad Victoria   Tamps.
23.767,-98.2,79.5,0.00,Soto La Marina   Tamps.
24.023,121.618,76.3,0.00,Hualien
24.555,-81.752,77.3,0.00,Key West Intl Arpt
24.583,-81.683,77.3,0.00,Key West Nas
24.75,121.767,72.9,0.00,Ilan
24.784,141.323,69.5,0.00,Iwoto
25.056,121.243,76.3,0.00,Taoyuan
25.069,121.552,75.3,0.00,Songshan
25.568,-103.411,81.3,0.00,Torreon Intl
25.791,-80.316,76.9,0.00,Miami Intl Ap
25.914,-97.423,77.1,0.00,Brownsville/S Padre Island Intl Ap
26.196,127.646,67.8,0.00,Naha
26.265,50.152,85.5,0.00,King Abdulaziz Ab
26.317,-98.833,83.6,0.00,Camargo
26.35,127.767,67.1,0.00,Kadena Ab
26.356,127.768,67.1,0.00,Kadena Ab
26.585,-81.861,74.5,0.00,Fort Myers Page Field
26.617,-78.367,72.8,0.00,Gold Rock Creek
26.685,-80.099,76.5,0.00,West Palm Beach Intl Arpt
26.956,-101.47,82.0,0.00,Monclova Intl
27.283,-103.667,74.4,0.04,Sierra Mojada
27.544,-99.461,79.5,0.00,Laredo Air Force Base
27.653,-80.243,75.8,0.00,Vero Beach Municipal Arpt
27.683,-97.283,74.5,0.00,Corpus Christi Nas
27.7,-97.433,74.4,0.00,Corpus Christi Cabaniss Naas
27.741,-98.025,77.4,0.00,Alice International Arpt
27.774,-97.512,75.3,0.00,Corpus Christi International Airport
27.85,-82.517,75.1,0.00,Mac Dill Afb Airport
27.962,-82.54,74.9,0.00,Tampa Intl Arpt
28.101,-80.644,74.5,0.00,Melbourne Regional Ap
28.2,-177.383,72.1,0.00,Henderson Field Airport
28.233,-80.6,74.0,0.00,Patrick Afb Airport
28.457,-99.218,77.8,0.00,Cotulla Faa Ap
28.483,-80.567,75.3,0.00,Cocoa Beach Cape Kennedy Afs
28.545,-81.333,73.3,0.00,Orlando Municipal Arpt
28.725,-96.254,73.5,0.00,Palacios Municipal Airport
28.783,-97.083,75.1,0.00,Victoria
28.95,-107.817,61.7,0.00,Temosachic  Chih.
29.096,-111.048,73.6,0.00,General Ignacio P Garcia Intl / Hermosillo Intl
29.17,-118.32,62.9,0.00,Isla Guadalupe
29.183,-81.048,70.7,0.00,Daytona Beach Regional Arpt
29.233,56.567,88.8,0.00,Baft
29.267,-100.283,73.1,0.00,Del Rio(Nexrad)
29.273,-94.859,70.7,0.00,Galveston Scholes Field
29.35,-98.45,75.8,0.00,Brooks Afb
29.367,-100.917,77.2,0.00,Del Rio Intl
29.383,-98.583,75.2,0.00,Lackland Air Force Base (Kelly Field Annex)
29.5,60.883,77.9,0.00,Zawidan
29.533,-98.262,74.6,0.00,Randolph Afb Airport
29.544,-98.484,74.1,0.00,San Antonio International Airport
29.561,34.96,81.4,0.00,Eilat
29.617,-95.167,73.1,0.00,Ellington Field Airport
29.617,52.55,64.8,0.00,Shiraz
29.633,-95.267,72.9,0.00,William P Hobby
29.633,-83.105,74.3,0.00,Cross City Airport
29.951,-94.021,71.9,0.00,Port Arthur Jefferson County
29.997,-90.278,73.6,0.00,Louis Armstrong New Orleans Intl Ap
30.033,-90.083,78.4,0.00,New Orleans Nas
30.049,-90.029,78.7,0.00,Lakefront Airport
30.067,-85.583,72.6,0.00,Tyndall Afb Airport
30.125,-93.228,71.2,0.00,Lake Charles Regional Airport
30.183,-97.68,74.6,0.00,Austin-Bergstrom Intl Airport
30.2,-97.683,74.9,0.00,Bergstrom Afb/Austi
30.205,-91.988,72.7,0.00,Lafayette Regional Airport
30.21,-93.143,70.8,0.00,Lake Charles Wb Airp
30.233,-81.667,73.2,0.00,Jacksonville Nas
30.321,-97.76,73.6,0.00,Austin Mueller Municipal Ap
30.35,-87.317,71.9,0.00,Pensacola Nas
30.35,-87.267,69.2,0.00,Pensacola Chevalier Fld Nas
30.35,57.167,70.8,0.00,Kerman East
30.367,-109.683,66.6,0.00,Pilares De Nacozari   Son.
30.367,-107.95,70.4,0.00,Nueva Casas Grandes   Chih.
30.371,-104.017,71.3,0.00,Marfa
30.371,48.228,81.8,0.00,Abadan
30.393,-84.353,73.8,0.00,Tallahassee Dale Mabry Field
30.4,-87.283,71.6,0.00,Pensacola Corry Fld Naas
30.417,-88.917,73.1,0.00,Keesler Air Force Base
30.478,-87.187,71.7,0.00,Pensacola Regional Ap
30.483,-87.35,71.7,0.00,Pensacola Saufley Nas
30.483,-86.517,72.0,0.00,Eglin Afb Airport
30.495,-81.694,73.3,0.00,Jacksonville International Airport
30.511,-99.766,73.2,0.00,Junction
30.537,-91.147,73.4,0.00,Baton Rouge Ryan Arpt
30.549,47.662,80.7,0.00,Basrah Intl
30.617,-106.517,72.0,0.00,Villa Ahumada
30.626,-88.068,72.1,0.00,Mobile Downtown Airport
30.667,-96.55,73.8,0.00,Bryan Afb
30.688,-88.246,71.2,0.00,Mobile Regional Ap
30.717,-111.833,68.5,0.00,Altar  Son.
30.78,-86.523,71.6,0.00,Crestview Bob Sikes Ap
30.783,-83.277,72.5,0.00,Valdosta Regional Airport
30.836,-85.184,73.0,0.00,Marianna Municipal Ap
31.067,-97.833,72.4,0.00,Robert Gray Aff Airport
31.152,-81.391,70.3,0.00,Brunswick Malcolm Mckinnon Ap
31.183,-90.471,72.5,0.00,Mccomb Pike County Ap
31.233,-85.433,72.4,0.00,Dothan Municipal Ap
31.236,-94.754,72.1,0.00,Lufkin Angelina Co
31.25,-81.467,70.3,0.00,Brunswick Glynn Co A
31.287,34.723,61.4,0.00,Teyman
31.3,-113.55,68.6,0.00,Puerto Penasco  Son.
31.395,-92.291,71.9,0.00,Esler Regional Airport
31.4,-100.4,75.3,0.00,San Angelo Goodfellow Afb
31.417,-87.033,71.4,0.00,Evergreen Intermediate Fld
31.458,-109.606,64.2,0.00,Douglas Municipal Ap
31.536,-84.194,71.2,0.00,Albany Municipal Ap
31.536,-82.507,69.7,0.00,Alma Bacon County Ap
31.619,-97.228,73.5,0.00,Waco Regional Airport
31.633,-97.067,73.2,0.00,Waco James Connally Afb
31.667,-116.567,60.5,0.08,Ensenada Bc
31.75,-105.083,68.2,0.00,Salt Flat
31.78,-103.202,75.8,0.00,Winkler County Airport
31.811,-106.376,71.0,0.00,El Paso International Airport
31.833,-107.65,66.7,0.00,Columbus Muni
31.833,-107.633,66.3,0.00,Columbus
31.833,-106.4,70.2,0.00,Biggs Afb
31.865,35.219,51.7,0.04,Jerusalem
31.867,23.9,59.7,0.00,Tobruk
31.933,-108.983,64.5,0.00,Rodeo
31.948,-102.209,72.4,0.00,Midland International Airport
32.009,-81.146,70.9,0.00,Hunter Aaf
32.011,34.887,60.6,0.00,Ben Gurion
32.1,34.783,64.3,0.01,Sde-Dov (Tel-Aviv)
32.131,-110.955,68.8,0.00,Tucson International Ap
32.131,-81.202,69.2,0.00,Savannah/Hilton Head Intl Airport
32.133,46.033,78.2,0.00,Kut-Al-Hai
32.167,-110.883,68.5,0.00,Davis-Monthan Afb Airport
32.233,-101.5,72.5,0.00,Big Spring
32.283,-106.917,71.9,0.00,Las Cruces Intl
32.3,-86.408,74.5,0.00,Montgomery Dannelly Field
32.321,-90.078,74.7,0.00,Jackson International Airport
32.333,-90.233,74.3,0.00,Jackson 4 Nw
32.334,-104.258,72.0,0.00,Cavern City Air Trml Arpt
32.335,-88.744,73.6,0.00,Meridian Key Field
32.35,-95.4,71.7,0.00,Tyler Pounds Rgnl
32.35,-86.983,74.9,0.00,Craig Fld
32.35,-85.0,71.7,0.00,Lawson Aaf Airport
32.367,-64.683,68.6,0.00,Naval Atlantic Meterology & Oceanography Facility
32.383,-86.35,75.6,0.00,Maxwell Afb Airport
32.411,-99.682,73.3,0.00,Abilene Regional Airport
32.447,-93.824,73.3,0.00,Shreveport Regional Arpt
32.5,-93.667,73.6,0.00,Barksdale Air Force Base
32.516,-92.041,74.0,0.00,Monroe Regional Airport
32.516,-84.942,69.5,0.00,Columbus Metro Airport
32.633,-106.4,71.9,0.00,White Sands Missile Range Site No.39
32.633,-83.6,68.5,0.00,Robins Afb Airport
32.667,-114.6,68.7,0.00,Yuma Intl Arpt
32.667,35.183,61.3,0.04,Ramat-David
32.685,-83.653,68.6,0.00,Macon Middle Ga Regional Ap
32.693,-103.213,70.9,0.00,Lea County Regional Airport
32.7,-117.2,58.6,0.55,North Island Nas
32.733,-96.967,73.7,0.00,Naval Air Station Operations
32.734,-117.183,58.9,0.00,San Diego Lindbergh Field
32.75,-96.967,73.4,0.00,Dallas Hensley Field Afb
32.751,51.862,66.3,0.00,Esfahan Shahid Beheshti Intl
32.767,-97.45,70.6,0.00,Fort Worth Naval Air Station Jrb/Carswell Field
32.782,-98.06,73.2,0.00,Mineral Wells Airport
32.817,-115.683,67.5,0.00,El Centro Naf
32.819,-97.361,73.0,0.00,Fort Worth Meacham
32.85,-106.1,67.7,0.00,Holloman Afb
32.852,-96.856,73.9,0.00,Dallas Love Field Airport
32.867,-117.133,55.9,0.00,San Diego Miramar Nas
32.883,-112.717,70.8,0.00,Gila Bend Af Aux
32.899,-80.041,66.8,0.00,Charleston Afb/International Airport
32.9,13.283,67.8,0.00,Wheelus Fld
33.033,40.283,65.1,0.00,Rutbah
33.212,-87.616,73.8,0.00,Tuscaloosa Municipal Ap
33.221,-92.814,71.7,0.00,El Dorado Goodwin Field
33.233,-117.417,57.1,0.00,Oceanside Caa Ap
33.237,-107.268,61.8,0.00,Truth Or Consequences Muni Ap
33.25,-119.45,54.8,0.00,San Nicholas Island
33.3,-111.667,68.8,0.00,Williams Gateway Airport
33.308,-104.508,67.7,0.00,Roswell International Air Center Ap
33.364,-81.963,65.9,0.00,Augusta Bush Field
33.4,-104.533,65.7,0.00,Roswell Muni Ap
33.405,-118.416,49.6,0.00,Santa Catalina Buffalo Spring
33.428,-112.004,68.0,0.00,Phoenix Sky Harbor Intl Ap
33.433,-112.367,69.0,0.00,Litchfield Park Naf
33.456,-93.988,71.2,0.00,Texarkana Regional Airport-Webb Field
33.496,-90.087,73.3,0.00,Greenwood Municipal Ap
33.517,126.533,56.3,0.00,Jeju
33.55,-112.367,67.4,0.00,Luke Afb Airport
33.566,-86.745,73.0,0.00,Birmingham Municipal Ap
33.586,130.451,54.1,0.00,Fukuoka
33.587,-85.856,71.2,0.00,Anniston Calhoun Co Ap
33.6,-102.05,66.6,0.00,Reese Afb/Lubbock
33.619,-114.714,67.9,0.00,Blythe Riverside Co
33.627,-116.159,67.5,0.00,Palm Springs Thermal Ap
33.63,-84.442,67.7,0.00,Atlanta Hartsfield Intl Ap
33.633,130.5,56.1,0.00,Brady
33.666,-101.823,66.8,0.00,Lubbock International Airport
33.667,-117.733,55.9,0.00,El Toro Mcas
33.667,131.033,51.5,0.00,Yukuhashi
33.683,-78.933,66.3,0.00,Myrtle Beach Intl Airport
33.783,-118.05,56.5,0.00,Los Alamitos
33.812,-118.146,56.1,0.00,Long Beach / Daugherty Field / Airport
33.812,-78.724,66.0,0.00,North Myrtle Beach Airport
33.867,-84.3,72.2,0.00,Atlanta Nas
33.883,130.653,55.1,0.00,Ashiya
33.9,-117.25,53.8,0.00,March Air Reserve Base
33.917,-84.517,68.5,0.00,Dobbins Air Reserve Base Airport
33.933,-116.967,50.2,0.00,Beaumont 1 E
33.938,-118.389,56.2,0.00,Los Angeles Municipal Arpt
33.942,-81.118,67.0,0.00,Columbia Metro Arpt
33.967,-80.467,68.1,0.00,Shaw Air Force Base
33.979,-98.493,71.7,0.00,Sheppard Afb/Wichita Falls Muni Ap
34.067,-117.65,55.2,0.00,Ontario
34.095,-117.235,56.8,0.00,San Bernardino International Airport
34.117,-119.117,55.0,0.00,Point Mugu Nf
34.175,-91.935,70.9,0.00,Pine Bluff
34.185,-79.724,67.2,0.00,Florence City County Ap
34.201,-118.358,54.6,0.00,Hollywood Burbank Arpt
34.233,-111.333,50.8,0.00,Payson
34.268,-77.9,67.2,0.00,Wilmington New Hanover County
34.3,-97.15,71.7,0.00,Ardmore Intermediate Fld
34.3,-97.017,72.0,0.00,Ardmore Municipal
34.3,-6.6,62.3,0.00,Port Lyautey
34.317,47.083,60.8,0.00,Kermanshan
34.348,-85.161,65.8,0.00,Rome R B Russell Ap
34.35,45.383,75.7,0.00,Khanaqin
34.426,-119.843,54.9,0.00,Santa Barbara Municipal Ap
34.427,-100.283,65.6,0.00,Childress Municipal Ap
34.498,-82.71,66.4,0.00,Anderson County Ap
34.583,-117.383,51.6,0.12,Southern California Logistics Airport
34.608,-79.059,65.7,0.00,Lumberton Municipal Ap
34.629,-118.084,51.6,0.00,Palmdale Airport
34.65,-98.4,67.8,0.00,Henry Post Aaf Airport
34.652,-112.421,50.8,0.00,Prescott Municipal Ap
34.718,32.486,61.6,0.00,Pafos Intl
34.727,-92.239,71.9,0.00,Little Rock Adams Field
34.744,-118.724,39.3,0.00,Sandberg
34.744,-87.6,71.7,0.00,Muscle Shoals Regional Ap
34.767,-82.383,64.8,0.00,Greenville Donaldson Afb
34.768,-114.619,69.9,0.00,Needles Airport
34.786,135.438,52.1,0.00,Osaka Intl
34.846,-82.346,65.2,0.00,Greenville Downtown Arpt
34.854,-116.786,60.0,0.08,Barstow-Daggett Airport
34.9,-117.867,53.0,0.00,Edwards Air Force Base
34.9,-76.883,67.5,0.00,Cherry Point Mcas
34.917,-81.95,65.5,0.00,Spartanburg
34.933,-120.417,52.9,0.00,Santa Maria Hancock Field
34.983,-89.783,70.8,0.00,Olive Branch
34.989,-99.053,67.3,0.00,Hobart Municipal Ap
35.028,-110.721,54.8,0.00,Winslow Municipal Ap
35.031,-85.201,69.0,0.00,Chattanooga Lovell Field Ap
35.042,-106.616,60.4,0.00,Albuquerque Intl Sunport Airport
35.05,-107.717,53.0,0.00,Acomita Faa Ap
35.056,-89.987,70.5,0.00,Memphis Municipal Arpt
35.067,-108.833,50.2,0.00,Zuni
35.068,-77.048,64.8,0.00,New Bern Craven Co Regl Ap
35.083,-106.017,51.2,0.00,Otto Faa Ap
35.144,-111.666,41.4,0.00,Flagstaff Pulliam Arpt
35.15,33.283,55.3,0.12,Nicosia Airfield
35.165,-107.902,53.3,0.00,Grants-Milan Muni Airport
35.167,129.133,54.6,0.00,Pusan Ast - Rok K-9
35.174,-79.009,67.2,0.00,Pope Afb Airport
35.182,-103.603,60.1,0.00,Tucumcari Municipal Arpt
35.183,128.933,53.8,0.00,Pusan Korea/Pusan West Ab
35.2,58.467,53.5,0.00,Kashmar
35.217,-75.683,66.6,0.00,Hatteras
35.224,-80.955,64.3,0.00,Charlotte Douglas Municipal A
35.23,-101.704,60.0,0.00,Amarillo Rick Husband Intl Airport
35.233,-33.717,61.9,0.00,Gecitkale
35.255,136.924,52.3,0.00,Nagoya
35.283,62.35,75.7,0.00,Gyshgy
35.333,-94.363,72.6,0.00,Fort Smith Regional Airport
35.389,-97.601,67.1,0.00,Will Rogers World Airport
35.417,-97.383,68.7,0.00,Tinker Afb Airport
35.432,-82.538,60.3,0.00,Asheville Airport
35.434,-119.054,57.0,0.00,Bakersfield Kern County Arpt
35.45,139.45,53.7,0.00,Atsugi Nas
35.469,44.349,67.6,0.01,Kirkuk Ab
35.492,133.236,52.8,0.00,Miho
35.552,139.78,55.6,0.00,Tokyo Intl
35.593,-88.917,71.5,0.00,Jackson Mckellar-Sipes Regl A
35.617,-106.089,53.3,0.00,Santa Fe Municipal Airport
35.654,-105.142,51.3,0.00,Las Vegas Municipal Arpt
35.667,34.567,58.3,0.02,Karpazia
35.67,-120.628,49.8,0.00,Paso Robles Municipal Arpt
35.688,-117.693,59.0,0.00,China Lake Naf
35.7,139.4,52.7,0.00,Tachikawa (Jasdf)
35.743,-81.382,62.4,0.00,Hickory Regional Ap
35.748,139.348,52.5,0.00,Yokota Ab
35.75,139.35,52.5,0.00,Fussa
35.818,-83.986,68.8,0.00,Mc Ghee Tyson Airport
35.833,139.417,52.2,0.00,Iruma
35.842,139.411,52.6,0.00,Iruma
35.892,-78.782,65.1,0.00,Raleigh-Durham International Ap
35.894,128.659,55.6,0.00,Daegu Ab
35.917,126.617,53.3,0.00,Kunsan Ab
35.967,-85.783,70.1,0.00,Smithville Caa Ap
35.967,-77.8,65.0,0.00,Rocky Mount
36.0,-89.409,70.0,0.00,Dyersburg Municipal Ap
36.0,-86.517,72.5,0.00,Smyrna
36.01,-94.169,70.9,0.00,Fayetteville Drake Field
36.017,-102.55,54.9,0.00,Dalhart Municipal Ap
36.072,-115.163,64.1,0.00,Las Vegas Mccarran Intl Ap
36.097,-79.943,61.5,0.00,Piedmont Triad International Airport
36.119,-86.689,72.5,0.00,Nashville International Airport
36.125,-90.924,69.9,0.00,Walnut Ridge Municipal Arpt
36.134,-80.222,63.3,0.00,Winston-Salem Reynolds Ap
36.199,-95.887,72.8,0.00,Tulsa International Airport
36.235,59.641,69.5,0.00,Mashhad Intl / Shahid Hashemi Nejad Intl
36.261,-76.175,63.8,0.00,Monroe Co
36.297,-99.769,59.4,0.00,Gage/Shattuck
36.306,43.147,60.5,0.39,Mosul
36.333,-97.917,65.5,0.00,Vance Afb
36.449,-103.154,49.0,0.00,Clayton Municipal Airpark
36.473,-82.404,65.8,0.00,Bristol Tri City Airport
36.573,-79.336,63.6,0.00,Danville Faa Ap
36.6,-121.867,51.6,0.00,Monterey Naf
36.6,-89.983,68.9,0.00,Malden Faa Airport
36.664,-121.608,51.7,0.00,Salinas Municipal Ap
36.667,-87.483,72.0,0.00,Campbell Aaf Airport
36.717,52.65,70.2,0.00,Babulsar
36.737,-97.102,67.2,0.00,Ponca City Muni
36.741,-104.502,51.3,0.00,Raton Municipal Crews Field A
36.744,-108.229,58.1,0.00,Farmington Municipal Ap
36.78,-119.719,55.3,0.08,Fresno Yosemite International Airport
36.899,30.8,60.9,0.00,Antalya
36.903,-76.192,62.3,0.00,Norfolk Regional Arpt
36.95,-116.083,52.9,0.00,Camp Mercury
36.95,-76.283,64.1,0.00,Norfolk Nas
36.965,-86.424,71.0,0.00,Bowling Green Warren Co Ap
36.967,-84.133,70.5,0.00,Corbin Caa Airport
36.967,127.033,53.5,0.00,A 511 / Desiderio Aaf-Pyeongtaek / Camp Humphreys Rok
36.971,-25.171,61.9,0.00,Santa Maria
36.982,35.28,55.3,0.00,Adana
37.05,-113.517,62.0,0.00,St George Interm Fld
37.056,-88.774,69.9,0.00,Paducah Barkley Field
37.067,-77.95,62.9,0.00,Blackstone
37.083,-76.36,63.3,0.00,Langley Afb Airport
37.133,-80.683,60.1,0.00,Pulaski
37.147,-94.502,71.7,0.00,Joplin Municipal Ap
37.233,69.083,73.0,0.00,Pyandj
37.239,127.007,53.7,0.00,Suwon
37.24,-93.39,69.9,0.00,Springfield Municipal Arpt
37.262,-104.338,48.7,0.00,Trinidad Las Animas County Ap
37.317,-79.974,62.8,0.00,Roanoke Woodrum Arpt
37.321,-79.207,63.0,0.00,Lynchburg Municipal Arpt
37.371,-118.358,54.5,0.00,Bishop Airport
37.383,-120.567,53.7,0.00,Castle Afb
37.406,-122.048,50.7,0.00,Mountain View Moffett Fld Nas
37.439,-105.861,49.7,0.00,Alamosa Arpt
37.467,49.467,59.0,0.00,Anzali
37.505,-77.32,62.8,0.00,Richmond Intl Ap
37.517,126.9,56.8,0.00,Seoul-Mullaedong
37.567,126.967,55.0,0.00,Seoul City
37.6,62.183,76.2,0.00,Bajramaly
37.62,-122.365,50.4,0.00,San Francisco Intl Ap
37.668,45.069,55.4,0.00,Uromiyeh
37.67,-95.484,68.8,0.00,Chanute Martin Johnson Ap
37.683,-97.35,60.6,0.00,Wichita
37.7,127.866,52.3,0.00,Hongchon Korea
37.706,-112.146,37.8,0.00,Bryce Cnyn Faa Ap
37.709,-113.094,50.2,0.00,Cedar City Municipal Ap
37.721,-122.221,51.5,0.00,Oakland Metropolitan
37.733,-122.2,55.7,0.00,Oakland Nas
37.761,-90.428,71.0,0.00,Farmington
37.767,124.733,57.7,0.00,Socheong-Do
37.769,-99.968,48.8,0.00,Dodge City Municipal Arpt
37.783,-122.317,52.5,0.00,Naval Air Station
37.883,128.817,51.8,0.00,Junmujin
37.889,-121.226,51.5,0.00,Stockton Metropolitan Arpt
37.894,40.201,52.0,0.00,Diyarbakir
37.9,-85.967,71.6,0.00,Godman Aaf Airport
37.927,-100.725,48.2,0.00,Garden City Regional Arpt
37.933,-75.433,58.9,0.00,Chincoteague Nas
37.95,139.117,51.3,0.00,Niigata
37.979,32.562,47.8,0.00,Konya
37.987,58.361,77.0,0.00,Ashgabat
38.041,-84.606,69.5,0.00,Lexington Bluegrass Field
38.044,-87.521,70.1,0.00,Evansville Dress Regional Arp
38.049,-103.512,48.5,0.00,La Junta Municipal Ap
38.051,-117.09,51.2,0.00,Tonopah Airport
38.065,-97.861,53.9,0.00,Hutchinson Municipal Ap
38.067,-122.5,51.1,0.00,Hamilton Aaf
38.067,-78.15,62.7,0.00,Gordonsville Faa Ap
38.083,46.283,55.5,0.00,Tabriz
38.131,-91.768,70.7,0.00,Vichy Rolla Natl Arpt
38.181,-85.739,73.2,0.00,Louisville Standiford Field
38.233,-104.633,47.3,0.00,Pueblo Wb Airport
38.233,127.967,52.7,0.00,Wonju Ab
38.267,-121.933,50.6,0.00,Travis Air Force Base
38.289,-104.506,47.7,0.00,Pueblo Memorial Airport
38.3,-94.333,66.2,0.00,Butler Faa Ap
38.3,-76.417,61.9,0.00,Naval Air Station
38.329,-96.195,60.1,0.00,Emporia Municipal Ap
38.333,-77.033,70.4,0.00,Dahlgren Weapons Lab
38.341,-75.51,60.3,0.00,Salisbury Wicomico Co Ap
38.371,-110.715,56.3,0.00,Hanksville
38.379,-81.59,73.4,0.00,Charleston Kanawha Arpt
38.405,141.22,48.4,0.00,Matsushima
38.417,-113.017,50.4,0.00,Milford Municipal Ap
38.417,-82.5,67.6,0.00,Chesapeake Huntington Ap
38.433,27.167,54.5,0.00,Izmir/Guzelyali
38.435,38.091,48.1,0.00,Erhac / Malatya
38.5,-77.3,65.1,0.00,Quantico Mcas
38.507,-121.495,53.0,0.00,Sacramento Executive Arpt
38.513,27.01,54.5,0.00,Cigli
38.55,-89.85,69.7,0.00,Scott Air Force Base/Midamerica Airport
38.567,-121.3,53.1,0.00,Mather Field
38.667,-121.4,53.7,0.00,Sacramento Mcclellan Afb
38.733,30.6,44.0,0.00,Afyon (Mil)
38.753,-90.374,71.8,0.00,St Louis Lambert Int'L Arpt
38.762,-27.091,61.6,0.00,Lajes
38.783,-97.65,53.9,0.00,Salina Muni
38.81,-104.688,40.3,0.00,City Of Colorado Springs Municipal Ap
38.817,-76.867,62.1,0.00,Andrews Air Force Base Airport
38.832,-94.89,61.2,0.00,Olathe Johnson Co Industrial
38.833,-77.017,63.0,0.00,Washington Dc Bolling Field A
38.847,-77.035,63.3,0.00,Ronald Reagan Washington Natl Ap
38.85,-77.033,72.3,0.00,Anacostia Nas
38.876,-98.809,47.0,0.00,Russell Municipal Ap
38.885,-79.853,65.5,0.00,Elkins Elkins-Randolph Co Arp
38.967,-92.367,67.3,0.00,Columbia Municipal Ap
38.983,-89.167,66.8,0.00,Vandalia Faa Airport
38.983,56.283,74.8,0.00,Gyzylarbat
38.991,-76.489,58.2,0.00,U.S. Naval Academy
39.0,-79.117,73.7,0.00,Petersburg
39.0,-78.233,64.7,0.00,Front Royal
39.043,-84.672,69.0,0.00,Cincinnati Greater Cincinnati
39.073,-95.626,58.4,0.00,Topeka Municipal Ap
39.083,63.6,72.3,0.00,Chardzhev
39.1,-122.15,55.1,0.00,Williams Caa Airport
39.121,-94.597,62.5,0.28,Kansas City Downtown Ap
39.126,-123.201,51.2,0.00,Ukiah Municipal Ap
39.133,-75.467,60.4,0.00,Dover Afb Airport
39.134,-108.54,56.5,0.00,Grand Junction Walker Field
39.173,-76.684,61.3,0.00,Baltimore-Washington Intl Airport
39.267,-85.9,68.4,0.00,Columbus Bakalar
39.267,-81.567,68.1,0.00,Parkersburg Wso
39.277,-120.71,37.9,0.00,Blue Canyon Ap
39.317,-120.333,33.0,0.00,Donner Summit
39.367,-101.693,41.8,0.00,Goodland Renner Field
39.367,-94.917,59.3,0.00,Sherman Aaf
39.367,-75.067,57.6,0.00,Millville Municipal Ap
39.376,-99.83,46.1,0.00,Hill City Municipal Ap
39.383,-112.517,50.1,0.00,Delta Faa Ap
39.402,-77.984,62.0,0.00,Martinsburg Eastern Wv Reg Ap
39.417,-118.717,50.5,0.00,Fallon Naas
39.417,-77.383,70.5,0.00,Frederick
39.433,-77.45,58.9,0.00,Frederick Af
39.433,-77.449,59.2,0.00,Frederick Md/Camp Detrick
39.45,-87.3,67.6,0.00,Terre Haute Hulman Regional A
39.45,-74.583,56.2,0.00,Atlantic City Nas
39.452,-74.567,56.6,0.00,Atlantic City International Airport
39.467,-76.167,58.0,0.00,Aberdeen Pvng Grnd
39.484,-119.771,44.5,0.00,Reno Wbo
39.619,27.926,48.9,0.00,Balikesir
39.643,-79.916,67.8,0.00,Morgantown Municipal Ap
39.65,-106.917,44.4,0.00,Eagle County Ap
39.673,-75.601,59.4,0.00,Wilmington Dupont Ap
39.7,-104.75,42.9,0.00,Denver Nas
39.701,66.984,67.0,0.00,Samarkand
39.71,39.527,48.1,0.00,Erzincan
39.717,-104.9,41.6,0.00,Denver Lowry Afb
39.732,-86.279,67.3,0.00,Indianapolis Weir Cook Munici
39.75,-104.867,42.0,0.00,Denver Wsfo
39.774,-94.923,55.7,0.00,St Joseph Wbo
39.784,30.582,45.7,0.00,Eskisehir
39.817,-82.933,67.8,0.00,Rickenbacker Intl Airport
39.833,-84.05,68.2,0.00,Wright-Patterson Afb Airport
39.845,-89.684,65.4,0.00,Springfield Capital Ap
39.868,-75.231,59.7,0.00,Philadelphia International Ap
39.883,-75.167,60.5,0.00,Philadelphia Naas
39.906,-84.219,66.9,0.00,Dayton Municipal Arpt
39.937,-91.192,60.4,0.00,Quincy Muni Baldwin Fld
39.944,-81.892,66.1,0.00,Zanesville Municipal Ap
39.95,32.689,50.2,0.00,Etimesgut
39.957,41.17,41.1,0.00,Erzurum
39.983,-82.883,67.3,0.00,Columbus Nas
39.991,-82.877,67.0,0.00,Port Columbus International Airport
40.017,-74.6,59.0,0.00,Mcguire Afb Airport
40.033,-74.35,57.6,0.00,Lakehurst Nas
40.068,-118.569,50.9,0.00,Lovelock Derby Field
40.097,-92.543,54.6,0.00,Kirksville Cannon Memorial Ap
40.152,-122.254,56.0,0.00,Red Bluff Municipal Arpt
40.167,-112.933,54.8,0.00,Dugway Proving Grou
40.167,-103.217,38.0,0.00,Akron Washington Co Ap
40.176,-80.647,65.5,0.00,Wheeling Ohio County Ap
40.183,-112.933,54.8,0.00,Dugway Pg Utah/Michales Aaf
40.196,-76.772,60.6,0.00,Harrisburg Intl
40.2,-75.15,63.5,0.00,Willow Grove Nas
40.212,44.53,57.5,0.12,Yerevan-Arabkir
40.217,-76.851,60.9,0.00,Harrisburg Capital City Arpt
40.217,69.733,69.8,0.00,Khudjant
40.296,-78.32,60.4,0.00,Altoona Blair Co Arpt
40.3,-88.15,61.4,0.00,Rantoul/Chanute Afb
40.316,-78.834,65.5,0.00,Johnstown Cambria County Ap
40.355,-79.922,65.3,0.00,Pittsburgh Allegheny Co Ap
40.367,71.75,65.8,0.00,Fergana Airport
40.485,-80.214,62.2,0.00,Pittsburgh International Airport
40.51,-101.62,42.8,0.00,Imperial Faa Ap
40.583,-73.883,52.8,0.00,New York Floyd Benne
40.612,-116.892,49.2,0.00,Battle Mountain Lander County
40.639,-73.762,51.9,0.00,New York Fort Totten
40.651,-75.449,57.1,0.00,Allentown Bethlehem-Easton Ar
40.668,-89.684,58.4,0.00,Peoria Greater Peoria Ap
40.683,-74.169,56.1,0.00,Newark International Arpt
40.705,141.372,45.5,0.00,Misawa Ab
40.721,-114.036,55.8,0.00,Wendover Usaf Auxiliary Field
40.733,-73.6,53.5,0.00,Mitchel Field
40.778,-111.969,50.6,0.00,Salt Lake City International Airport
40.779,-73.88,55.1,0.00,New York Laguardia Arpt
40.783,-91.125,53.5,0.00,Burlington Municipal Ap
40.783,43.833,49.5,0.02,Gumri
40.789,-99.771,44.6,0.00,Lexington
40.82,-82.518,60.2,0.04,Mansfield Lahm Rgnl
40.821,-76.864,59.0,0.00,Selinsgrove Penn Valley Ap
40.829,-115.789,47.1,0.00,Elko Municipal Arpt
40.829,35.522,50.3,0.00,Merzifon
40.85,-76.117,57.2,0.00,Park Place 1 Nw Wb
40.851,-96.748,46.5,0.00,Lincoln Air Base
40.9,-78.083,56.0,0.00,Philipsburg Mid-State Arpt
40.902,-117.808,49.4,0.00,Winnemucca Municipal Arpt
40.917,-81.433,59.5,0.00,Akron Akron-Canton Airport
40.961,-98.314,44.0,0.00,Grand Island Arpt
40.971,-85.206,57.4,0.16,Fort Wayne International Airport
40.977,28.821,52.5,0.00,Ataturk
40.978,-124.109,48.8,0.00,Arcata Airport
41.014,-83.669,58.4,0.00,Findlay Airport
41.05,-78.583,55.8,0.00,Curwensville
41.067,-73.708,52.8,0.00,White Plains Westchester Co A
41.099,-102.986,37.0,0.00,Sidney Municipal Ap
41.108,-92.447,48.6,0.00,Ottumwa Industrial Ap
41.117,-111.967,49.5,0.00,Hill Afb Airport
41.117,-95.917,47.8,0.00,Offutt Afb Airport
41.121,-100.669,43.8,0.00,North Platte Lee Bird Field
41.15,-79.1,57.3,0.00,Brookville Faa Ap
41.158,-104.807,32.7,0.00,Cheyenne Airport
41.158,-73.129,51.9,0.00,Bridgeport Municipal Arpt
41.196,-112.011,50.2,0.00,Ogden Airport
41.233,-89.617,53.3,0.00,Bradford
41.243,-76.922,58.1,0.00,Williamsport-Lycoming County
41.255,-80.674,59.4,0.00,Youngstown-Warren Regional Airport
41.258,69.281,67.5,0.00,Yuzhny / Tashkent Islam Karimov Intl
41.264,-72.887,54.1,0.00,New Haven Tweed Airport
41.31,-95.899,47.7,0.00,Omaha Eppley Airfield
41.317,-74.0,52.3,0.00,Bear Mountain Wb
41.333,-122.333,43.0,0.00,Mount Shasta
41.334,-75.727,56.8,0.00,Wilkes-Barre Scranton Ap
41.4,-110.417,37.0,0.00,Fort Bridger Ap
41.405,-81.853,59.3,0.00,Cleveland Hopkins Intl Ap
41.465,-90.523,51.2,0.00,Moline Quad City Arpt
41.5,-88.167,53.3,0.00,Joliet
41.5,-74.1,53.4,0.00,Stewart International Airport
41.533,-85.783,53.8,0.00,Goshen Municipal Ap
41.534,-93.653,46.8,0.00,Des Moines Municipal Arpt
41.567,-83.467,55.3,0.00,Toledo Wbas
41.567,60.633,71.5,0.00,Urgench
41.583,-71.417,50.2,0.00,Quonset Point Nas
41.594,-109.053,35.0,0.00,Rock Springs Arpt
41.627,-73.884,52.6,0.00,Poughkeepsie Dutchess Co Ap
41.633,-91.543,48.8,0.00,Iowa City Municipal Ap
41.707,-86.316,52.9,0.00,South Bend St Joseph Co Arpt
41.722,-71.433,50.7,0.00,Providence T F Green Arpt
41.736,-72.651,52.0,0.00,Hartford Brainard Fd
41.75,59.817,72.0,0.00,Dashkhovuz
41.78,-124.237,50.0,0.00,Crescent City Faa Ai
41.781,-122.468,50.9,0.00,Siskiyou County Airport
41.786,-87.752,51.7,0.00,Chicago Midway Ap
41.833,43.383,54.8,0.12,Borzomi
41.867,-71.017,50.5,0.00,Taunton Muni
41.871,-103.593,37.5,0.00,Scottsbluff W B Heilig Fiel
41.938,-72.683,50.3,0.00,Hartford Bradley Intl Ap
41.96,-87.932,49.2,0.00,Chicago O'Hare International Airport
41.983,-87.9,48.8,0.00,Park Ridge Af
41.986,-97.435,44.5,0.00,Norfolk Karl Stefan Mem Arpt
42.08,-80.183,53.5,0.00,Erie International Ap
42.083,-87.833,48.4,0.00,Naval Air Station
42.083,-76.1,49.8,0.00,Binghamton Tri-Cities Arpt
42.1,-83.167,53.1,0.00,Grosse Ile Nas
42.149,-112.287,45.4,0.00,Malad City Airport
42.158,-72.716,48.2,0.00,Westfield Barnes Muni Ap
42.159,-76.892,50.1,0.00,Elmira Airport
42.167,-121.733,45.8,0.00,Klamath Falls Kingsley Field
42.193,-89.093,45.9,0.00,Rockford Greater Rockford Ap
42.2,-72.533,50.0,0.00,Westover Afb/Metropolitan Airport
42.207,-75.98,49.8,0.00,Binghamton Broome County Arpt
42.233,-83.533,51.2,0.00,Detroit Willow Run Ap
42.267,-84.467,50.7,0.00,Jackson Reynolds Field
42.267,-71.033,53.4,0.00,Squantum Nas
42.271,-71.873,47.7,0.00,Worcester Municipal Arpt
42.308,-85.251,50.2,0.00,W K Kellogg Airport
42.361,-71.01,52.2,0.00,Gen E L Logan International Airport
42.364,69.479,63.8,0.00,Shymkent
42.381,-122.872,52.6,0.00,Medford Jackson County Arpt
42.391,-96.379,45.4,0.00,Sioux City Municipal Arpt
42.398,-90.704,44.3,0.00,Dubuque Municipal Ap
42.409,-83.01,50.4,0.00,Detroit City Airport
42.427,-73.289,44.6,0.00,Pittsfield Municipal Ap
42.47,-71.289,51.6,0.08,Bedford Hanscom Field
42.493,-79.272,51.0,0.00,Dunkirk Chautauqua Co Ap
42.542,-113.766,46.8,0.00,Burley Municipal Arpt
42.571,-77.713,49.9,0.00,Dansville Muni Ap
42.6,-123.364,47.3,0.00,Sexton Summit
42.608,-82.835,54.8,0.00,Selfridge Angb/Train
42.608,-82.818,48.9,0.00,Selfridge Air National Guard Base
42.717,130.783,52.6,0.00,Kraskino
42.747,-73.799,48.2,0.24,Albany International Airport
42.75,-105.383,31.7,0.00,Douglas
42.775,141.692,41.9,0.00,New Chitose
42.78,-84.579,47.3,0.00,Lansing Capital City Arpt
42.815,-108.726,33.2,0.00,Lander Hunt Field
42.837,-103.098,38.9,0.00,Chadron Municipal Ap
42.85,71.3,60.3,0.00,Taraz
42.898,-106.474,34.0,0.00,Natrona County International Ap
42.9,-85.667,45.9,0.00,Grand Rapids
42.9,133.9,48.0,0.00,Preobrazhenie
42.917,-114.717,50.7,0.00,Station 999999
42.92,-112.571,46.7,0.00,Pocatello Municipal Arpt
42.933,-71.438,48.1,0.00,Manchester Municipal Ap
42.933,-71.433,48.5,0.00,Grenier Afb
42.94,-78.736,49.3,0.00,Buffalo Niagara International Airpor
42.955,-87.905,41.3,1.18,General Mitchell International Ap
42.967,-83.749,46.8,0.00,Flint Bishop Arpt
43.033,44.683,56.8,0.00,Vladikavkaz
43.05,-115.867,51.0,0.00,Mountain Home Afb Airport
43.067,-70.817,54.4,0.00,Portsmouth
43.111,-76.104,47.5,0.71,Syracuse Hancock International Ap
43.117,-77.677,46.9,0.00,Rochester Monroe Co Arpt
43.117,131.933,49.4,0.00,Vladivostok
43.141,-89.345,43.3,1.26,Dane Co Regional-Truax Field Airport
43.145,-75.384,46.6,0.00,Utica Oneida County Ap
43.154,-93.327,43.2,0.00,Mason City Municipal Arpt
43.171,-86.237,45.1,0.00,Muskegon County Arpt
43.195,-71.501,46.2,0.00,Concord Municipal Arpt
43.212,-90.181,44.3,0.00,Lone Rock Faa Ap
43.233,76.933,56.3,0.02,Almaty
43.234,-75.407,47.6,0.91,Griffiss Airpark
43.239,-123.355,57.4,0.00,Roseburg Municipal Ap
43.25,45.717,55.8,0.00,Groznyj
43.267,68.217,68.2,0.00,Turkestan
43.35,-73.617,46.4,0.00,Glens Falls Ap
43.367,134.8,44.1,0.00,Moryak-Rybolov North
43.413,-124.244,49.0,0.00,North Bend Muni Airport
43.436,5.214,57.2,0.00,Marseille Provence
43.513,43.637,58.5,0.00,Nalchik
43.516,-112.067,45.4,0.00,Idaho Falls Fanning Field
43.533,-84.08,44.2,0.00,Saginaw Tri City Intl Ap
43.567,-116.241,52.1,0.00,Boise Air Terminal
43.578,-96.754,46.5,0.00,Joe Foss Field Airport
43.583,-119.05,49.4,0.00,Burns Federal Bldg
43.626,-72.305,42.9,0.00,Lebanon Municipal
43.65,-70.3,44.6,0.00,Portland Intl Jetport
43.677,-79.631,44.6,0.00,Lester B Pearson Intl
43.733,44.667,56.5,0.00,Mozdok
43.827,-66.088,45.6,0.00,Yarmouth
43.879,-91.253,44.2,0.31,La Crosse Municipal Airport
43.904,-92.492,43.6,0.00,Rochester Municipal Arpt
43.983,-84.483,42.8,0.00,Gladwin
43.989,-76.026,46.8,0.59,Watertown Intl Airport
44.021,-117.013,50.3,0.00,Ontario Airport
44.05,43.033,60.3,0.00,Pjatigorsk
44.051,-101.601,45.8,0.00,Philip 1 S
44.128,-123.221,52.1,0.00,Eugene Mahlon Sweet Arpt
44.15,-103.1,40.2,0.00,Ellsworth Air Force Base
44.15,133.867,40.0,0.00,Cuguevka
44.167,-112.217,46.5,0.00,Dubois Faa Airport
44.167,66.75,58.2,0.00,Shieli
44.204,-72.562,42.0,0.00,Montpelier Ap
44.217,-104.933,36.0,0.00,Moorcroft 3 S
44.256,-121.139,47.5,0.00,Redmond Roberts Field
44.283,-85.417,41.1,0.00,Cadillac Wexford Co Ap
44.316,-77.633,43.7,0.00,Stirling Ontario Dot
44.316,-69.797,43.3,0.00,Augusta Airport
44.381,-100.286,49.4,0.00,Pierre Regional Ap
44.398,-98.223,46.6,0.00,Huron Municipal Arpt
44.4,131.383,52.0,0.00,Pogranichnyj
44.45,-83.4,40.5,0.00,Oscoda-Wurtsmith Airport
44.468,-73.15,46.4,0.55,Burlington International Airport
44.479,-88.137,40.7,0.87,Austin Straubel International Ap
44.483,34.167,68.7,0.00,Yalta
44.55,-95.083,46.9,0.00,Redwood Falls Muni
44.741,-85.583,40.7,0.00,Traverse City Cherry Capital
44.75,-81.1,43.0,0.00,Wiarton A
44.75,136.15,45.2,0.00,Plastun West
44.769,-106.969,38.8,0.00,Sheridan County Arpt
44.783,44.133,61.6,0.00,Budennovsk
44.798,-68.819,43.4,0.24,Bangor Airport
44.8,-68.817,43.1,0.00,Dow Afb
44.828,-0.716,57.1,0.00,Bordeaux Merignac
44.843,-117.809,49.4,0.00,Baker Municipal Ap
44.867,-91.488,44.6,0.00,Eau Claire Municipal Ap
44.883,-93.229,46.8,0.00,Minneapolis-St Paul International Ap
44.883,-93.217,47.8,0.00,Minneapolis Nas
44.883,-63.517,43.4,0.00,Halifax Intl Arpt &
44.905,-123.001,51.9,0.00,Salem Mcnary Field
44.905,-97.15,45.2,0.00,Watertown Municipal Arpt
44.929,-89.628,42.3,0.00,Wausau Municipal Arpt
44.932,-93.056,47.0,0.00,St Paul Downtown Ap
44.936,-74.846,45.6,0.00,Massena Ap
44.95,-68.667,41.5,0.00,Old Town Faa Airport
44.983,41.117,62.6,0.02,Armavir
45.033,35.383,58.7,0.00,Feodosiia
45.033,39.15,58.5,0.00,Krasnodar
45.05,74.033,56.8,0.00,Buribaytal Southeast
45.217,131.983,44.8,0.00,Turij Rog
45.258,-112.554,41.6,0.00,Dillon
45.267,147.967,30.5,0.06,Kurilsk
45.283,-118.0,48.3,0.00,La Grande Muni Ap
45.323,-75.669,45.7,0.00,Ottawa Macdonald Cartier Intl
45.443,-98.413,47.9,0.00,Aberdeen Municipal Arpt
45.467,-73.75,46.0,0.00,Montreal Dorval Intl Ap
45.511,-118.425,47.0,0.00,Meachum Emergency Ap
45.543,-94.051,46.7,0.00,St Cloud Municipal Arpt
45.55,-122.4,58.0,0.00,Portland Troutdale
45.55,34.55,64.2,0.00,Azovskoye
45.564,-84.793,40.5,0.00,Pellston Emmet County Ap
45.583,-70.867,41.5,0.00,Lac Megantic
45.596,-122.609,54.7,0.00,Portland International Airport
45.619,-121.166,59.2,0.00,The Dalles Municipal Arpt
45.648,-68.693,43.1,0.00,Millinocket Municipal Ap
45.667,28.617,56.2,0.00,Bolgrad
45.698,-118.855,55.0,0.00,Pendleton Municipal Arpt
45.698,-110.441,41.7,0.00,Livingston Mission Field
45.717,-121.833,60.4,0.00,Stevenson
45.767,-92.667,45.0,0.00,Grantsburg
45.767,62.117,67.0,0.00,Kazaly
45.788,-111.161,40.8,0.00,Bozeman Gallatin Field
45.807,-108.542,42.4,0.00,Billings Municipal Arpt
45.867,-111.967,42.3,0.00,Whitehall
45.867,133.733,44.9,0.00,Dal'Nerechensk
45.868,-95.394,45.8,0.00,Alexandria Municipal Ap
45.965,-112.501,39.8,0.00,Butte Silver Bow Co Arpt
46.033,38.15,68.0,0.00,Primorsko-Ahtarsk
46.095,-118.287,57.2,0.00,Walla Walla Regional Arpt
46.117,-122.894,57.3,0.00,Kelso Wb Ap
46.117,-67.8,40.6,0.00,Houlton Intl
46.157,-123.883,51.8,0.00,Astoria Clatsop County Arpt
46.167,-60.05,43.2,0.00,Sydney A
46.183,45.35,66.4,0.00,Yashkul'
46.364,-79.423,39.5,0.00,North Bay
46.375,-117.016,55.4,0.00,Lewiston Nez Perce County Arp
46.427,-105.883,44.9,0.00,Miles City Municipal Arpt
46.433,-63.833,42.0,0.00,Summerside
46.479,-84.357,38.8,0.00,Sault Ste Marie
46.483,-122.817,51.8,0.00,Toledo Winlock Muni Ap
46.568,-120.543,53.8,0.00,Yakima Air Terminal
46.583,79.1,49.0,0.00,Burlyu-Tyube /Burliu-Tobe
46.606,-111.964,44.0,0.00,Helena Arpt
46.617,141.95,36.0,0.06,Nevelsk
46.638,-113.176,40.6,0.00,Drummond Aviation
46.667,-85.95,36.3,0.00,Grand Marais 2 E
46.683,-68.05,40.5,0.00,Nern Maine Rgnl Arpt At Presque Is Airport
46.783,-100.757,45.5,0.00,Bismarck Municipal Arpt
46.799,-102.797,44.1,0.00,Dickinson Municipal Ap
46.8,134.267,43.6,0.00,Bikin
46.833,35.367,61.4,0.00,Melitopol'
46.837,-92.183,39.9,0.00,Duluth International Airport
46.85,151.867,30.9,0.05,Simusir
46.871,-68.017,40.7,0.00,Caribou Municipal Arpt
46.921,-114.093,47.1,0.00,Missoula Johnson-Bell Fld
46.925,-96.811,47.9,0.00,Hector International Airport
46.926,-98.669,46.4,0.00,Jamestown Municipal Arpt
46.95,-67.883,40.3,0.00,Loring Afb/Limeston
46.973,-123.93,53.3,0.00,Hoquiam Ap
46.973,-122.903,54.0,0.00,Olympia Municipal Arpt
47.017,28.983,59.0,0.00,Chisinau
47.034,-120.53,52.2,0.00,Ellensburg Bowers Fi
47.049,-109.458,41.4,0.00,Lewistown Municipal Arpt
47.15,-122.483,55.3,0.00,Mcchord Afb Airport
47.169,-88.489,39.0,0.00,Hancock Houghton Co Ap
47.2,-114.883,46.4,0.00,Superior
47.2,73.35,52.2,0.00,Mointy
47.208,-119.319,55.4,0.00,Grant County Intl Airport
47.25,39.817,64.8,0.00,Rostov-Na-Donu
47.277,-121.337,47.3,0.00,Stampede Pass
47.3,-53.983,40.9,0.00,Argentia (Aut)
47.308,-119.515,57.0,0.00,Ephrata Ap Fcwos
47.333,142.8,35.6,0.00,Dolinsk
47.417,10.983,31.5,0.00,Zugspitze Mountain
47.444,-122.314,53.2,0.00,Seattle-Tacoma International Airport
47.457,-115.645,43.2,0.00,Mullan Pass Vor/Dme
47.473,-111.382,48.9,0.00,Great Falls Intl Arpt
47.483,11.067,56.9,0.00,Garmisch (Usa-Hp)
47.517,-111.183,48.9,0.00,Malmstrom Afhp Heliport
47.53,-122.301,55.8,0.00,Boeing Fld/King Co Intl Ap
47.55,134.817,42.4,0.00,Vjazemskaja
47.567,31.333,57.6,0.00,Voznesens'K
47.583,34.45,59.4,0.00,Nikopol'
47.619,-52.752,41.4,0.00,St Johns Intl
47.622,-117.528,53.8,0.00,Spokane International Airport
47.633,-117.65,54.7,0.00,Fairchild Air Force Base
47.633,43.15,66.4,0.00,Kotel'Nikovo
47.667,136.183,39.5,0.00,Gvasjugi
47.683,-122.267,55.2,0.00,Seattle Nas
47.733,130.967,45.5,0.00,Ekaterino-Nikol'Skoe
47.767,-116.817,49.5,0.00,Coeur D Alene Air Te
47.783,27.95,57.8,0.00,Balti
47.8,11.017,57.6,0.00,Hohenpeissenberg
47.85,30.267,53.0,0.00,Liubashivka
47.85,59.617,65.3,0.00,Celkar
47.867,10.617,70.5,0.00,Kaupbeuren
47.883,8.0,51.4,0.00,Feldberg/Schwarzwal
47.9,-122.283,53.5,0.00,Snohomish Co
47.943,-97.184,44.2,0.00,Grand Forks International Ap
47.967,139.533,33.2,0.02,Grossevichi
48.0,-66.683,40.5,0.00,Campbellton Center
48.0,7.85,61.9,0.00,Freiburg (Civ/Fafb)
48.033,33.217,47.5,0.00,Kryvyi Rih
48.067,11.633,57.1,0.00,Neubiberg (Ger-Afb)
48.067,37.767,56.8,0.04,Donets'K
48.067,153.217,28.5,0.02,Matua
48.133,-123.4,52.2,0.00,Port Angeles Wb Ap
48.133,36.233,50.5,0.00,Chaplyne
48.15,-103.617,48.7,0.00,Williston
48.183,-106.633,51.6,0.00,Glasgow # 2
48.206,11.267,56.3,0.00,Furstenfeldbruck
48.217,46.733,68.0,0.00,Verhnij Baskunchak
48.255,-101.273,44.8,0.00,Minot Faa Ap
48.304,-114.264,47.8,0.00,Kalispell Glacier Pk Int'L Ar
48.321,16.112,60.2,0.00,Tulln
48.322,11.949,60.6,0.00,Erding
48.331,-70.996,50.1,0.00,Bagotville
48.35,-122.667,50.6,0.00,Whidbey Island Nas
48.354,11.786,58.1,0.00,Munchen
48.367,-89.317,-3.9,0.00,Thunder Bay
48.383,-124.733,49.5,0.00,Tatoosh Island
48.383,9.95,56.8,0.00,Ulm (Mil/Met)
48.425,10.932,57.9,0.00,Augsburg
48.517,32.2,57.6,0.00,Kirovohrad
48.528,135.188,40.1,0.00,Khabarovsk Novy
48.533,-58.55,40.6,0.00,Stephenville Dymond
48.561,-93.398,42.1,0.00,International Falls Intl Ap
48.567,39.25,58.5,0.00,Luhans'K
48.583,13.467,62.9,0.00,Passau
48.6,34.967,59.8,0.00,Dnipropetrovs'K
48.6,137.05,33.4,0.00,Tivjaku
48.603,-112.375,45.1,0.00,Cut Bank Muni Ap
48.617,61.267,59.0,0.00,Irgiz
48.65,144.733,33.4,0.00,Mys Terpeniya
48.667,9.867,57.4,0.00,Stoetten
48.69,9.222,60.5,0.00,Stuttgart
48.725,2.359,62.3,0.00,Orly
48.733,132.95,42.5,0.00,Birobidzhan
48.767,30.233,52.8,0.00,Uman'
48.794,-122.537,50.4,0.00,Bellingham Intl Airport
48.967,24.4,50.5,0.00,Ivano-Frankivs'K
49.017,10.967,61.2,0.00,Weissenburg
49.033,8.367,59.4,0.00,Karlsruhe (Usa-Af)
49.05,12.1,58.0,0.00,Regensburg/Oberhub
49.067,142.033,29.7,0.02,Uglegorsk
49.117,13.133,51.4,0.00,Grosser Arber (Mtn)
49.117,154.533,33.3,0.00,Severgino Southeast
49.15,57.117,64.0,0.00,Temir
49.183,37.3,56.2,0.00,Izium
49.217,9.517,66.2,0.00,Oehringen
49.233,28.6,49.4,0.00,Vinnytsia
49.414,-82.468,35.4,0.00,Kapuskasing
49.417,130.083,43.5,0.00,Arhara
49.45,136.567,38.5,0.00,Troickoe
49.473,8.514,63.0,0.00,Mannheim City
49.483,129.467,45.7,0.00,Astashikna
49.533,25.667,47.7,0.00,Ternopil'
49.55,134.733,35.7,0.22,Neran
49.567,42.75,58.5,0.00,Serafimovic
49.567,111.967,36.0,0.16,Kyra
49.6,34.55,52.4,0.00,Poltava
49.617,128.65,42.6,0.00,Pojarkovo
49.627,6.212,59.0,0.00,Luxembourg
49.635,63.482,64.5,0.00,Torgai
49.667,12.183,61.0,0.00,Weiden (Mil/Met)
49.75,6.667,61.1,0.00,Trier/Petrisberg
49.75,142.833,34.8,0.04,Smirnykh
49.767,9.967,62.6,0.00,Wurzburg (Usa-Af)
49.813,23.956,51.4,0.00,Lviv Intl
49.833,118.383,47.3,0.00,Kajlastuj
49.933,40.567,55.8,0.00,Bogucar
50.0,33.017,51.2,0.00,Lubny
50.017,8.667,61.7,0.00,Langen
50.026,8.543,62.1,0.00,Frankfurt Main
50.05,8.325,66.1,0.00,Wiesbaden Aaf
50.117,129.467,44.7,0.00,Zavitaja
50.217,8.45,56.8,0.00,Kleiner Feldberg
50.217,38.1,59.0,0.00,Valujki
50.233,28.733,50.2,0.00,Zhytomyr
50.233,142.583,29.0,0.00,Onor
50.246,57.207,61.5,0.00,Aktyubinsk / Aktobe
50.267,113.267,36.7,0.16,Aksa
50.283,-88.9,30.4,0.00,Armstrong (Aut)  Ont
50.283,127.483,49.0,0.00,Blagovescensk
50.289,11.855,59.4,0.00,Hof Plauen
50.333,119.067,42.5,0.00,Priargunsk
50.367,106.45,35.3,0.02,Kjahta
50.4,116.517,42.0,0.00,Borzya
50.402,30.451,46.5,0.00,Zhuliany Intl
50.417,80.3,51.5,0.00,Semipalatinsk
50.433,131.017,42.6,0.00,Sektagli
50.5,9.95,56.4,0.00,Wasserkuppe (Mount)
50.583,8.7,59.2,0.00,Giessen
50.617,-97.033,39.5,0.00,Gimli Industrial
50.683,156.133,32.8,0.00,Severo-Kuril'Sk
50.7,25.5,50.0,0.00,Luts'K
50.783,127.3,46.0,0.00,Sergejevka
50.783,129.333,45.1,0.00,Bratoljubovka
50.85,34.667,51.2,0.00,Sumy
50.867,132.25,42.9,0.00,Cekunda
50.9,142.167,29.1,0.00,Aleksandrovsk-Sahalinskij
50.912,5.77,60.6,0.00,Maastricht Aachen
50.917,117.933,38.8,0.02,Aleksandrovskij Zavod
50.95,115.583,40.6,0.00,Olovjannaja
51.022,71.467,54.2,0.00,Astana Intl
51.1,106.65,36.0,0.00,Novoselenginsk
51.151,51.543,62.2,0.00,Uralsk
51.233,33.2,49.5,0.00,Konotop
51.283,26.617,43.2,0.00,Sarny
51.289,6.767,62.5,0.00,Dusseldorf
51.3,9.45,59.9,0.00,Kassel
51.3,37.883,52.7,0.00,Staryj Oskol
51.317,28.783,48.4,0.00,Ovruch
51.317,108.867,30.0,0.00,Petrovskij Zavod
51.317,119.617,37.0,0.02,Nerchinskij Zavod
51.35,1.367,51.2,0.00,Manston
51.35,110.467,34.2,0.00,Hilok
51.35,112.467,37.1,0.00,Ulety
51.35,130.433,40.8,0.00,Verhnjaja Tom
51.35,139.1,34.7,0.20,Suhanovka
51.4,6.967,64.3,0.00,Essen/Mulheim
51.417,135.083,41.0,0.00,Hularin
51.449,4.342,62.3,0.00,Woensdrecht
51.45,3.6,57.1,0.00,Vlissingen
51.45,5.375,60.2,0.00,Eindhoven
51.45,128.117,45.0,0.00,Svobodnyj
51.467,31.25,48.0,0.00,Chernihiv
51.478,-0.461,58.5,0.00,London Heathrow
51.483,114.533,34.4,0.04,Sedlovaja
51.533,59.983,60.5,0.00,Adamovka
51.55,43.15,53.2,0.00,Balashov
51.565,46.047,50.2,0.00,Tsentralny
51.567,4.932,57.6,0.00,Gilze Rijen
51.567,105.117,38.8,0.04,Tanhoj
51.576,81.217,48.7,0.00,Rubcovsk
51.583,126.75,43.9,0.00,Kumara
51.65,103.667,41.3,0.02,Sljudjanka
51.683,100.983,29.8,0.00,Mondy
51.717,135.933,38.7,0.20,Duki
51.733,112.0,33.2,0.00,Mogzon
51.767,36.167,48.2,0.00,Kursk
51.796,55.457,67.4,0.00,Orenburg
51.808,107.438,34.1,0.00,Mukhino
51.814,39.23,50.0,0.00,Chertovitskoye
51.833,41.483,48.2,0.00,Zerdevka
51.867,116.033,38.3,0.04,Shilka
51.883,-176.65,40.7,0.00,Adak Nas
51.917,143.133,30.0,0.02,Nogliki
51.967,84.95,43.2,0.00,Belokuriha
51.983,4.1,56.1,0.00,Hoek Van Holland
51.983,127.65,41.6,0.00,Simanovsk
52.026,113.306,37.3,0.13,Kadala
52.033,4.35,63.4,0.00,Ypenburg(Nafb)
52.033,48.833,55.4,0.02,Pugacev
52.05,106.65,36.0,0.02,Kabansk
52.061,5.873,65.8,0.00,Deelen
52.1,-0.05,55.5,0.00,Bassingbourn
52.1,5.183,59.9,0.00,De Bilt
52.117,26.117,49.0,0.00,Pinsk
52.167,4.433,56.2,0.00,Valkenburg
52.167,109.783,36.1,0.00,Horinsk
52.217,27.867,55.8,0.00,Zhitckovichi
52.233,117.7,37.3,0.12,Sretensk
52.25,87.117,41.2,0.00,Turocak
52.267,133.983,27.0,0.00,Sofijskij Priisk
52.27,6.874,63.3,0.00,Twente
52.309,4.764,58.2,0.00,Schiphol
52.35,129.917,40.3,0.00,Norsk
52.357,-0.108,55.5,0.00,Wyton
52.367,0.483,55.2,0.00,Mildenhall Raf    &
52.383,140.467,35.7,0.02,Bogorodskoe
52.4,0.567,54.8,0.00,Lakenheath Raf
52.417,136.5,38.1,0.02,Im Poliny Osipenko
52.461,9.685,59.7,0.00,Hannover
52.473,13.404,61.6,0.00,Tempelhof
52.483,0.517,54.9,0.00,Feltwell
52.483,31.667,50.0,0.00,Zlynka
52.517,82.767,49.0,0.00,Alejskaja
52.533,111.55,32.3,0.02,Sosnovo-Ozerskoe
52.633,38.517,50.4,0.00,Elec
52.667,156.233,29.2,0.00,Oktiabr'Skaya
52.7,137.533,33.1,0.02,Guga
52.717,174.1,37.8,0.00,Eareckson As
52.75,120.033,37.3,0.16,Urjupino
52.767,109.967,25.0,0.02,Zamakta
52.769,-108.244,38.9,0.00,North Battleford
52.783,126.0,39.9,0.00,Chernjaevo
52.8,131.717,36.3,0.00,Stojba
52.817,104.767,39.7,0.01,Ust'Ordynskij
52.85,0.767,51.4,0.00,Sculthorpe (Af Met)
52.867,158.65,38.1,0.00,Petropavlovsk-Kamchatskij
52.883,40.483,46.6,0.00,Micurinsk
52.933,36.0,47.4,0.00,Orel
52.967,4.75,52.4,0.00,Den Helder
52.967,11.133,57.7,0.00,Luchow/Rehbeck
52.967,78.65,50.5,0.00,Slavgorod
52.967,101.983,37.8,0.00,Inga
52.983,108.283,33.5,0.00,Gorjacinsk
53.048,8.787,60.3,0.00,Bremen
53.067,117.483,30.6,0.24,Zilovo
53.067,132.933,32.1,0.00,Ekimcan
53.083,4.75,49.5,0.00,Texel Island
53.1,105.533,34.2,0.08,Bajandaj
53.12,6.579,58.9,0.00,Eelde
53.133,45.017,53.5,0.00,Penza
53.133,133.967,32.6,0.02,Selemdza
53.2,112.783,31.6,0.10,Romanovka
53.214,34.176,44.5,0.00,Bryansk
53.217,63.617,60.5,0.00,Kostanay
53.229,5.761,56.1,0.00,Leeuwarden
53.25,-131.8,45.7,0.00,Sandspit Awos  Bc
53.317,-60.417,35.8,0.00,Goose Bay Ua
53.364,83.539,46.3,0.00,Barnaul / Mikhaylovka
53.367,5.217,55.9,0.00,Terschelling(Lgt-H)
53.383,-2.65,50.9,0.00,Penketh
53.4,-0.567,57.4,0.00,Hemswell
53.467,85.917,47.3,0.00,Togul
53.467,125.817,39.4,0.00,Magdagaci
53.467,156.033,30.2,0.00,Kikhchik Kamchatka
53.483,42.633,52.2,0.00,Zametchino
53.505,50.164,53.2,0.00,Kurumoch
53.533,8.583,60.5,0.00,Bremerhaven
53.533,115.617,33.5,0.18,Tungokocen
53.55,118.717,34.7,0.04,Ksen'Evskaja
53.573,-113.521,46.1,0.00,Edmonton City Centre
53.583,55.934,55.2,0.00,Sterlitamak
53.617,52.45,44.7,0.00,Buguruslan
53.63,9.988,59.7,0.00,Hamburg
53.633,98.217,34.5,0.00,Alygdzer
53.7,127.3,37.8,0.00,Zeja
53.75,119.733,36.8,0.04,Mogocha
53.767,87.233,45.0,0.00,Baydayevka
53.817,81.267,48.0,0.00,Kamen'-Na-Obi
53.9,-166.55,42.3,0.00,Dutch Harbor
53.933,32.833,47.8,0.00,Roslavl'
53.933,102.05,39.2,0.00,Zima
53.967,-101.1,28.6,0.00,The Pas Airport
53.967,105.9,38.3,0.00,Kacug
53.967,121.933,41.6,0.00,Erofej Pavlovic
54.0,123.967,41.8,0.00,Skovorodino
54.083,61.617,58.5,0.00,Troizk
54.117,159.983,33.0,0.00,Semyachik
54.167,74.8,50.5,0.00,Cerlak
54.167,103.017,36.8,0.00,Ust-Uda
54.2,72.967,51.0,0.00,Odesskoe
54.2,111.95,28.8,0.18,Karaftit
54.317,48.333,43.0,0.00,Ulyanovsk
54.333,84.217,41.3,0.00,Masljanino
54.483,113.583,27.8,0.18,Bagdarin
54.55,36.367,45.8,0.00,Kaluga
54.558,55.874,48.5,0.00,Ufa
54.6,100.633,39.0,0.00,Tulun
54.617,52.8,45.0,0.00,Bugul'Ma
54.667,86.183,46.5,0.00,Kolchugino
54.75,32.067,50.5,0.00,Smolensk
54.8,105.167,38.0,0.01,Zhigalovo
54.833,69.15,50.0,0.02,Petropavlovsk
54.883,99.033,35.7,0.00,Nizne-Udinsk
54.9,71.25,51.3,0.00,Isil'Kul'
54.967,73.311,54.3,0.00,Omsk Tsentralny
55.013,82.651,49.2,0.00,Tolmachevo
55.039,-131.579,42.1,0.00,Annette Island Airport
55.117,116.767,35.7,0.00,Kalakan
55.15,61.3,55.0,0.00,Chelyabinsk-Gorod
55.167,34.4,44.0,0.00,Vjaz'Ma
55.2,165.983,32.0,0.00,Ostrov Beringa
55.221,-162.732,38.5,0.00,Cold Bay Airport
55.233,84.4,45.2,0.00,Toguchin
55.3,79.617,49.0,0.00,Ubinskoe
55.383,101.033,37.3,0.00,Tanguj
55.467,65.4,58.2,0.00,Kurgan
55.467,113.617,32.5,0.20,Uakit
55.483,105.483,37.5,0.00,Golovskoe
55.509,-4.587,48.6,0.00,Prestwick
55.606,49.279,48.8,0.00,Kazan
55.618,12.656,52.4,0.00,Kastrup
55.767,52.067,48.2,0.00,Elabuga
55.783,109.55,30.7,0.00,Nizhneangarsk
55.833,37.617,48.0,0.00,Moskva Vdnh (Dolgoprudnyj)
55.85,32.95,49.4,0.00,Belyj
55.867,72.2,52.7,0.00,Tjukalinsk
55.9,119.6,30.2,0.00,Imeni Odinnadtsatogo
55.967,124.883,22.5,0.00,Nagornyj
56.05,59.583,47.0,0.00,Ntazepetrovsk
56.2,86.433,46.5,0.00,Jaja
56.217,43.817,50.6,0.00,Gor'Kij
56.217,162.717,30.4,0.00,Ust'-Kamchatsk
56.283,54.967,43.5,0.00,Janaul
56.317,107.617,34.2,0.00,Kazachinsk
56.35,98.367,36.0,0.00,Sitkino
56.371,101.698,35.2,0.00,Bratsk
56.45,138.15,36.6,0.08,Ayan
56.5,84.917,48.2,0.00,Tomsk
56.6,76.567,50.0,0.00,Kystovka
56.743,60.803,43.0,0.02,Koltsovo
56.806,-132.937,42.0,0.00,Petersburg
56.833,124.867,24.0,0.00,Culman/Neriugri
56.85,62.717,54.5,0.00,Kamyslov
56.883,35.867,45.0,0.00,Tver'
56.9,74.383,50.0,0.00,Tara
56.9,118.267,34.5,0.00,Chara
56.917,23.967,56.3,0.00,Riga
56.95,-158.617,40.2,0.00,Port Heiden
57.0,82.067,48.7,0.00,Bakchar
57.048,-135.365,42.4,0.00,Sitka Japonski Ap
57.083,54.75,44.8,0.00,Nozovka
57.117,65.433,55.3,0.00,Tyumen'
57.15,31.183,52.7,0.00,Holm
57.155,-170.222,32.3,0.00,St Paul Island Airport
57.2,39.417,48.8,0.00,Rostov
57.4,21.533,45.7,0.00,Ventspils
57.517,72.4,55.0,0.00,Tevriz
57.533,79.431,48.7,0.00,Pudino
57.55,34.567,47.3,0.00,Vysnij Volocek
57.583,83.783,56.5,0.00,Molchanovo
57.683,71.183,56.3,0.00,Ust'-Isim
57.751,-152.486,38.3,0.00,Kodiak Airport
57.767,108.067,34.0,0.00,Kirensk
57.817,29.95,51.8,0.00,Dno
57.85,114.2,39.0,0.20,Bodajbo
57.883,60.067,45.5,0.00,Nizhnyj Tagil
57.967,33.233,50.3,0.04,Valdaj
58.1,38.683,46.0,0.00,Rybinsk
58.15,68.25,53.7,0.00,Tobol'Sk
58.204,8.085,43.4,0.26,Kjevik
58.307,26.69,49.8,0.00,Tartu
58.317,82.95,51.0,0.00,Kolpasevo
58.357,-134.564,41.5,0.00,Juneau Municipal Arpt
58.411,-135.709,39.5,0.00,Gustavus
58.417,24.467,37.0,0.02,Pjarnu-Sauga
58.467,-78.079,11.5,0.02,Inukjuak Ua
58.483,41.533,44.0,0.00,Buj
58.55,109.767,36.0,0.00,Ichera
58.683,-156.656,41.1,0.00,King Salmon Airport
58.733,-94.05,11.7,0.00,Churchill A Ua  Man
58.733,27.833,39.7,0.00,Gdov
58.85,112.9,34.5,0.00,Voroncovka
58.877,5.638,43.0,0.03,Sola / Stavanger
58.9,34.533,48.5,0.04,Hvojnaja
59.05,80.833,53.5,0.00,Kargasok
59.233,39.867,45.0,0.04,Vologda
59.243,-135.509,40.5,0.00,Haines
59.35,31.233,51.6,0.02,Ljuban'
59.367,28.6,47.6,0.02,Kingisepp
59.367,143.2,35.4,0.02,Ohotsk
59.4,35.9,46.7,0.01,Babaevo
59.433,-146.333,40.4,0.00,Middleton Island Meteorology Radar Site
59.512,-139.671,38.7,0.00,Yakutat State Ap
59.642,-151.491,39.5,0.00,Homer Municipal Arpt
59.65,33.55,48.5,0.02,Tihvin
59.749,-154.909,38.0,0.00,Iliamna Arpt
59.8,30.263,45.0,0.04,Pulkovo
59.85,48.283,42.3,0.08,Oparino
59.85,81.95,48.2,0.00,Napas
59.967,42.767,42.8,0.00,Totma
60.117,10.833,47.5,0.00,Hakadal
60.194,11.1,42.5,0.00,Gardermoen / Oslo
60.4,56.517,41.5,0.24,Cherdyn'
60.433,77.867,58.3,0.00,Aleksandrovskoe
60.467,32.9,45.4,0.02,Svirica
60.467,40.2,43.7,0.06,Vozega
60.489,-145.451,38.3,0.00,M.K.(Mudhole) Smith Arpt
60.58,-151.239,37.4,0.00,Kenai Municipal Ap
60.683,-46.533,33.6,0.00,Simiutaq
60.717,114.883,29.8,0.00,Lensk
60.767,-147.8,37.7,0.00,North Dutch Island C
60.785,-161.829,38.1,0.00,Bethel Airport
60.9,131.983,23.0,0.00,Amga
61.017,36.45,46.0,0.01,Vytegra
61.161,-45.426,37.0,0.00,Narsarsuaq
61.217,-149.855,38.2,0.00,Merrill Field Airport
61.233,-48.1,37.5,0.00,Groennedal
61.25,-149.8,39.2,0.00,Anchorage/Elmendorf
61.35,166.0,29.4,0.00,Korf
61.483,129.15,26.2,0.00,Pokrovsk
61.572,-149.54,39.7,0.00,Yakataga Ap
61.583,-159.533,37.8,0.00,Aniak Airport
61.583,-64.65,13.0,0.02,Resolution Island
61.812,-147.507,40.3,0.00,Sheep Mountain
61.977,-151.217,37.7,0.00,Skwentna
62.033,132.6,22.8,0.00,Curapca
62.159,-145.459,38.2,0.00,Gulkana Airport
62.32,-150.095,36.7,0.00,Talkeetna State Arpt
62.517,-153.883,38.3,0.00,Farewell Faa Ap
62.917,34.433,44.8,0.08,Medvezegorsk
62.957,-155.61,35.2,0.00,Mcgrath Arpt
62.962,-141.988,36.9,0.00,Northway Airport
63.033,112.483,27.0,0.00,Chernishevskij
63.067,40.35,41.0,0.08,Emca
63.117,-77.933,3.7,0.02,Nottingham Island
63.283,118.333,28.0,0.00,Njurba
63.331,-149.127,31.2,0.00,Summit Airport
63.424,-20.279,34.7,0.10,Vestmannaeyjar
63.458,10.94,44.4,0.05,Vaernes / Trondheim
63.583,45.633,41.6,0.02,Sura
63.767,-171.733,15.0,0.00,Gambell
63.767,34.283,42.6,0.02,Segeza
63.783,-18.067,33.0,0.12,Kirkjubaejarklaustur
63.883,-160.8,27.8,0.00,Unalakleet Field
63.886,-152.302,36.3,0.00,Minchumina
63.95,-22.616,31.5,0.00,Keflavik /Meeks Fld Wbas
63.967,-22.6,31.1,0.00,Keflavik Naval Air Station
63.994,-145.721,38.1,0.00,Allen Army Airfield
64.13,-21.941,33.5,0.00,Reykjavik
64.267,57.617,39.0,0.00,Ust'-Sugor
64.511,-165.44,18.0,0.00,Nome Municipal Arpt
64.55,-149.072,34.5,0.00,Nenana Municipal Ap
64.6,40.717,42.0,0.05,Talagi
64.65,-147.067,37.6,0.00,Fairbanks/Eielson A
64.7,-162.05,15.0,0.00,Moses Point
64.75,47.65,38.8,0.04,Kojnas
64.804,-147.876,36.6,0.00,Fairbanks International
64.833,-147.617,36.8,0.00,Wainwright Aaf
64.85,-147.583,36.5,0.00,Ladd Aab
64.9,-23.933,30.0,0.00,Gufuskalar
65.175,-152.107,30.7,0.00,Tanana Ralph M Calhoun Mem Ap
65.217,31.167,40.8,0.04,Kalevala
65.55,-24.017,30.0,0.00,Kvigindisdalur
65.617,-168.05,8.0,0.00,Wales
65.66,-18.073,28.3,0.04,Akureyri
65.667,-20.3,26.3,0.02,Blonduos
65.867,44.217,37.5,0.08,Mezen'
66.183,39.533,32.4,0.16,Pjalica
66.25,52.55,39.5,0.00,Okunev Nos
66.417,-22.383,29.5,0.00,Hornbjargsviti (Lh)
66.45,-15.95,27.5,0.02,Raufarhofn
66.533,-18.017,27.2,0.00,Grimsey Island
66.567,-145.267,27.8,0.00,Fort Yukon
66.867,-162.633,9.9,0.00,Kotzebue Ralph Wein Memorial
66.9,-151.717,18.6,0.00,Bettles Caa
66.918,-151.519,19.0,0.00,Bettles Airport
67.1,-62.35,23.5,0.00,Padloping Island
67.15,32.35,35.2,0.02,Kandalaksha
67.269,14.365,40.4,0.35,Bodo
69.056,18.54,37.9,0.28,Bardufoss
69.108,-105.138,-3.5,0.00,Cambridge Bay Ua
69.283,18.133,39.9,0.05,Kistefjell
69.367,-152.133,-6.0,0.00,Umiat
69.617,162.3,5.5,0.05,Buhta Ambarcik
69.726,29.893,37.9,0.00,Hoybuktmoen / Kirkenes
70.134,-143.577,-2.8,0.00,Barter Island Airport
70.45,-68.55,20.2,0.00,Cylde Airport     &
71.283,-156.782,-2.3,0.00,W Post-Will Rogers Memorial Airport
73.233,-119.533,-5.6,0.00,Thomsen River
74.717,-94.969,12.8,0.04,Resolute Bay
76.233,-119.333,-4.1,0.00,Mould Bay Airport
76.5,-69.0,21.8,0.00,Dundas
78.783,-103.55,2.1,0.00,Isachsen (Aut)  Nu
78.783,-103.533,1.6,0.00,Isachsen (Maps)
79.983,-85.933,-7.4,0.00,Eureka
82.5,-62.333,-6.8,0.00,Alert
