lat,lon,temp,precip,name
-90.0,0.0,-76.8,0.00,Amundsen-Scott
-80.017,-119.533,-35.4,0.00,Byrd Station
-78.2,-162.25,-44.1,0.00,Little America
-77.883,166.733,2.5,0.00,Mcmurdo Sound Naf
-77.867,-34.617,9.8,0.00,Base Belgrano Ii
-77.733,-41.117,2.9,0.00,Ellsworth Igy
-75.61,-26.272,8.6,0.00,Halley
-72.3,170.217,4.3,0.00,Adare Hallett
-67.65,-67.233,25.2,0.00,Adelaide Islands Se
-66.883,-66.95,27.7,0.00,Adelaide Islands Est
-66.267,110.567,23.2,0.00,Wilkes
-65.25,-64.267,29.0,0.00,Argentine Island
-62.6,-55.017,24.1,0.00,Hope Bay Antarctica
-62.067,-58.4,32.5,0.00,Admiralty Bay
-61.017,-59.433,32.2,0.00,Deception Is S Smet Is
-60.717,-45.6,27.1,0.00,Signy Island
-54.283,-36.5,33.7,0.00,Grytviken
-52.55,169.15,51.0,0.00,Campbell Island
-51.7,-57.867,40.8,0.00,Stanley
-46.412,168.313,54.5,0.00,Invercargill
-46.167,166.633,55.7,0.00,Puysegur Pt (Lgt-H)
-43.81,-176.457,54.7,0.00,Chatham Islands
-43.489,172.532,56.5,0.00,Christchurch Intl
-42.883,147.333,55.5,0.08,Hobart (Ellerslie Road)
-42.717,170.983,58.5,0.00,Hokitika Aerodrome
-42.199,145.17,55.4,0.04,Cape Sorell
-42.02,147.8,55.4,0.00,Lake Leake Chalet
-41.75,171.6,60.0,0.00,Westport Harbour
-41.545,147.214,51.6,0.67,Launceston
-41.283,174.767,61.3,0.00,Wellington
-40.55,173.0,60.8,0.00,Farewell Spit
-39.017,174.183,62.7,0.00,New Plymouth Aerodr
-38.099,147.149,55.4,0.08,East Sale
-37.867,144.75,56.5,0.12,Laverton Raaf
-37.817,144.967,57.6,0.12,Melbourne Regional Office
-37.733,140.783,55.6,0.59,Mount Gambier Aero
-37.733,144.9,56.2,0.00,Essendon Airport
-37.728,144.902,56.3,0.04,Melbourne Essendon
-36.85,174.767,64.3,0.00,Auckland
-35.307,149.195,53.0,0.00,Canberra
-35.165,147.466,52.7,0.00,Wagga Wagga
-35.067,173.283,61.7,0.00,Kaitaia Aerodrome
-34.95,138.533,58.3,0.00,Adelaide
-34.949,150.537,61.0,0.00,Nowra
-34.945,138.531,58.6,0.00,Adelaide Intl
-34.93,138.58,61.0,0.00,Adelaide (West Terrace)
-34.917,138.617,61.2,0.01,Kent Town
-33.95,151.2,66.7,0.00,Sydney Intl Airport
-33.946,151.177,66.7,0.00,Sydney Intl
-33.85,151.2,68.9,0.01,Sydney (Observatory Hill)
-32.795,151.834,65.8,0.00,Williamtown
-32.233,126.3,65.0,0.00,Eyre
-32.133,133.7,58.3,0.01,Ceduna Amo
-32.0,141.47,64.8,0.00,Brokenhillaero
-31.94,115.967,64.0,0.01,Perth Intl
-31.933,115.967,63.8,0.00,Perth Intl/Belmont
-31.917,115.867,64.0,0.01,Perth Metro
-31.542,159.079,71.2,0.00,Lord Howe Island Aero
-31.144,136.817,65.9,0.00,Woomera
-30.833,128.1,59.9,0.00,Forrest Airport
-30.789,121.462,63.4,0.00,Kalgoorlie Boulder
-30.47,138.42,65.9,0.00,Leigh Creek Aero
-30.321,153.116,73.3,0.00,Coffs Harbour
-29.25,-177.933,64.5,0.00,Raoul Island Kermadec Islands
-29.042,167.939,66.9,0.04,Norfolk Island Intl
-28.796,114.708,66.6,0.00,Geraldton
-28.705,121.891,60.4,0.00,Murrin Murrin
-27.55,135.45,75.3,0.00,Oodnadatta Airport
-27.483,153.033,74.2,0.00,Brisbane
-27.417,153.067,73.9,0.00,Brisbane Airport
-27.383,153.117,73.8,0.00,Brisbane Intl Arpt
-26.614,118.537,71.1,0.00,Meekatharra Airport
-26.413,146.263,68.0,0.20,Charleville
-25.033,128.3,74.9,0.00,Giles Meteorological Office
-24.888,113.67,72.0,0.00,Carnarvon Airport
-23.807,133.902,75.0,0.04,Alice Springs
-23.8,133.917,74.4,0.00,Alice Springs Arpt
-23.382,150.475,72.8,0.00,Rockhampton
-23.007,-47.135,71.0,0.00,Viracopos
-22.875,-43.385,75.3,0.00,Campo Delio Jardim De Mattos
-21.67,115.12,74.4,0.00,Onslowamo
-21.633,115.117,74.5,0.00,Onslow
-20.667,140.5,84.1,0.00,Cloncurry Airport
-20.469,-54.673,78.9,0.00,Campo Grande
-20.378,118.626,75.6,0.00,Port Hedland Intl
-20.233,169.767,78.9,0.00,Aneityum
-19.851,-43.951,67.2,0.00,Pampulha Carlos Drummond De Andrade
-19.253,146.765,76.7,0.00,Townsville
-19.25,146.767,76.6,0.00,Townsville(Civ/Mil)
-18.783,168.817,77.0,0.00,Erromango Island
-18.233,127.667,91.4,0.00,Halls Creek Airport
-17.945,122.232,83.7,0.00,Broome Intl
-17.75,168.3,78.0,0.02,Port Vila/Bauerfld
-16.886,145.755,79.1,0.00,Cairns Intl
-16.883,145.767,79.0,0.00,Cairns Airport
-16.288,149.965,80.7,0.08,Willis Island
-16.27,133.38,83.2,0.00,Dalywatersamo
-16.25,133.367,83.1,0.00,Daly Waters Aws
-15.2,12.15,73.0,0.00,Mocamedes
-13.85,167.55,79.8,0.24,Sola/Vanua Lava Isl
-12.809,15.761,70.7,0.04,Huambo
-12.415,130.877,82.8,0.00,Darwin Intl
-12.367,13.533,84.2,0.00,Lobito
-12.188,96.834,81.7,0.00,Cocos Keeling Islands
-11.9,-76.967,72.0,0.00,Linatakbc
-10.951,142.459,75.0,0.00,Bamaga Injinoo
-10.683,35.583,70.4,0.00,Songea
-10.567,142.217,82.5,0.00,Thursday Island
-10.339,40.182,80.8,0.00,Mtwara
-9.525,16.312,72.8,0.00,Malanje
-9.433,147.217,81.6,0.00,Port Moresby W.O.
-9.417,159.967,79.5,0.20,Honiara
-8.933,33.467,66.4,0.00,Mbeya
-8.217,114.383,83.7,0.00,Banyuwangi
-7.669,35.752,67.6,0.00,Iringa
-7.583,15.0,72.7,1.42,Carmona
-7.217,112.717,82.3,0.00,Surabaya/Perak
-6.901,107.576,77.0,0.00,Husein Sastranegara
-6.878,39.203,79.0,0.00,Mwalimu Julius K Nyerere Intl
-6.833,37.65,76.4,0.00,Morogoro (Met)
-6.733,147.0,81.8,0.04,Lae
-6.222,39.225,78.2,0.00,Zanzibar / Abeid Amani Karume Intl
-6.17,35.753,71.4,0.00,Dodoma
-6.15,106.85,81.9,0.00,Jakarta/Kemayoran
-5.217,145.8,80.5,0.31,Madang W.O.
-5.092,39.071,74.6,0.00,Tanga
-5.083,32.833,73.6,0.00,Tabora Airport
-4.883,29.633,75.0,0.00,Kigoma
-4.674,55.522,84.1,0.00,Seychelles Intl
-4.2,152.183,79.5,0.00,Rabaul
-4.083,37.717,68.6,0.00,Same
-4.035,39.594,76.6,0.00,Mombasa Moi Intl
-3.4,38.567,78.2,0.00,Voi
-3.35,37.333,71.8,0.00,Moshi
-2.767,-171.717,83.7,0.00,Canton Island
-2.444,32.933,73.0,0.00,Mwanza
-2.283,37.833,75.6,0.00,Makindu
-2.083,126.0,82.4,0.12,Sanana / Namniwel
-2.067,147.433,84.8,0.01,Momote/Manus Island
-1.379,-48.476,79.2,0.00,Val De Cans Julio Cezar Ribeiro Intl
-1.319,36.928,67.3,0.00,Jkia / Nairobi Jomo Kenyatta Intl
-1.3,36.75,67.2,0.00,Nairobi/Dagoretti
-1.25,29.983,65.8,0.00,Kabale
-1.133,35.833,68.2,0.00,Narok
-0.5,166.917,82.6,0.00,Nauru
-0.086,34.729,70.9,0.00,Kisumu
-0.017,35.55,56.0,0.00,Equator Sw
0.017,37.067,63.2,0.00,Nanyuki
0.042,32.444,72.6,0.00,Entebbe Intl
0.45,33.183,77.3,0.00,Jinja
0.483,35.3,66.2,0.00,Eldoret
0.683,34.167,73.6,0.00,Tororo
0.972,34.959,67.2,0.00,Kitale
1.36,103.91,76.7,0.51,Paya Lebar
1.485,110.347,79.5,1.38,Kuching Intl
2.05,129.317,80.2,0.00,Morotai/Pitu
2.067,-50.85,75.2,0.00,Amapa
2.806,32.272,71.3,0.00,Gulu
3.122,35.609,82.8,0.00,Lodwar
3.124,113.02,78.3,0.55,Bintulu
3.933,41.867,84.4,0.00,Mandera
4.322,113.987,81.0,0.02,Miri
5.301,115.25,81.5,0.08,Labuan
5.901,118.059,83.5,0.00,Sandakan
5.937,116.051,79.1,2.01,Kota Kinabalu Intl
6.05,121.0,82.4,0.00,Jolo
6.167,102.293,82.2,0.00,Sultan Ismail Petra
6.922,122.06,84.4,0.00,Zamboanga Intl
6.967,158.217,81.8,0.00,Weather Service Building
7.065,171.272,81.5,0.00,Weather Service Office Building
7.187,100.608,84.4,0.00,Songkhla
7.333,134.483,79.0,0.00,Koror Wso
7.45,151.833,79.2,0.00,Chuuk Wso Ap
7.883,98.4,85.2,0.00,Phuket
8.471,99.956,91.0,0.00,Cha Ian
8.683,106.6,81.7,0.00,Con Son
8.733,167.733,81.7,0.00,Kwajalein Missle Ran
8.917,-79.6,84.8,0.00,Fort Kobbe
8.967,-79.55,81.2,0.00,Albrook Afb/Balboa
9.133,99.136,89.5,0.00,Surat Thani
9.367,-79.9,81.5,0.00,Coco Solo
9.483,138.083,82.6,0.00,Yap Island Wso Ap
9.6,105.967,83.9,0.00,Ba-Xuyen/Soc Trang
9.742,118.759,83.0,0.02,Puerto Princesa
9.994,-84.209,77.8,0.00,Juan Santamaria Intl
10.0,105.083,84.4,0.00,Rach Gia
10.217,103.967,85.1,0.00,Phu Quoc
10.333,123.9,85.8,0.02,Lahug
10.819,106.652,84.9,0.00,Tan Son Nhat Intl
10.933,108.1,83.0,0.00,Phan Thiet
11.35,162.35,82.2,0.00,Enewetak  Marshall Is
11.75,108.383,76.7,0.00,Became Stn 488811
11.991,-83.774,82.0,0.00,Bluefields
12.141,-86.168,83.5,0.00,Managua Intl / Augusto Cesar Sandino Intl
12.25,109.2,82.2,0.00,Nha Trang
12.583,122.283,84.2,0.00,Romblon
12.6,102.117,88.5,0.00,Chanthaburi
12.683,100.983,87.8,0.00,Sattahip
12.683,108.083,84.1,0.00,Banmethuot
13.083,109.283,80.4,0.00,Tuy-Hoa
13.157,123.746,83.3,0.00,Legazpi
13.367,100.983,90.3,0.00,Chon Buri/Sattahip / Suvarnabhumi Intl
13.383,100.6,90.0,0.00,Bangkok Pilot
13.411,103.813,89.2,0.00,Siem Reap
13.483,144.8,80.8,0.00,Guam Wfo
13.567,144.917,79.3,0.00,Andersen Afb
13.699,-89.12,75.8,0.00,Ilopango Intl
13.7,102.504,87.8,0.00,Aranyaprathet
13.733,100.567,88.0,0.00,Bangkok Metropolis
13.767,109.217,82.6,0.00,Quy Nhon
13.913,100.607,89.1,0.00,Bangkok Intl / Don Mueang Intl
14.017,99.533,91.8,0.00,Kanchana Buri
14.047,-83.387,82.4,0.00,Puerto Cabezas
14.117,122.95,83.2,0.00,Daet/Bagasbas
14.5,120.9,85.2,0.00,Sangley Point
14.509,121.02,84.1,0.00,Ninoy Aquino Intl
14.8,100.617,90.2,0.00,Lop Buri
14.8,120.267,87.9,0.00,Cubi Point Nf
14.935,102.079,87.3,0.00,Khorat
15.116,145.7,84.5,0.00,Saipan Mariana Is/Kobler
15.117,105.767,88.3,0.00,Pakse
15.117,145.7,84.1,0.00,Saipan Marshall Isla
15.186,120.56,84.8,0.00,Clark Intl / Diosdado Macapagal Intl
16.044,108.199,80.0,0.00,Danang Intl
16.07,103.646,91.0,0.00,Rob Muang
16.267,122.133,83.5,0.24,Casiguran
16.375,120.62,67.8,0.00,Baguio
16.402,107.703,83.6,0.00,Phubai
16.467,102.784,91.2,0.00,Khon Kaen
16.533,104.717,93.8,0.00,Mukdahan
16.55,111.617,85.1,0.00,Hoang Sa (Pattle)
16.667,105.0,92.6,0.00,Seno
16.733,-169.517,77.9,0.00,Johnston Island
16.783,100.279,90.0,0.00,Phitsanulok
17.15,104.133,90.7,0.00,Sakon Nakhon
17.617,100.1,96.0,0.00,Uttaradit
17.7,-64.813,77.4,0.00,Christiansted Hamilton Field
17.988,102.563,87.7,0.00,Wattay Intl
18.132,100.165,89.8,0.00,Phrae
18.178,120.532,86.0,0.00,Laoag Intl
18.217,109.583,80.2,0.00,Sanya
18.336,-64.98,77.6,0.00,Charlotte Amalie Harry S Trum
18.367,121.633,83.3,0.00,Aparri
18.433,-66.011,75.4,0.00,San Juan L M Marin Intl Ap
18.467,-66.117,76.7,0.00,San Juan Ns
18.5,-67.133,76.8,0.00,Aquadilla/Borinquen
18.767,98.963,88.0,0.00,Chiang Mai Intl
18.808,100.783,88.7,0.00,Nan
19.1,108.617,80.7,0.00,Dongfang
19.233,110.467,82.0,0.00,Qionghai
19.283,166.65,78.7,0.00,Wake Island
19.467,103.133,82.5,0.00,Plaine Des Jarres (Xiengkhouang)
19.719,-155.053,70.9,0.00,Hilo International Ap
19.758,-70.57,78.1,0.00,Gregorio Luperon Intl
19.897,102.161,89.6,0.00,Luang Phabang Intl
19.9,-75.15,79.2,0.00,Guantanamo Bay Naval Air Station
20.0,110.25,83.4,0.00,Haikou
20.451,121.98,87.9,0.00,Basco
20.833,-156.467,73.8,0.00,Puunene Caa Ap
21.217,110.4,79.7,0.00,Zhanjiang
21.317,-158.067,73.9,0.00,Barbers Point
21.324,-157.929,74.2,0.00,Honolulu International Airport
21.433,-71.133,78.0,0.00,Grand Turk Island
21.45,-157.783,74.4,0.00,Kaneohe Bay Mcas
21.5,39.2,82.0,0.00,Jeddah
21.867,111.967,78.5,0.02,Yangjiang
21.95,108.617,82.7,0.00,Qinzhou
21.984,-159.341,73.8,0.00,Lihue Airport
22.0,120.75,81.4,0.00,Hengchun
22.15,113.592,78.3,0.00,Macau Intl
22.267,112.783,79.0,0.00,Tai-Shan
22.3,114.167,78.0,0.00,Hong Kong Observatory
22.35,110.933,79.3,0.02,Xinyi
22.367,-73.033,80.0,0.00,Mayaguan
22.367,106.75,84.0,0.00,Longzhou
22.5,103.95,83.5,0.00,He-Kou
22.608,108.172,82.7,0.02,Wuxu
22.75,121.15,82.3,0.00,Taidong
22.767,100.983,67.0,0.00,Simao
22.783,115.367,78.2,0.00,Shanwei
22.833,120.3,80.1,0.00,Lu-Chu
22.95,120.206,80.6,0.00,Tainan
23.0,120.217,82.3,0.00,Tainan
23.392,113.299,78.5,0.02,Baiyun Intl
23.4,110.083,80.2,0.00,Guiping
23.4,116.683,81.0,0.00,Shantou / Chaoshan
23.45,103.333,74.2,0.00,Mengzi
23.462,120.393,81.4,0.00,Chiayi
23.467,120.383,81.7,0.00,Chia-Yi
23.483,111.3,78.0,0.16,Wuzhou
23.517,119.567,78.5,0.00,Magong
23.6,101.983,81.4,0.00,Yuanjiang
23.767,-98.2,84.6,0.00,Soto La Marina   Tamps.
23.8,114.733,78.0,0.02,Heyuan
23.8,117.55,75.2,0.00,Guleitou
23.9,106.6,82.7,0.04,Baise
23.95,100.217,64.3,0.00,Lincang
24.017,121.617,80.8,0.00,Hualian
24.067,105.067,76.8,0.00,Guangnan
24.15,120.683,79.8,0.00,Taizhong
24.179,23.314,83.7,0.00,Kufra
24.283,116.067,81.2,0.00,Mei Xian
24.35,109.4,72.0,0.00,Liuzhou
24.433,118.433,72.7,0.00,Chin-Men
24.544,118.128,76.7,0.00,Gaoqi
24.567,-81.8,79.6,0.00,Key West Wb City
24.583,-81.683,78.0,0.00,Key West Nas
24.583,73.7,87.8,0.00,Udaipur
24.667,113.6,76.8,0.05,Shaoguan
24.7,108.05,72.6,0.02,Hechi
24.767,121.75,78.8,0.00,I-Lan Formosa/Nilan
24.784,141.323,76.4,0.00,Iwoto
24.8,112.367,69.2,0.02,Lianzhou
24.817,120.95,79.2,0.00,Xin-Zhu
24.867,121.233,77.0,0.00,Lung Tan(Tafb)
24.95,115.65,76.2,0.35,Xunwu
24.992,102.744,67.0,0.00,Wujiaba / Changshui
25.05,121.217,78.8,0.00,Taoyuan
25.056,121.243,78.4,0.00,Taoyuan
25.069,121.552,79.0,0.00,Songshan
25.1,117.017,80.0,0.08,Longyan
25.117,99.183,62.5,0.00,Baoshan
25.218,110.039,64.0,0.04,Liangjiang
25.267,-76.3,76.2,0.00,Eleuthera Island
25.329,55.517,77.3,0.00,Sharjah Intl
25.35,55.383,77.3,0.00,Ash Shariqah Sw
25.433,105.183,65.3,0.00,Xingren
25.433,106.767,72.3,0.00,Luodian
25.483,-80.383,76.0,0.00,Homestead Afb Airport
25.517,119.783,69.3,0.05,Pingtan
25.568,-103.411,80.4,0.00,Torreon Intl
25.583,103.833,66.8,0.00,Zhanyi
25.7,100.183,65.7,0.00,Dali
25.717,118.1,64.2,0.00,Jiuxian Shan
25.733,101.867,78.0,0.00,Yuanmou
25.733,112.967,61.8,0.07,Chenzhou
25.791,-80.316,75.7,0.00,Miami Intl Ap
25.85,114.95,68.2,0.02,Ganzhou
25.914,-97.423,78.1,0.00,Brownsville/S Padre Island Intl Ap
25.967,108.533,68.0,0.02,Rongjiang
25.967,117.35,74.3,0.47,Yong'An
26.083,119.283,74.0,0.06,Fuzhou
26.167,119.933,67.0,0.00,Mazu
26.196,127.646,78.1,0.00,Naha
26.228,-97.654,79.8,0.00,Valley International Arpt
26.233,111.617,62.2,0.20,Lingling
26.265,50.152,76.2,0.00,King Abdulaziz Ab
26.267,50.617,76.1,0.00,Bahrain/Muharraq
26.35,127.767,76.7,0.00,Kadena Ab
26.356,127.768,76.6,0.00,Kadena Ab
26.539,106.801,58.4,0.02,Longdongbao
26.617,-78.367,75.5,0.00,Gold Rock Creek
26.633,118.15,77.0,0.00,Nanping
26.65,102.25,67.6,0.05,Huili
26.685,-80.099,76.4,0.00,West Palm Beach Intl Arpt
26.833,100.217,53.3,0.00,Lijing
26.956,-101.47,82.3,0.00,Monclova Intl
27.05,108.4,59.8,0.35,Chen-Yuan
27.117,114.967,64.0,0.05,Ji'An
27.3,105.233,59.8,0.07,Bijie
27.3,112.7,50.6,0.14,Nanyue
27.333,103.75,52.0,0.02,Zhaotong
27.333,120.2,67.7,0.05,Fuding
27.45,109.683,60.2,0.02,Zhijiang
27.5,-97.817,78.1,0.00,Kingsville
27.544,-99.461,81.6,0.00,Laredo Air Force Base
27.583,116.65,63.8,1.65,Nancheng
27.683,-97.283,76.1,0.00,Corpus Christi Nas
27.7,-97.433,78.3,0.00,Corpus Christi Cabaniss Naas
27.7,106.883,57.2,0.06,Zunyi
27.733,89.083,36.4,0.00,Pagri
27.774,-97.512,77.2,0.00,Corpus Christi International Airport
27.8,114.383,62.5,0.16,Yichun
27.85,-82.517,77.0,0.00,Mac Dill Afb Airport
27.9,102.267,74.8,0.00,Xichang
27.917,-110.883,71.4,0.00,Guaymas-In-Sonora
27.917,118.533,68.4,0.26,Pucheng
27.95,117.833,56.9,0.00,Qixian Shan
27.962,-82.54,75.1,0.00,Tampa Intl Arpt
28.017,120.667,64.5,0.10,Wenzhou
28.2,-177.383,69.4,0.00,Henderson Field Airport
28.2,113.083,62.5,0.05,Changsha/Datuopu
28.233,-80.6,76.2,0.00,Patrick Afb Airport
28.367,-97.667,77.8,0.00,Beeville Chase Naas
28.394,129.553,73.4,0.35,Naze/Funchatoge
28.422,79.451,82.8,0.00,Bareilly
28.434,-81.325,73.1,0.00,Orlando International Airport
28.45,98.883,36.0,0.05,Deqen
28.45,119.917,68.0,0.75,Lishui
28.467,110.4,61.0,0.35,Yuanling
28.483,-80.567,74.3,0.00,Cocoa Beach Cape Kennedy Afs
28.545,-81.333,73.6,0.00,Orlando Municipal Arpt
28.617,121.417,63.4,0.14,Hongjia
28.633,-106.083,68.3,0.00,Chihuahua  Chih.
28.725,-96.254,76.4,0.00,Palacios Municipal Ap
28.78,-81.244,76.1,0.00,Sanford Airport
28.783,-97.083,77.2,0.00,Victoria
28.8,104.6,70.2,0.08,Yibin
28.861,-96.93,76.4,0.00,Victoria Regional Airport
28.865,115.9,64.5,0.16,Changbei Intl
28.883,105.433,69.0,0.00,Luzhou
28.95,107.15,44.9,0.04,Jinfo Shan (Mount)
28.967,-89.383,73.5,0.00,Burrwood Wb
28.967,118.867,66.5,0.06,Qu Xian
29.0,101.5,51.4,0.02,Jiulong
29.033,21.567,69.6,0.00,Jalo
29.033,114.583,63.4,0.00,Xiushui
29.05,111.683,61.2,0.00,Changde
29.117,15.95,64.3,0.00,Hon
29.167,-82.217,73.4,0.00,Ocala Intl J Taylor
29.17,-118.32,61.0,0.00,Isla Guadalupe
29.183,-81.048,70.9,0.00,Daytona Beach Regional Arpt
29.267,-100.283,67.7,0.00,Del Rio(Nexrad)
29.273,-94.859,75.5,0.00,Galveston Scholes Field
29.3,117.2,66.8,0.47,Jingdezhen
29.317,47.667,82.7,0.00,Jahra
29.35,-98.45,73.1,0.00,Brooks Afb
29.36,-99.174,74.3,0.00,Hondo Municipal Airport
29.367,-100.783,76.2,0.00,Laughlin Afb Airport
29.378,-100.927,78.1,0.00,Del Rio International Airport
29.383,-98.583,71.7,0.00,Lackland Air Force Base (Kelly Field Annex)
29.383,113.083,61.8,0.02,Yueyang
29.517,103.333,33.6,0.05,Emei Shan
29.517,106.483,68.8,0.00,Chong-Qing
29.533,-98.262,71.8,0.00,Randolph Afb Airport
29.544,-98.484,70.8,0.00,San Antonio International Airport
29.561,34.96,84.6,0.00,Eilat
29.567,94.467,46.9,0.16,Nyingchi
29.583,105.05,68.8,0.00,Neijiang
29.583,115.983,50.8,0.04,Lu Shan
29.617,-95.167,77.6,0.00,Ellington Field Airport
29.633,-95.267,76.9,0.00,William P Hobby
29.667,91.133,50.0,0.00,Lhasa / Gonggar
29.75,24.533,70.9,0.00,Gighbub
29.75,115.917,62.7,0.06,Fenlu Southeast
29.8,47.767,84.2,0.00,Umm Al-Aish
29.951,-94.021,77.3,0.00,Port Arthur Jefferson County
29.983,103.0,61.8,0.02,Ya'An
29.997,-90.278,73.2,0.00,Louis Armstrong New Orleans Intl Ap
30.0,99.1,55.4,0.02,Batang
30.0,100.267,35.7,0.02,Litang
30.033,-90.083,78.7,0.00,New Orleans Nas
30.033,122.117,61.0,0.07,Dinghai
30.067,-85.583,72.9,0.00,Tyndall Afb Airport
30.1,95.783,47.8,0.07,Ching-To East
30.125,-93.228,76.5,0.00,Lake Charles Regional Airport
30.133,118.15,46.0,1.30,Huang Shan
30.183,-97.68,73.2,0.00,Austin-Bergstrom Intl Airport
30.2,-97.683,73.5,0.00,Bergstrom Afb/Austi
30.205,-91.988,75.5,0.00,Lafayette Regional Ap
30.21,-93.143,76.2,0.00,Lake Charles Wb Airp
30.228,120.432,63.4,0.39,Xiaoshan
30.233,-81.667,74.1,0.00,Jacksonville Nas
30.283,109.467,59.0,0.00,Enshi
30.321,-97.76,71.7,0.00,Austin Mueller Municipal Ap
30.35,-87.317,73.1,0.00,Pensacola Nas
30.367,-89.45,78.1,0.00,Bay Saint Louis
30.383,76.767,85.5,0.00,Ambala
30.386,130.659,68.0,0.01,Yakushima
30.393,-84.353,73.4,0.00,Tallahassee Dale Mabry Field
30.4,-87.6,74.5,0.00,Barin Field Naas
30.4,-87.283,72.8,0.00,Pensacola Corry Fld Naas
30.4,-81.417,74.1,0.00,Mayport Ns
30.417,-88.917,75.7,0.00,Keesler Air Force Base
30.417,-86.683,71.4,0.01,Hurlburt Field Airport
30.483,-87.35,75.0,0.00,Pensacola Saufley Nas
30.483,-86.517,73.7,0.00,Eglin Afb Airport
30.495,-81.694,74.2,0.00,Jacksonville International Airport
30.511,-99.766,69.1,0.00,Junction
30.533,-87.2,78.0,0.00,Pensacola Ellyson Fld Naas
30.537,-91.147,75.3,0.00,Baton Rouge Ryan Arpt
30.579,103.947,66.3,0.00,Shuangliu
30.617,116.967,63.4,0.00,Anqing
30.626,-88.068,72.8,0.00,Mobile Downtown Airport
30.65,-86.517,82.1,0.00,Duke Fld
30.667,-96.55,73.3,0.00,Varisco Airfield
30.683,107.8,60.7,0.12,Liangping
30.688,-88.246,71.8,0.00,Mobile Regional Ap
30.717,20.167,64.4,0.00,Agedabia
30.717,130.983,68.2,0.00,Tanegashima
30.733,111.367,62.0,0.47,Yichang
30.75,106.133,67.4,0.00,Gaoping
30.784,114.208,62.6,0.01,Tianhe
30.967,-83.2,73.9,0.00,Moody Afb/Valdosta
31.017,102.367,50.0,0.04,Xiao-Jin
31.017,109.533,58.0,0.24,Fengjie
31.067,-97.833,70.7,0.00,Robert Gray Aff Airport
31.15,97.167,46.6,0.02,Qamdo
31.167,112.633,61.8,0.05,Zhongxiang
31.198,121.336,59.7,0.08,Hongqiao Intl
31.2,16.583,63.5,0.02,Sirte
31.2,107.5,64.3,0.00,Da Xian
31.236,-94.754,73.3,0.00,Lufkin Angelina Co
31.25,-81.467,71.0,0.00,Brunswick Glynn Co A
31.267,-85.717,74.2,0.00,Cairns Army Airfield (Fort Rucker)
31.267,130.3,64.3,0.02,Makurazaki
31.287,34.723,82.8,0.00,Teyman
31.317,-92.55,76.3,0.00,Alexandria Int
31.352,-100.495,70.0,0.00,San Angelo Regional/Maths Field Ap
31.4,-100.4,70.0,0.00,San Angelo Goodfellow Afb
31.4,116.333,61.0,0.05,Huoshan
31.417,95.6,40.4,0.02,Dengqen
31.483,92.067,33.2,0.00,Nagqu
31.514,10.598,53.8,0.47,Nalut
31.536,-82.507,71.6,0.00,Alma Bacon County Ap
31.55,130.55,65.1,0.08,Kagoshima
31.583,131.4,68.5,0.02,Aburatsu
31.588,-110.344,59.8,0.00,Sierra Vista Municipal-Libby Aaf Airport
31.617,100.0,40.7,0.02,Garze
31.619,-97.228,70.9,0.00,Waco Regional Airport
31.633,-97.067,70.6,0.00,Waco James Connally Afb
31.667,-116.567,61.1,0.00,Ensenada Bc
31.733,131.083,64.4,0.01,Miyakonojo
31.742,118.862,57.0,0.00,Lukou
31.767,119.95,57.2,0.12,Changzhou
31.78,117.298,61.3,0.35,Luogang / Xinqiao
31.811,-106.376,63.6,0.00,El Paso International Airport
31.833,-106.4,63.2,0.00,Biggs Afb
31.865,35.219,69.8,0.00,Jerusalem
31.867,23.9,62.6,0.00,Tobruk
31.9,102.233,54.8,0.16,Barkam
31.933,131.417,67.7,0.02,Miyazaki
31.948,-102.209,67.3,0.00,Midland International Airport
32.009,-81.146,70.4,0.00,Hunter Aaf
32.011,34.887,80.4,0.00,Ben Gurion
32.033,130.2,63.0,0.01,Akune
32.067,108.033,59.0,0.00,Wanyuan
32.097,20.269,64.1,0.00,Benina Airport
32.1,34.783,79.4,0.00,Tel Aviv /Port
32.117,-7.883,60.4,0.00,Ben Guerir Air Base
32.131,-110.955,66.7,0.00,Tucson International Ap
32.131,-81.202,71.1,0.00,Savannah/Hilton Head Intl Airport
32.133,114.05,61.0,0.24,Xinyang
32.167,-110.883,64.8,0.00,Davis-Monthan Afb Airport
32.167,115.617,59.6,0.55,Gushi
32.2,130.033,62.9,0.02,Ushibuka
32.217,-101.517,65.3,0.00,Webb Afb
32.217,130.75,64.2,0.02,Hitoyoshi
32.243,15.021,61.9,0.08,Misurata
32.267,-64.85,68.4,0.00,Little Sound
32.283,-106.917,64.2,0.00,Las Cruces Intl
32.3,-86.408,74.2,0.00,Montgomery Dannelly Field
32.321,-90.078,74.8,0.00,Jackson International Airport
32.333,-90.233,74.4,0.00,Jackson 4 Nw
32.333,103.733,49.6,0.00,Zhenjiangguan
32.335,-88.744,76.2,0.00,Meridian Key Field
32.35,-86.983,75.0,0.00,Craig Fld
32.35,-85.0,72.1,0.00,Lawson Aaf Airport
32.367,-64.683,67.6,0.00,Naval Atlantic Meterology & Oceanography Facility
32.383,-86.35,76.4,0.00,Maxwell Afb Airport
32.411,-99.682,67.4,0.00,Abilene Regional Airport
32.433,-99.85,68.1,0.00,Abilene Dyess Afb
32.433,105.8,65.8,0.00,Guang-Yuan
32.433,111.733,62.1,0.00,Laohekou
32.447,-93.824,71.0,0.00,Shreveport Regional Arpt
32.5,-93.667,72.6,0.00,Barksdale Air Force Base
32.516,-92.041,74.2,0.00,Monroe Selman Field
32.516,-84.942,76.3,0.00,Columbus Muscogee County Arpt
32.555,12.056,62.2,0.04,Zuara
32.567,-117.117,60.0,0.00,Imperial Beach Ream Field Nas
32.583,-116.983,59.3,0.00,Chula Vista Brown Field Naas
32.633,-106.4,64.2,0.00,White Sands Missile Range Site No.39
32.633,-83.6,73.8,0.00,Robins Afb Airport
32.664,13.159,59.0,0.00,Tripoli Intl
32.667,-114.6,71.9,0.00,Yuma Intl Arpt
32.667,35.183,67.9,0.00,Ramat-David
32.667,103.6,43.0,0.04,Songpan
32.685,-83.653,73.5,0.00,Middle Georgia Regional Airport
32.7,-117.2,60.8,0.00,North Island Nas
32.717,109.033,65.2,0.00,Ankang
32.717,133.017,67.6,0.00,Shimizu
32.733,-96.967,70.0,0.00,Dallas Hensley Field Nas
32.733,129.867,61.7,0.02,Nagasaki
32.733,130.267,53.0,0.04,Unzendake
32.734,-117.183,61.8,0.00,San Diego Lindbergh Field
32.767,-97.45,69.0,0.00,Fort Worth Naval Air Station Jrb/Carswell Field
32.782,-98.06,68.5,0.00,Mineral Wells Airport
32.783,22.583,62.9,0.00,Derna
32.8,21.883,53.5,0.00,Shahat
32.817,-115.683,71.9,0.00,El Centro Naf
32.817,35.0,75.5,0.00,Haifa/U. Michaeli
32.817,130.7,63.6,0.02,Kumamoto
32.833,-114.4,71.6,0.00,Yuma Proving Ground
32.85,-106.1,61.7,0.00,Holloman Afb
32.85,117.3,58.4,0.28,Bengbu
32.85,120.283,53.8,0.02,Dongtai
32.852,-96.856,69.8,0.00,Dallas Love Field Airport
32.867,-117.133,59.0,0.00,San Diego Miramar Nas
32.883,131.067,52.0,0.24,Asosan
32.898,-97.019,68.0,0.00,Dallas-Fort Worth Intl Ap
32.899,-80.041,67.6,0.00,Charleston Afb/International Airport
32.9,13.283,62.5,0.00,Wheelus Fld
32.917,132.7,68.3,0.02,Sukumo
33.017,96.95,42.2,0.04,Yushu
33.067,107.033,60.0,0.00,Hanzhong
33.1,112.483,59.1,0.00,Nanyang
33.117,139.783,68.7,0.63,Hachijojima
33.15,113.817,59.7,0.24,Yushan South
33.167,129.733,62.0,0.02,Sasebo
33.2,126.267,54.2,0.00,Mosulpo (Kor-Afb)
33.233,131.617,67.4,0.02,Oita
33.233,132.55,67.9,0.02,Uwajima
33.237,-107.268,59.2,0.00,Truth Or Consequences Muni Ap
33.25,-119.45,57.3,0.00,San Nicholas Island
33.25,134.183,65.7,0.02,Murotomisaki
33.267,130.3,63.0,0.00,Saga
33.3,-111.667,66.8,0.00,Williams Gateway Airport
33.308,-104.508,66.5,0.00,Roswell International Air Center Ap
33.317,130.933,64.9,0.02,Hita
33.364,-81.963,69.9,0.00,Augusta Bush Field
33.367,-7.59,58.6,0.00,Mohammed V
33.367,129.55,59.5,0.02,Hirado
33.383,43.567,73.3,0.00,Habanyah
33.4,-104.533,70.9,0.00,Roswell Muni Ap
33.4,104.917,66.2,0.02,Wudu
33.428,-112.004,67.3,0.00,Phoenix Sky Harbor Intl Ap
33.433,-112.367,69.8,0.00,Litchfield Park Naf
33.433,129.433,60.2,0.00,Ikitsukijima
33.45,135.75,65.9,0.63,Shionomisaki
33.456,-93.988,69.1,0.00,Texarkana Regional Airport-Webb Field
33.483,-90.985,72.5,0.00,Mid Delta Rgnl
33.55,-112.367,68.4,0.00,Luke Afb Airport
33.566,-86.745,72.7,0.00,Birmingham Municipal Ap
33.567,133.55,66.9,0.04,Kochi
33.583,130.383,64.6,0.02,Fukuoka
33.586,130.451,64.1,0.00,Fukuoka
33.6,-102.05,63.6,0.00,Reese Afb/Lubbock
33.6,119.033,55.3,0.00,Qingjiang
33.63,-84.442,72.4,0.00,Atlanta Hartsfield Intl Ap
33.65,130.7,63.7,0.02,Iizuka
33.666,-101.823,63.0,0.00,Lubbock International Airport
33.667,-117.733,56.3,0.00,El Toro Mcas
33.667,131.033,65.2,0.00,Yukuhashi
33.683,-78.933,69.2,0.00,Myrtle Beach Intl Airport
33.7,-117.833,61.9,0.00,Marine Corps Air Station
33.75,99.65,32.2,0.05,Darlag
33.75,105.75,60.8,0.00,Cheng-Xian
33.783,-118.05,56.9,0.00,Los Alamitos
33.783,114.517,59.8,0.00,Xihua
33.783,115.733,59.3,0.00,Boxian
33.812,-118.146,57.7,0.00,Long Beach / Daugherty Field / Airport
33.85,132.783,66.4,0.02,Matsuyama
33.85,134.1,47.9,0.00,Tsurugisan
33.867,-84.3,76.2,0.00,Atlanta Nas
33.883,130.653,62.8,0.00,Ashiya
33.9,-117.25,57.0,0.00,March Air Reserve Base
33.917,-84.517,70.1,0.00,Dobbins Air Reserve Base Airport
33.938,-118.389,59.0,0.00,Los Angeles Municipal Arpt
33.942,-81.118,72.5,0.00,Columbia Metro Arpt
33.948,-83.328,71.3,0.00,Athens Municipal Arpt
33.95,130.933,61.1,0.02,Shimonoseki
33.967,-80.467,72.7,0.00,Shaw Air Force Base
33.979,-98.493,67.8,0.00,Sheppard Afb/Wichita Falls Muni Ap
34.05,131.533,62.8,0.02,Wofu
34.067,134.567,67.3,0.08,Tokushima
34.067,136.2,63.3,0.63,Owase
34.083,111.067,57.0,0.00,Lushi
34.095,-117.235,58.6,0.00,San Bernardino International Airport
34.117,-119.117,54.3,0.00,Point Mugu Nf
34.117,139.517,66.9,0.31,Miyakejima
34.15,132.233,66.1,0.00,Iwakuni
34.185,-79.724,76.6,0.00,Florence City County Ap
34.198,129.292,59.9,0.01,Izuhara
34.201,-119.207,56.5,0.00,Oxnard Airport
34.201,-118.358,58.5,0.00,Hollywood Burbank Arpt
34.217,-119.083,56.2,0.00,Oxnard Aaf
34.233,-6.05,61.6,0.00,Sidi Slimane
34.233,135.167,67.5,0.24,Wakayama
34.268,-77.9,76.1,0.00,Wilmington
34.283,117.15,56.8,0.47,Xuzhou
34.3,-97.017,67.7,0.00,Ardmore Municipal
34.3,-6.6,62.0,0.00,Port Lyautey
34.333,134.9,63.9,0.08,Sumoto
34.348,-85.161,75.7,0.00,Rome R B Russell Ap
34.35,107.133,55.8,0.00,Baoji
34.367,139.25,65.8,0.83,Niijima Island
34.383,-103.317,61.1,0.00,Cannon Afb Airport
34.417,131.4,61.7,0.04,Hagi
34.426,-119.843,55.6,0.00,Santa Barbara Municipal Ap
34.447,108.752,61.0,0.00,Xianyang
34.45,133.25,65.8,0.02,Fukuyama
34.483,110.083,41.6,0.00,Hua Shan
34.498,-82.71,71.5,0.00,Anderson County Ap
34.583,-117.383,58.9,0.00,Southern California Logistics Airport
34.583,105.75,55.5,0.00,Tianshui
34.583,119.25,57.3,0.00,Nancheng Northeast
34.6,138.217,60.4,1.18,Omaezaki
34.6,138.85,62.4,1.26,Irozaki
34.633,137.1,61.5,0.39,Irako
34.65,-99.267,67.3,0.00,Altus Afb Airport
34.65,-98.4,66.5,0.00,Henry Post Aaf Airport
34.652,-112.421,52.4,0.00,Prescott Municipal Ap
34.667,112.417,60.0,0.00,Luo-Yang
34.683,133.917,65.6,0.04,Okayama
34.683,135.517,65.1,0.16,Osaka
34.7,-77.383,77.4,0.00,New River Mcas
34.7,135.217,65.1,0.16,Kobe
34.7,135.833,62.7,0.24,Nara
34.717,104.883,42.2,0.06,Wu-Shan
34.718,32.486,63.3,0.00,Pafos Intl
34.727,-92.239,67.9,0.00,Little Rock Adams Field
34.733,136.517,60.4,0.39,Tsu
34.744,-118.724,51.6,0.00,Sandberg
34.75,137.717,61.0,0.79,Hamamatsu
34.75,139.367,63.2,1.10,Oshima
34.767,-82.383,70.8,0.00,Greenville Donaldson Afb
34.767,136.15,62.0,0.51,Ueno
34.768,-114.619,70.3,0.00,Needles Airport
34.786,135.438,63.3,0.00,Osaka Intl
34.833,134.667,63.4,0.08,Himeji
34.846,-82.346,71.1,0.00,Greenville Downtown Arpt
34.85,136.467,60.0,0.39,Seki
34.854,-116.786,64.6,0.00,Barstow-Daggett Airport
34.899,-120.449,56.6,0.00,Santa Maria Public Arpt
34.9,-117.867,60.1,0.00,Edwards Air Force Base
34.9,-76.883,72.6,0.00,Cherry Point Mcas
34.9,132.067,60.1,0.16,Hamada
34.917,-92.15,66.6,0.00,Little Rock Afb Airport
34.917,-81.95,72.0,0.00,Spartanburg
34.917,98.217,30.0,0.04,Madoi
34.917,139.833,63.4,0.59,Tokisaki
34.983,-89.783,76.1,0.00,Olive Branch
34.983,138.4,60.8,0.98,Shizuoka
35.017,135.733,62.1,0.51,Kyoto
35.028,-110.721,53.0,0.00,Winslow Municipal Ap
35.031,-85.201,71.2,0.00,Chattanooga Lovell Field Ap
35.042,-106.616,56.8,0.00,Albuquerque Intl Sunport Airport
35.05,-118.167,61.0,0.00,Mojave Mcas
35.05,139.1,61.5,0.43,Ajiro
35.056,-89.987,71.9,0.00,Memphis Municipal Arpt
35.067,-108.833,45.7,0.00,Zuni
35.067,134.017,61.8,0.16,Tsuyama
35.083,33.9,61.0,0.00,Ayios Nicolaos
35.083,128.067,61.2,0.00,Sacheon Ab
35.117,111.067,58.6,0.00,Yuncheng
35.117,138.933,63.0,0.55,Mishima
35.126,126.809,56.0,0.00,Gwangju
35.144,-111.666,41.1,0.00,Flagstaff Pulliam Arpt
35.15,33.283,61.5,0.01,Nicosia Airfield
35.15,140.317,64.1,0.79,Katsuura
35.167,109.05,53.9,0.00,Tongchuan
35.167,129.133,58.6,0.00,Pusan Ast - Rok K-9
35.167,136.967,59.5,0.67,Nagoya
35.174,-79.009,75.3,0.00,Pope Afb Airport
35.182,-103.603,62.3,0.00,Tucumcari Municipal Arpt
35.224,-80.955,72.0,0.00,Charlotte Douglas Municipal A
35.23,-101.704,61.0,0.00,Amarillo Rick Husband Intl Airport
35.233,-75.622,71.4,0.00,Hatteras Billy Mitchell Ap
35.233,102.5,36.9,0.32,Xiahe North
35.25,113.95,59.8,0.00,Guguzhai Nw
35.25,115.433,58.0,0.00,Heze/Caozhou
35.255,136.924,59.8,0.00,Nagoya
35.267,100.65,36.2,0.04,Tongde
35.283,136.25,57.5,0.43,Hikone
35.283,139.667,62.0,0.00,Yokosuka
35.317,139.65,62.1,0.00,Oppama
35.333,-94.363,66.3,0.00,Fort Smith Regional Airport
35.344,-77.965,75.4,0.00,Seymour-Johnson Afb Airport
35.367,138.733,32.0,0.00,Fujisan
35.383,105.0,37.7,0.05,Huajialing
35.383,139.917,62.4,0.00,Kisarazu
35.389,-97.601,65.0,0.51,Will Rogers World Airport
35.4,136.767,59.5,0.94,Gifu
35.417,-97.383,66.7,0.00,Tinker Afb Airport
35.417,136.417,46.9,0.39,Ibukiyama Mtn (Aut)
35.432,-82.538,66.0,0.00,Asheville Airport
35.433,133.333,61.3,0.16,Yonago
35.434,-119.054,63.2,0.00,Bakersfield Kern County Arpt
35.45,133.067,61.5,0.16,Matsue
35.45,135.317,62.5,0.31,Maizuru
35.45,139.45,60.6,0.39,Atsugi Nas
35.483,134.233,61.0,0.31,Tottori
35.492,133.236,61.2,0.00,Miho
35.5,138.767,56.6,0.16,Kawaguchiko
35.514,139.394,61.2,0.00,Kastner Aaf / Camp Zama Japan
35.517,137.817,59.6,0.87,Iida
35.517,139.4,60.8,0.00,Kastner Aaf
35.533,134.817,62.3,0.20,Toyooka
35.55,106.667,51.4,0.00,Pingliang
35.55,133.233,60.5,0.16,Sakai
35.552,139.78,61.6,0.00,Tokyo Intl
35.567,116.85,57.2,0.00,Yanzhou
35.65,136.067,59.7,0.67,Tsuruga
35.654,-105.142,49.8,0.00,Las Vegas Municipal Arpt
35.667,138.55,60.8,0.16,Kofu
35.67,-120.628,58.0,0.00,Paso Robles Municipal Arpt
35.683,139.767,60.4,0.24,Tokyo
35.688,-117.693,63.9,0.00,China Lake Naf
35.7,139.4,60.6,0.00,Tachikawa (Jasdf)
35.733,107.633,49.0,0.00,Xifengzhen
35.733,140.85,63.3,0.35,Choshi
35.748,139.348,59.6,0.00,Yokota Ab
35.75,139.35,59.7,0.00,Fussa
35.818,-83.986,75.1,0.00,Mc Ghee Tyson Airport
35.833,139.417,59.2,0.00,Iruma
35.842,139.411,59.6,0.00,Iruma
35.857,14.478,59.0,0.00,Luqa
35.892,-78.782,73.3,0.00,Raleigh-Durham International Ap
35.894,128.659,61.3,0.00,Daegu Ab
35.917,126.617,50.2,0.91,Kunsan Ab
35.967,-89.95,71.2,0.00,Arkansas International Airport
35.983,139.067,53.4,0.02,Chichibu
36.0,-86.517,73.8,0.00,Smyrna
36.016,-76.566,79.2,0.00,Edenton North Carolina Mcalf
36.05,103.883,53.6,0.00,Lanzhou
36.072,-115.163,66.4,0.00,Las Vegas Mccarran Intl Ap
36.097,-79.943,72.4,0.00,Piedmont Triad International Airport
36.119,-86.689,73.9,0.00,Nashville Berry Field
36.134,-80.222,73.9,0.00,Winston-Salem Reynolds Ap
36.15,111.45,56.3,0.00,Canyu Northeast
36.15,139.383,56.8,0.20,Kumagaya
36.199,-95.887,67.0,0.00,Tulsa International Airport
36.2,113.117,51.4,0.00,Chang-Zhi
36.2,133.333,57.3,0.24,Saigo
36.217,140.1,53.8,0.67,Tsuksbasan (Mount)
36.233,-76.133,76.3,0.00,Weeksville Nas
36.25,-76.133,76.0,0.00,Weeksville Naf
36.25,117.1,43.7,0.00,Tai Shan
36.261,-76.175,75.1,0.00,Monroe Co
36.266,120.374,56.0,0.00,Liuting / Qingdao Intl
36.297,-99.769,67.8,0.00,Gage/Shattuck
36.3,98.1,36.1,0.00,Doulan
36.333,-97.917,66.0,0.00,Vance Afb
36.35,100.783,37.6,0.00,Gonghe
36.383,140.467,58.1,0.63,Mito
36.4,139.067,57.9,0.28,Maebashi
36.417,94.9,39.8,0.02,Golmud
36.45,127.433,55.6,0.00,Taejon Rok K-5
36.473,-82.404,77.0,0.00,Bristol Tri City Airport
36.517,126.317,56.2,0.00,Anmyeondo
36.533,61.217,63.0,0.00,Saragt
36.583,104.683,53.7,0.00,Jingyuan
36.6,-121.867,56.2,0.00,Monterey Naf
36.6,109.5,55.0,0.00,Yan An
36.617,101.767,46.5,0.00,Xining / Caojiapu
36.664,-121.608,55.9,0.00,Salinas Municipal Ap
36.667,-87.483,75.9,0.00,Campbell Aaf Airport
36.683,116.983,62.4,0.00,Jinan/Tsinan
36.733,139.5,50.0,0.51,Nikko
36.741,-104.502,55.5,0.00,Raton Municipal Crews Field A
36.744,-108.229,45.6,0.00,Farmington Municipal Ap
36.767,119.183,55.1,0.02,Weifang
36.78,-119.719,60.6,0.00,Fresno Yosemite International Airport
36.8,114.45,61.3,0.16,Yongnian Northwest
36.817,-76.033,71.5,0.00,Oceana Nas
36.867,81.7,57.8,0.00,Yutian/Keriya
36.883,122.417,58.6,0.00,Shidao
36.903,-76.192,70.3,0.00,Norfolk Regional Arpt
36.95,-76.283,69.8,0.00,Norfolk Nas
36.967,127.033,54.6,0.00,A 511 / Desiderio Aaf-Pyeongtaek / Camp Humphreys Rok
37.033,111.917,58.3,0.00,Jiexiu
37.056,-88.774,72.5,0.00,Paducah Barkley Field
37.067,-77.95,75.4,0.00,Blackstone
37.083,-76.36,69.7,0.00,Langley Afb Airport
37.087,-84.077,70.2,0.00,London-Corbin Ap
37.091,127.03,52.9,0.31,Osan Ab
37.133,79.933,56.6,0.02,Hotan
37.2,102.867,28.2,0.02,Wushaoling
37.239,127.007,53.1,0.00,Suwon
37.24,-93.39,66.7,0.00,Springfield Municipal Arpt
37.262,-104.338,50.0,0.00,Trinidad Las Animas County Ap
37.287,67.31,61.5,0.00,Termez
37.317,-79.974,73.5,0.00,Roanoke Woodrum Arpt
37.321,-79.207,77.5,0.00,Lynchburg Municipal Arpt
37.367,97.367,40.2,0.00,Delingha
37.371,-118.358,60.6,0.00,Bishop Airport
37.383,-120.567,62.5,0.00,Castle Afb
37.406,-122.048,59.0,0.00,Mountain View Moffett Fld Nas
37.433,116.317,60.6,0.59,Dezhou
37.439,-105.861,45.5,0.00,Alamosa Arpt
37.467,53.967,57.7,0.00,Esenguly
37.483,105.683,54.7,0.00,Zhongning
37.5,117.533,58.3,0.28,Huimin
37.5,129.133,55.4,0.24,Donghae Radar
37.505,-77.32,73.8,0.00,Richmond Intl Ap
37.55,121.367,57.7,0.02,Yantai Northeast
37.558,126.791,54.6,0.00,Gimpo
37.567,126.967,54.6,0.00,Seoul City
37.6,62.183,64.5,0.00,Bajramaly
37.617,-97.267,65.1,0.00,Mcconnell Afb Airport
37.62,-122.365,56.3,0.00,San Francisco Intl Ap
37.648,-97.43,64.7,0.00,Wichita Municipal Arpt
37.67,-95.484,65.1,0.00,Chanute Martin Johnson Ap
37.706,-112.146,34.3,0.00,Bryce Cnyn Faa Ap
37.709,-113.094,42.5,0.00,Cedar City Municipal Ap
37.721,-122.221,57.3,0.00,Oakland Metropolitan
37.747,112.628,56.0,0.00,Wusu
37.754,128.944,48.1,0.00,Gangneung
37.769,-99.968,64.0,0.00,Dodge City Municipal Arpt
37.783,-122.317,60.7,0.00,Naval Air Station
37.783,75.233,36.5,0.00,P U-Li
37.783,126.85,59.0,0.20,Yeongdongri
37.8,107.383,50.7,0.00,Yanchi
37.833,65.2,65.0,0.00,Kerki Intl
37.85,91.483,30.1,0.05,Ziliujing West
37.9,-85.967,75.0,0.00,Godman Aaf Airport
37.917,-97.9,65.2,0.00,Hutchinson Nas
37.917,127.05,58.0,0.00,Camp Casey/Tongduch
37.933,-75.433,64.1,0.00,Chincoteague Nas
37.933,124.667,51.7,0.00,Baengnyeongdo Ab
37.95,128.317,55.3,0.00,Hyun Ni (Kor-Army)
37.95,139.117,58.7,0.00,Niigata
37.967,126.567,57.0,0.12,Kaesong
37.987,58.361,64.8,0.00,Ashgabat
38.017,128.133,54.9,0.00,Kwandae Ri Team 840
38.033,125.7,57.2,0.08,Haeju
38.041,-84.606,72.1,0.00,Lexington Bluegrass Field
38.044,-87.521,74.3,0.00,Evansville Dress Regional Arp
38.049,-103.512,57.1,0.00,La Junta Municipal Ap
38.051,-117.09,48.2,0.00,Tonopah Airport
38.065,-97.861,65.6,0.00,Hutchinson Municipal Arpt
38.067,-122.5,60.2,0.00,Hamilton Aaf
38.067,-78.15,69.9,0.00,Gordonsville Faa Ap
38.067,114.35,60.8,0.08,Shijiazhuang
38.083,62.8,65.8,0.00,Uchadzhy
38.083,102.917,50.6,0.00,Caiqi Southeast
38.131,-91.768,68.7,0.00,Vichy Rolla Natl Arpt
38.15,85.55,56.5,0.00,Qiemo/Qarqan
38.181,-85.739,73.8,0.00,Louisville Standiford Field
38.233,127.967,56.8,0.00,Wonju Ab
38.25,-78.05,73.9,0.00,Orange Co
38.25,140.35,58.0,0.12,Yamagata
38.267,-121.933,63.7,0.00,Travis Air Force Base
38.267,109.783,53.5,0.00,Yulin
38.289,-104.506,52.4,0.00,Pueblo Memorial Airport
38.3,-76.417,66.1,0.28,Naval Air Station
38.333,-77.033,69.4,0.00,Dahlgren Weapons Lab
38.333,116.833,60.0,0.31,Cangzhou
38.341,-75.51,66.3,0.00,Salisbury Wicomico Co Ap
38.379,-81.59,74.8,0.00,Charleston Kanawha Arpt
38.405,141.22,55.3,0.00,Matsushima
38.417,-113.017,44.7,0.00,Milford Municipal Ap
38.417,-82.5,74.2,0.00,Chesapeake Huntington Ap
38.433,27.167,61.6,0.00,Izmir/Guzelyali
38.433,77.267,58.6,0.00,Shache
38.483,106.217,52.0,0.00,Yinchuan / Hedong
38.5,-77.3,69.3,0.00,Quantico Mcas
38.507,-121.495,63.7,0.00,Sacramento Executive Arpt
38.513,27.01,61.6,0.00,Cigli
38.517,125.767,53.5,0.06,Sariwon
38.55,-89.85,71.9,0.00,Scott Air Force Base/Midamerica Airport
38.567,-121.3,61.8,0.00,Mather Field
38.667,-121.4,62.7,0.00,Sacramento Mcclellan Afb
38.717,-93.55,70.4,0.00,Whiteman Afb Airport
38.717,-77.183,69.3,0.00,Davison Aaf Airport
38.733,115.483,62.6,0.24,Baoding
38.75,112.7,53.7,0.00,Yuanping
38.753,-90.374,71.7,0.00,St Louis Lambert Int'L Arpt
38.762,-27.091,61.5,0.00,Lajes
38.783,-97.65,63.2,0.00,Salina Muni
38.8,101.083,46.5,0.00,Shan-Dan
38.81,-104.688,44.1,0.00,City Of Colorado Springs Municipal Ap
38.817,-76.867,65.6,0.00,Andrews Air Force Base Airport
38.817,100.4,40.2,0.00,Zhang-Ye/South
38.832,-94.89,72.1,0.00,Olathe Johnson Co Industrial
38.833,-77.017,68.6,0.00,Washington Dc Bolling Field A
38.844,-94.56,67.8,0.00,Richard Gebaur
38.847,-77.035,69.0,0.00,Ronald Reagan Washington Natl Ap
38.85,-77.033,64.3,0.00,Anacostia Nas
38.876,-98.809,64.0,0.00,Russell Municipal Ap
38.885,-79.853,65.3,0.00,Elkins Elkins-Randolph Co Arp
38.917,139.85,57.0,0.94,Sakata
38.95,-95.664,67.0,0.00,Forbes Field Airport
38.95,113.517,23.5,0.16,Wutai Shan
38.966,121.539,55.3,0.00,Zhoushuizi
38.967,-92.367,70.2,0.00,Columbia Municipal Ap
38.991,-76.489,63.3,0.00,U.S. Naval Academy
39.033,88.167,60.8,0.00,Ruoqiang
39.043,-84.672,72.7,0.00,Cincinnati Greater Cincinnati
39.05,-96.767,65.3,0.00,Marshall Army Airfield
39.073,-95.626,67.8,0.00,Topeka Municipal Ap
39.1,107.983,49.3,0.00,Otog Qi
39.1,117.167,60.7,0.35,Tianjin
39.121,-94.597,71.8,0.00,Kansas City Downtown Ap
39.126,-123.201,57.2,0.00,Ukiah Municipal Ap
39.133,-75.467,59.4,0.00,Dover Afb Airport
39.134,-108.54,42.9,0.00,Grand Junction Walker Field
39.173,-76.684,64.2,0.00,Baltimore-Washington Intl Airport
39.183,127.433,45.7,0.09,Wonsan
39.224,125.67,55.0,0.05,Pyongyang Intl
39.267,-85.9,71.2,0.00,Columbus Bakalar
39.277,-120.71,49.6,0.00,Blue Canyon Ap
39.283,109.75,47.5,0.00,Xinjie Nw
39.295,-114.847,39.1,0.00,Ely Yelland Field
39.367,-101.693,56.3,0.00,Goodland Renner Field
39.367,-75.067,59.6,0.00,Millville Municipal Ap
39.367,111.217,51.2,0.00,Hequ
39.383,99.717,50.5,0.00,Gaotai West
39.402,-77.984,65.2,0.00,Martinsburg Eastern Wv Reg Ap
39.417,-118.717,48.4,0.00,Fallon Naas
39.417,-77.383,61.7,0.00,Frederick
39.431,-83.777,71.4,0.00,Airborne Airpark Airport
39.45,-74.583,56.2,0.00,Atlantic City Nas
39.452,-74.567,56.6,0.00,Atlantic City International Airport
39.467,-76.167,60.6,0.00,Aberdeen Pvng Grnd
39.484,-119.771,44.3,0.00,Reno/Tahoe International Airport
39.65,-106.917,35.0,0.00,Eagle County Ap
39.65,118.1,59.1,0.00,Tangshan
39.65,141.967,55.7,0.39,Miyako
39.667,-119.867,43.9,0.00,Stead Afb
39.667,76.167,49.6,0.00,Ar-Tux
39.673,-75.601,58.5,0.00,Wilmington Dupont Ap
39.7,-104.75,42.7,0.00,Denver Nas
39.7,76.35,57.4,0.00,Tejan
39.7,141.167,54.6,1.65,Morioka
39.701,66.984,56.8,0.00,Samarkand
39.717,-104.9,45.4,0.00,Denver Lowry Afb
39.717,123.067,56.4,0.00,Shishan Northeast
39.717,140.1,57.9,1.02,Akita
39.732,-86.279,70.5,0.00,Indianapolis Weir Cook Munici
39.75,-104.867,45.8,0.00,Denver Wsfo
39.767,98.483,47.6,0.00,Jiuquan/Suzhou
39.783,105.75,54.0,0.00,Jartai
39.8,78.567,55.6,0.00,Bachu
39.817,-82.933,71.6,0.00,Rickenbacker Intl Airport
39.833,-84.05,72.2,0.00,Wright-Patterson Afb Airport
39.833,114.567,45.7,0.16,Yu Xian
39.845,-89.684,70.1,0.00,Springfield Capital Ap
39.868,-75.231,57.2,0.00,Philadelphia International Ap
39.883,-75.167,58.0,0.00,Philadelphia Naas
39.906,-84.219,71.0,0.00,Dayton Municipal Arpt
39.933,127.55,47.3,0.01,Hamheung
39.991,-82.881,72.8,0.00,Columbus Municipal Arpt
40.0,119.75,59.3,0.00,Shan-Hai-Guan
40.017,-74.6,54.8,0.00,Mcguire Afb Airport
40.033,-74.35,53.2,0.00,Lakehurst Nas
40.05,124.333,53.7,0.02,Dandong
40.068,-118.569,46.8,0.00,Lovelock Derby Field
40.08,116.585,57.0,0.00,Beijing - Capital International Airport
40.082,-75.011,57.4,0.00,Philadelphia Ne Philadelphia
40.1,124.383,55.3,0.05,Sinuiju
40.15,94.683,54.0,0.00,Dunhuang
40.152,-122.254,62.5,0.00,Red Bluff Municipal Arpt
40.167,-112.933,43.7,0.00,Dugway Proving Grou
40.183,-112.933,43.7,0.00,Dugway Pg Utah/Michales Aaf
40.183,-74.067,51.9,0.00,Belmar Asc
40.183,-74.066,52.2,0.00,Belmar Nj/Sig Corps Evans Lab
40.196,-76.772,62.1,0.00,Harrisburg Intl
40.2,-75.15,56.6,0.00,Willow Grove Nas
40.217,-76.851,61.3,0.00,Harrisburg Capital City Arpt
40.267,97.033,48.6,0.00,Yumenzhen
40.283,68.833,63.5,0.00,Jangier
40.3,-88.15,66.7,0.00,Rantoul/Chanute Afb
40.4,99.8,48.0,0.00,Shuangchengtzu
40.417,115.5,57.2,0.00,Huailai
40.485,-80.214,71.3,0.00,Pittsburgh International Airport
40.55,65.683,61.0,0.00,Nurata
40.567,109.983,49.5,0.00,Baotou
40.583,-73.883,54.5,0.00,New York Floyd Benne
40.639,-73.762,55.1,0.00,New York Fort Totten
40.65,-86.15,70.9,0.00,Grissom Arb
40.651,-75.449,56.3,0.00,Allentown Bethlehem-Easton Ar
40.667,122.2,51.4,0.00,Yingkou
40.667,129.2,44.2,0.02,Kimchaek/Songjin
40.668,-89.684,67.7,0.00,Peoria Greater Peoria Ap
40.683,-74.169,56.6,0.00,Newark International Arpt
40.705,141.372,53.3,0.00,Misawa Ab
40.717,124.783,50.0,0.00,Kuandian
40.721,-114.036,45.5,0.00,Wendover Airport
40.733,-73.6,56.5,0.00,Mitchel Field
40.767,107.4,50.8,0.00,Linhe
40.778,-111.969,43.6,0.00,Salt Lake City International Airport
40.779,-73.88,53.4,0.00,New York Laguardia Arpt
40.783,-91.125,67.4,0.00,Burlington Municipal Ap
40.783,114.883,51.3,0.00,Zhangjiakou
40.829,-115.789,35.9,0.00,Elko Municipal Arpt
40.844,-72.632,51.9,0.00,Francis S Gabreski Ap
40.85,-96.767,62.6,0.00,Lincoln Afb
40.851,-96.748,62.6,0.00,Lincoln Municipal Airport
40.851,111.824,46.5,0.00,Baita
40.869,141.378,66.1,0.00,Draughon Range
40.883,123.9,47.5,0.01,Caohekou
40.9,-78.083,63.1,0.00,Philipsburg Mid-State Arpt
40.902,-117.808,40.2,0.00,Winnemucca Municipal Arpt
40.917,-81.433,70.0,0.00,Akron Akron-Canton Airport
40.961,-98.314,61.9,0.00,Grand Island Arpt
40.967,107.167,47.4,0.00,Hang-Chin-Hou-Chi Nw
40.967,117.917,54.1,0.00,Chengde
40.967,126.6,51.7,0.04,Kanggye
40.971,-85.206,69.4,0.00,Fort Wayne International Airport
40.978,-124.109,46.4,0.00,Arcata Airport
41.017,-69.5,44.9,0.00,Nantucket Shoals Afs
41.033,-81.483,76.9,0.00,Akron Nas
41.033,113.067,41.1,0.02,Jining
41.117,-111.967,38.5,0.00,Hill Afb Airport
41.117,-95.917,66.5,0.00,Offutt Afb Airport
41.121,-100.669,53.4,0.00,North Platte Lee Bird Field
41.133,121.117,51.5,0.00,Jinzhou
41.15,-79.1,69.4,0.00,Brookville Faa Ap
41.15,126.217,48.4,0.12,Ji'An
41.158,-104.807,38.8,0.00,Cheyenne Airport
41.158,-73.129,50.9,0.00,Bridgeport Municipal Arpt
41.243,-76.922,62.7,0.00,Williamsport-Lycoming County
41.255,-80.674,69.2,0.00,Youngstown-Warren Regional Airport
41.264,-72.887,53.0,0.00,New Haven Tweed Airport
41.267,80.233,55.7,0.00,Wen-Su
41.31,-95.899,65.6,0.00,Omaha Eppley Airfield
41.328,-72.049,51.0,0.00,Groton Aaf
41.333,-122.333,45.6,0.00,Mount Shasta
41.334,-75.727,59.5,0.00,Wilkes-Barre Scranton Ap
41.4,128.167,46.5,0.02,Hyesan
41.405,-81.853,72.0,0.00,Cleveland Hopkins Intl Ap
41.465,-90.523,67.1,0.00,Moline Quad City Arpt
41.5,-74.1,58.7,0.00,Stewart International Airport
41.534,-93.653,68.0,0.00,Des Moines Municipal Arpt
41.55,23.267,61.3,0.00,Sandanski
41.567,60.633,66.2,0.00,Urgench
41.567,108.517,40.8,0.00,Haliut
41.583,-71.417,53.3,0.00,Quonset Point Nas
41.589,-83.801,70.6,0.00,Toledo Express Airport
41.594,-109.053,30.6,0.00,Rock Springs Arpt
41.6,41.633,54.2,0.00,Batumi
41.667,26.567,59.7,0.00,Edirne
41.683,-67.783,43.4,0.00,Georges Shoals Afs
41.7,110.433,42.6,0.00,Bailing-Miao
41.707,-86.316,66.9,0.00,South Bend St Joseph Co Arpt
41.717,82.95,58.7,0.00,Kuqa
41.722,-71.433,52.2,0.00,Providence T F Green Arpt
41.733,123.517,49.1,0.28,Shenyang
41.781,-122.472,43.8,0.00,Montague Siskiyou County Ap
41.783,95.133,41.0,0.00,Xing-Xing-Xia
41.783,126.883,49.7,0.28,Chunggang
41.783,129.817,39.7,0.00,Chongjin
41.786,-87.752,67.5,0.00,Chicago Midway Ap
41.8,-107.2,31.8,0.00,Rawlins Municipal Ap
41.817,140.75,48.6,0.35,Hakodate
41.867,-71.017,49.3,0.00,Taunton Muni
41.867,140.117,50.8,0.39,Esashi
41.871,-103.593,46.4,0.00,Scottsbluff W B Heilig Fiel
41.9,114.0,39.0,0.00,Huade
41.917,19.217,60.8,0.00,Ulcinj
41.933,117.75,48.2,0.20,Weichang
41.938,-72.683,59.0,0.00,Hartford Bradley Intl Ap
41.96,-87.932,65.8,0.00,Chicago O'Hare International Airport
41.983,-87.9,65.5,0.00,Park Ridge Af
41.986,-97.435,66.5,0.00,Norfolk Karl Stefan Mem Arpt
42.05,86.567,53.1,0.00,Yanqi
42.08,-80.183,69.2,0.00,Erie International Ap
42.083,-87.833,67.7,0.00,Naval Air Station
42.1,-83.167,67.5,0.00,Grosse Ile Nas
42.1,140.567,43.5,0.39,Mori
42.15,-70.933,48.6,0.00,South Weymouth Nas
42.167,142.783,49.1,2.17,Urakawa
42.183,116.467,40.0,0.12,Duolun
42.2,-72.533,60.1,0.00,Westover Afb/Metropolitan Airport
42.207,-75.98,58.9,0.00,Binghamton Broome County Arpt
42.233,-83.533,68.3,0.00,Detroit Willow Run Ap
42.271,-71.873,50.4,0.00,Worcester Municipal Arpt
42.3,118.833,50.2,0.00,Chifeng
42.317,130.4,37.5,0.04,Senbong
42.317,140.983,42.8,0.55,Muroran/Yakumo
42.361,-71.01,49.1,0.00,Gen E L Logan International Airport
42.381,-122.872,45.8,0.00,Medford Jackson County Arpt
42.391,-96.379,65.0,0.00,Sioux City Municipal Arpt
42.398,-90.704,65.9,0.00,Dubuque Municipal Ap
42.4,112.9,42.4,0.00,Jurh
42.409,-83.01,68.8,0.00,Detroit City Airport
42.417,122.533,49.0,0.35,Zhangwu
42.47,-71.289,49.2,0.02,Bedford Hanscom Field
42.517,125.633,42.3,0.21,Meihekou West
42.542,-113.766,39.8,0.00,Burley Municipal Arpt
42.552,-71.756,52.9,0.00,Fitchburg Municipal Ap
42.6,-123.364,43.8,0.00,Sexton Summit
42.608,-82.835,43.7,0.00,Selfridge Angb/Train
42.608,-82.818,64.2,0.00,Selfridge Air National Guard Base
42.617,141.55,44.8,0.91,Tomakomai
42.65,130.8,40.0,0.01,Pos'Et
42.695,23.406,52.2,0.00,Sofia
42.747,-73.799,61.6,0.00,Albany International Airport
42.775,141.692,49.7,0.00,New Chitose
42.8,140.217,44.9,0.28,Suttsu
42.815,-108.726,35.7,0.00,Lander Hunt Field
42.817,93.517,50.2,0.00,Hami
42.883,129.5,41.0,0.09,Yanji
42.898,-106.474,39.0,0.35,Natrona County International Ap
42.9,-85.667,64.7,0.00,Grand Rapids
42.9,133.9,41.0,0.01,Preobrazhenie
42.917,143.217,41.5,0.79,Obihiro
42.92,-112.571,38.1,0.00,Pocatello Municipal Arpt
42.933,-71.438,49.3,0.00,Manchester Municipal Ap
42.933,-71.433,49.6,0.00,Grenier Afb
42.94,-78.736,71.7,0.00,Buffalo Niagara International Airpor
42.95,89.233,64.5,0.00,Turpan
42.955,-87.905,63.5,0.28,General Mitchell International Ap
42.967,-83.749,67.2,0.00,Flint Bishop Arpt
42.983,144.4,40.5,2.28,Kushiro/Kenebetsu
43.05,-115.867,41.6,0.00,Mountain Home Afb Airport
43.067,141.333,49.7,0.16,Sapporo
43.083,-70.817,45.4,0.00,Pease Intl Tradepor
43.108,-78.938,68.9,0.00,Niagara Falls Intl Airport
43.111,-76.104,65.5,0.28,Syracuse Hancock International Ap
43.117,-77.677,70.4,0.00,Rochester Monroe Co Arpt
43.117,131.933,38.5,0.04,Vladivostok
43.141,-89.345,63.3,0.35,Dane Co Regional-Truax Field Airport
43.15,64.333,62.2,0.00,Ak-Bajtal
43.15,133.017,45.0,0.02,Partizansk
43.154,-93.327,63.1,0.00,Mason City Municipal Arpt
43.171,-86.237,60.3,0.00,Muskegon County Arpt
43.183,124.333,45.1,0.20,Siping
43.183,141.017,51.4,0.24,Otaru
43.195,-71.501,47.9,0.00,Concord Municipal Arpt
43.217,91.733,53.7,0.00,Shisanjianfang
43.217,141.783,49.2,1.02,Iwamizawa
43.232,27.825,48.0,0.00,Varna
43.234,-75.407,61.6,0.39,Griffiss Airpark
43.239,-123.355,51.8,0.00,Roseburg Municipal Ap
43.25,45.717,54.7,0.00,Groznyj
43.267,68.217,55.3,0.00,Turkestan
43.333,145.583,36.8,1.10,Nemuro
43.35,131.633,33.8,0.14,Gusevka Southeast
43.35,132.8,33.0,0.02,Novo-Moskovskaya Ne
43.367,132.167,39.7,0.98,Artem
43.413,-124.244,47.9,0.00,North Bend Muni Airport
43.436,5.214,54.0,0.00,Marseille Provence
43.516,-112.067,36.8,0.00,Idaho Falls Fanning Field
43.517,16.433,63.0,0.00,Split/Marjan
43.533,75.25,58.0,0.00,Otar
43.55,131.883,41.2,0.08,Terehovka
43.567,-116.241,40.3,0.00,Boise Air Terminal
43.567,132.5,40.5,0.02,Novo Khatuniehi
43.578,-96.754,61.4,0.00,Sioux Falls Foss Fld
43.583,-119.05,38.9,0.00,Burns Federal Bldg
43.583,134.167,37.5,0.01,Bereznjaki
43.6,122.267,47.8,0.01,Tongliao
43.617,25.35,60.8,0.00,Svichtov
43.626,-72.305,52.7,0.00,Lebanon Municipal
43.633,118.033,42.5,0.08,Linxi
43.65,-70.3,45.3,0.00,Portland Intl Jetport
43.65,112.0,44.6,0.00,Erenhot
43.677,-79.631,62.1,0.75,Lester B Pearson Intl
43.717,127.15,42.0,0.71,Jiaohe South
43.733,44.667,55.8,0.00,Mozdok
43.75,142.367,48.9,0.31,Asahikawa
43.783,87.617,51.8,0.02,Wu Lu Mu Qi
43.8,132.167,42.8,0.08,Glukhovka
43.817,23.25,57.7,0.01,Lom
43.825,18.331,49.5,0.01,Sarajevo
43.827,-66.088,37.6,0.00,Yarmouth
43.85,25.95,61.7,0.00,Rousse/Ruse
43.879,-91.253,66.2,0.39,La Crosse Municipal Airport
43.9,-69.933,43.0,0.04,Naval Air Station
43.904,-92.492,61.5,0.00,Rochester Municipal Arpt
43.917,-60.0,32.5,0.00,Sable Island  Ns
43.917,81.283,53.0,0.09,Ining
43.95,116.117,41.7,0.00,Xilin Hot
43.95,141.633,46.6,0.24,Rumoi
43.967,133.067,44.5,0.02,Anucino
43.983,119.4,49.0,0.00,Lindong
43.989,-76.026,64.2,0.00,Watertown Intl Airport
43.996,125.681,44.3,0.43,Longjia
44.017,89.567,50.3,0.00,Qitai
44.017,115.0,37.4,0.00,Abag Qi
44.017,144.283,44.6,0.12,Abashiri
44.017,145.867,34.0,0.09,Juzhno-Kuril'Sk
44.067,62.9,61.3,0.00,Cirik-Rabat
44.1,39.033,56.0,0.02,Tuapse
44.117,15.233,57.5,0.00,Zadar
44.128,-123.221,50.1,0.00,Eugene Mahlon Sweet Arpt
44.15,-103.1,48.2,0.00,Ellsworth Air Force Base
44.15,133.867,42.3,0.01,Cuguevka
44.167,22.8,59.5,0.02,Novo Selo
44.167,66.75,57.5,0.00,Shieli
44.167,80.067,55.0,0.00,Zharkent
44.217,28.65,48.5,0.00,Constanta
44.225,43.082,57.0,0.00,Mineralnyye Vody
44.233,133.367,47.0,0.04,Novo Sysovenvka
44.25,123.967,45.3,0.04,Changling
44.256,-121.139,39.7,0.00,Redmond Roberts Field
44.3,86.033,52.0,0.00,Shihezi
44.316,-77.633,63.2,0.00,Stirling Ontario Dot
44.367,135.85,37.3,0.12,Rudnaja Pristan'
44.367,141.7,49.0,0.28,Haboro
44.381,-100.286,54.2,0.00,Pierre Regional Ap
44.383,131.15,39.4,0.04,Suifenhe
44.398,-98.223,56.9,0.00,Huron Municipal Arpt
44.4,131.383,41.5,0.49,Pogranichnyj
44.417,133.483,43.5,0.08,Jakovlevka
44.433,84.967,47.8,0.00,Kuytun
44.433,132.067,40.5,0.12,Hkorol'
44.45,-83.4,60.5,0.00,Oscoda-Wurtsmith Airport
44.468,-73.15,59.4,0.00,Burlington International Airport
44.479,-88.137,61.9,0.12,Austin Straubel International Ap
44.483,34.167,49.5,0.00,Yalta
44.5,129.667,43.5,0.16,Mudanjiang
44.503,26.102,60.0,0.00,Baneasa Aurel Vlaicu
44.567,82.817,50.3,0.00,Jinghe
44.567,120.9,47.4,0.04,Jarud Qi
44.583,117.6,41.6,0.04,Xi Ujimqin Qi
44.583,142.967,41.9,0.12,Omu
44.6,132.817,41.0,0.10,Spassk-Dalnii
44.633,22.633,63.0,0.02,Drobeta Turnu Severin
44.64,-63.499,33.8,0.00,Shearwater
44.651,-73.468,55.8,0.00,Plattsburgh Intl
44.717,132.067,39.5,0.35,Astrahanka
44.741,-85.583,63.7,0.00,Traverse City Cherry Capital
44.75,-81.1,64.5,0.71,Wiarton A
44.75,134.467,39.5,0.10,Zuravlevka
44.769,-106.969,41.4,0.00,Sheridan County Arpt
44.798,-68.819,42.9,0.08,Bangor Airport
44.8,-68.817,42.5,0.00,Dow Afb
44.8,20.467,52.5,0.00,Beograd
44.8,133.083,41.5,0.14,Svijagino
44.817,85.6,48.0,0.00,Pao-Tai East
44.843,-117.809,38.6,0.00,Baker Municipal Ap
44.867,-91.488,62.7,0.00,Eau Claire Municipal Ap
44.883,-93.229,63.9,0.00,Minneapolis-St Paul International Ap
44.883,-93.217,64.4,0.00,Minneapolis Nas
44.905,-123.001,46.4,0.00,Salem Mcnary Field
44.929,-89.628,61.2,0.00,Wausau Municipal Arpt
44.933,142.583,39.9,0.28,Kitamiesashi
44.936,-74.846,60.0,0.00,Massena Ap
44.95,-68.667,38.3,0.00,Old Town Faa Airport
44.983,-64.917,35.8,0.00,Greenwood (Can-Mil)
45.0,136.6,35.0,0.04,Ternej
45.033,35.383,48.0,0.00,Feodosiia
45.083,124.867,47.0,0.31,Qian Gorlos
45.167,29.733,50.0,0.00,Sulina
45.217,127.967,42.4,0.04,Shangzhi
45.217,131.983,39.5,0.41,Turij Rog
45.258,-112.554,34.9,0.00,Dillon
45.267,135.5,35.5,0.10,Ust-Kolumbe
45.3,130.917,41.3,0.08,Jixi
45.323,-75.669,57.7,0.08,Ottawa Macdonald Cartier Intl
45.35,42.85,61.0,0.00,Svetlograd
45.4,36.417,50.2,0.00,Kerch
45.417,134.267,43.5,0.35,Malinovo
45.417,141.683,40.9,0.35,Wakkanai
45.467,-73.733,56.1,0.08,Montreal/Trudeau Int
45.483,28.033,59.5,0.00,Galati
45.511,-118.425,36.3,0.00,Meachum Emergency Ap
45.517,-73.417,55.5,0.00,St Hubert
45.517,32.7,46.3,0.00,Chornomors'Ke
45.517,116.967,39.6,0.00,Uliastai
45.533,18.733,53.5,0.00,Bogus Yugoslavian
45.543,-94.051,59.2,0.00,St Cloud Municipal Arpt
45.583,-70.867,42.9,0.00,Lac Megantic
45.596,-122.609,47.2,0.00,Portland International Airport
45.619,-121.166,51.1,0.00,The Dalles Municipal Arpt
45.633,122.85,48.5,0.01,Baicheng Northeast
45.648,-68.693,35.6,0.00,Millinocket Municipal Ap
45.667,28.617,59.5,0.00,Bolgrad
45.698,-118.855,48.0,0.00,Pendleton Municipal Arpt
45.717,34.4,51.0,0.00,Dzankoj
45.767,62.117,58.5,0.00,Kazaly
45.807,-108.542,42.6,0.00,Billings Municipal Arpt
45.85,40.083,63.0,0.00,Tihoreck
45.865,-84.637,59.0,0.00,Mackinack Island
45.867,133.733,40.2,0.33,Dal'Nerechensk
45.883,134.967,41.0,0.24,Vostretsovo/Karton
45.9,15.967,52.5,0.02,Puntijarka (Mount)
45.933,126.567,43.5,0.17,Harbin
45.965,-112.501,32.7,0.00,Butte Silver Bow Co Arpt
45.967,128.733,39.6,0.02,Tonghe
45.967,136.633,23.0,0.28,Unnamed Mountain
46.017,12.617,57.6,0.02,Aviano (Usaf)
46.033,38.15,57.2,0.00,Primorsko-Ahtarsk
46.095,-118.287,47.3,0.00,Walla Walla Regional Arpt
46.157,-123.883,47.3,0.00,Astoria Clatsop County Arpt
46.167,-60.05,29.0,0.00,Sydney A
46.167,80.933,43.7,0.00,Uc-Aral
46.17,8.88,55.4,0.24,Magadino-Cadenazzo
46.177,21.262,51.8,0.16,Arad
46.2,150.5,33.0,0.00,Urup
46.217,122.05,48.7,0.02,Qarsan Southeast
46.22,7.327,52.0,0.08,Sion
46.233,14.483,51.5,0.05,Ljubljana /Brnik
46.238,6.109,52.1,0.24,Geneva Cointrin
46.25,-84.467,56.0,0.00,Kincheloe Afb
46.364,-79.423,61.0,0.20,North Bay
46.375,-117.016,48.6,0.00,Lewiston Nez Perce County Arp
46.383,125.317,43.0,0.00,Anda
46.427,-105.883,47.3,0.00,Miles City Municipal Arpt
46.427,30.676,52.5,0.00,Odesa Intl
46.433,-63.833,33.2,0.00,Summerside
46.479,-84.357,56.4,0.00,Sault Ste Marie
46.517,136.95,27.2,0.35,Ulunga-In-Primor
46.522,26.91,59.2,0.00,George Enescu Bacau Intl
46.533,135.317,40.5,0.55,Krasnyj Jar
46.533,138.333,32.0,0.22,Sosunovo
46.567,43.667,60.8,0.00,Remontnoe
46.568,-120.543,48.4,0.00,Yakima Air Terminal
46.606,-111.964,43.1,0.00,Helena Arpt
46.633,32.567,56.0,0.00,Kherson
46.65,8.617,32.2,0.05,Guetsch Ob Andermatt
46.65,14.333,50.0,0.00,Klagenfurt(Civ/Mil)
46.683,-68.05,33.7,0.00,Nern Maine Rgnl Arpt At Presque Is Airport
46.683,136.267,35.2,0.28,Gamcanza
46.783,-100.757,50.7,0.00,Bismarck Municipal Arpt
46.785,23.686,55.2,0.43,Cluj Napoca / Avram Iancu
46.799,-102.797,45.5,0.00,Dickinson Municipal Ap
46.817,85.75,32.5,0.10,Hoboksar
46.817,130.333,36.9,0.59,Chia-Mu-Ssu /Chiamueze
46.837,-92.183,60.0,0.00,Duluth International Airport
46.85,1.717,47.3,0.00,Chateauroux
46.85,30.083,58.8,0.00,Rozdil'Na
46.85,151.867,32.0,0.00,Simusir
46.871,-68.017,33.3,0.00,Caribou Municipal Arpt
46.889,142.718,34.0,0.04,Khomutovo
46.921,-114.093,41.5,0.00,Missoula Johnson-Bell Fld
46.925,-96.811,56.8,0.00,Hector International Airport
46.95,-67.883,33.4,0.00,Loring Afb/Limeston
46.973,-123.93,46.9,0.00,Hoquiam Ap
46.973,-122.903,46.4,0.00,Olympia Municipal Arpt
46.983,89.517,31.6,0.06,Fuyun
46.991,15.44,53.0,0.02,Graz
47.0,-65.45,34.7,0.00,Miramichi A
47.017,28.983,61.7,0.02,Chisinau
47.033,31.95,59.8,0.00,Mikolaiv
47.049,-109.458,37.5,0.00,Lewistown Municipal Arpt
47.05,142.05,37.0,0.04,Holmsk
47.15,-122.483,46.5,0.12,Mcchord Afb Airport
47.167,119.933,34.7,0.05,Arxan
47.169,-88.489,59.4,0.00,Hancock Houghton Co Ap
47.178,27.621,62.0,0.00,Iasi
47.208,-119.319,50.4,0.00,Grant County Intl Airport
47.233,131.983,36.7,0.39,Fujin
47.24,123.918,44.1,0.00,Sanjiazi
47.25,9.35,30.8,0.13,Saentis
47.26,11.344,49.5,0.00,Innsbruck
47.277,-121.337,30.9,0.00,Stampede Pass
47.3,-53.983,27.4,0.00,Argentia (Aut)
47.317,33.283,59.0,0.00,Velyka Oleksandrivka
47.317,138.983,32.0,0.51,Zolotoj
47.333,142.8,33.5,0.06,Dolinsk
47.444,-122.314,46.4,0.01,Seattle-Tacoma International Airport
47.45,74.817,43.5,0.00,Bektauata
47.45,126.867,39.1,0.07,Hailun
47.465,8.549,53.9,0.04,Zurich
47.473,-111.382,39.2,0.00,Great Falls Intl Arpt
47.517,-111.183,41.2,0.12,Malmstrom Afhp Heliport
47.53,-122.301,49.1,0.01,Boeing Fld/King Co Intl Ap
47.567,7.683,39.5,0.04,St. Chrischona
47.567,31.333,60.5,0.00,Voznesens'K
47.6,138.4,32.5,0.31,Agzu
47.619,-52.752,24.4,0.01,St Johns Intl
47.622,-117.528,43.3,0.00,Spokane International Airport
47.633,-117.65,42.5,0.00,Fairchild Air Force Base
47.683,-122.267,48.5,0.00,Seattle Nas
47.683,8.617,51.8,0.28,Schaffhausen
47.703,22.886,57.5,0.08,Satu Mare
47.733,88.083,40.0,0.02,Altay
47.767,135.633,36.8,0.51,Bicevaja
47.783,27.95,60.8,0.00,Balti
47.793,13.004,49.5,0.00,Salzburg
47.843,106.767,28.0,0.00,Chinggis Khaan Intl / Buyant Ukhaa Intl
47.867,10.617,51.8,0.00,Kaufbeuren(Gafb)
47.883,8.0,39.8,0.16,Feldberg/Schwarzwal
47.9,-122.283,44.9,0.00,Snohomish Co
47.933,1.883,47.8,0.00,Orleans
47.943,-97.184,53.5,0.00,Grand Forks International Ap
47.967,139.533,33.0,0.28,Grossevichi
48.0,-66.683,33.0,0.00,Campbellton Center
48.0,7.85,58.1,0.04,Freiburg (Civ/Fafb)
48.0,122.733,46.5,0.07,Zalantun
48.053,-77.783,58.8,0.31,Val D Or
48.067,11.633,47.4,0.00,Neubiberg (Ger-Afb)
48.067,37.767,64.5,0.00,Donets'K
48.067,153.217,29.8,0.00,Matua
48.071,10.906,50.1,0.00,Landsberg Lech
48.1,5.05,47.5,0.00,Chaumont
48.11,16.57,51.5,0.01,Wien Schwechat
48.15,-103.617,44.5,0.00,Williston
48.17,17.213,53.5,0.14,M R Stefanik
48.2,28.3,61.0,0.00,Soroca
48.206,11.267,49.4,0.00,Furstenfeldbruck
48.214,-106.621,41.7,0.00,Glasgow Intl Arpt
48.217,46.733,58.2,0.00,Verhnij Baskunchak
48.217,57.117,54.0,0.00,Kozasaj
48.255,-101.273,46.7,0.00,Minot Faa Ap
48.3,69.65,42.3,0.00,Kzylzhar
48.304,-114.264,40.2,0.00,Kalispell Glacier Pk Int'L Ar
48.322,11.949,50.4,0.00,Erding
48.331,-70.996,37.2,0.02,Bagotville
48.35,-122.667,47.9,0.00,Whidbey Island Nas
48.354,11.786,48.8,0.00,Munchen
48.367,-89.333,48.8,0.12,Thunder Bay A
48.383,-124.733,46.5,0.00,Tatoosh Island
48.383,9.95,51.6,0.00,Ulm (Mil/Met)
48.4,142.1,33.8,0.01,Krashogorsk
48.517,32.2,61.5,0.00,Kirovohrad
48.533,-58.55,24.3,0.00,Stephenville Dymond
48.561,-93.398,58.2,0.00,International Falls Intl Ap
48.567,-109.667,42.7,0.00,Havre
48.583,13.467,50.4,0.02,Passau
48.6,137.05,31.0,0.69,Tivjaku
48.603,-112.375,37.4,0.00,Cut Bank Muni Ap
48.65,1.1,44.7,0.00,Dreux
48.65,19.15,53.5,0.25,Sliac
48.65,26.667,59.2,0.00,Kamianets'-Podil' Skyi
48.667,21.217,56.0,0.02,Kosice
48.69,9.222,53.3,0.00,Stuttgart
48.767,5.983,47.8,0.00,Toul Rosiere
48.767,30.233,57.7,0.00,Uman'
48.767,121.917,33.5,0.05,Bugt
48.794,-122.537,47.4,0.00,Bellingham Intl Airport
48.817,7.2,58.6,0.00,Phalsbourg
48.817,135.883,33.0,0.80,Elabuga
48.95,14.433,47.8,0.00,Ceske Budejovice
49.017,-122.367,47.3,0.00,Abbotsford Airport
49.017,1.233,45.0,0.00,Evreux
49.033,5.867,47.8,0.00,Chambley Ab
49.067,142.033,38.5,0.02,Uglegorsk
49.117,16.75,49.0,0.01,Brno-Sokolnice
49.167,125.233,40.6,0.02,Nenjiang
49.2,20.217,29.3,0.20,Lomnicky Stit
49.217,7.4,54.3,0.00,Zweibruecken
49.233,5.683,49.9,0.00,Etain
49.233,19.983,34.0,0.16,Kasprowy Wierch
49.233,28.6,55.8,0.00,Vinnytsia
49.25,119.7,39.3,0.02,Hailar
49.4,8.65,56.6,0.00,Heidelberg Aaf
49.4,133.233,35.5,0.12,Urmi
49.414,-82.468,60.0,0.12,Kapuskasing
49.433,26.983,57.2,0.00,Khmel'Nyts'Kyi
49.433,108.9,33.3,0.02,Menza
49.433,127.35,39.0,0.05,Sunwu
49.437,7.6,52.1,0.00,Ramstein Ab
49.499,11.078,51.3,0.05,Nurnberg
49.5,7.867,53.9,0.00,Sembach (Usafb)
49.55,134.733,32.8,0.39,Neran
49.567,111.967,34.7,0.00,Kyra
49.583,15.767,44.5,0.04,Pribyslav
49.6,34.55,62.2,0.00,Poltava
49.633,3.55,43.8,0.00,Laon
49.648,9.966,53.8,0.00,Giebelstadt Aaf
49.667,31.0,59.5,0.00,Myronivka
49.671,73.334,41.0,0.00,Karaganda
49.696,18.111,46.0,0.06,Mosnov
49.711,-124.887,49.4,0.00,Comox
49.733,117.267,33.5,0.01,Matsiyevskaya
49.783,129.917,40.0,0.00,Malinovka
49.8,22.767,55.5,0.00,Przemysl
49.813,23.956,56.7,0.04,Lviv Intl
49.833,28.883,57.2,0.00,Bilopillja
49.9,115.75,39.5,0.00,Solov'Evsk
49.903,-98.274,51.8,0.20,Southport
49.91,-97.24,52.6,0.35,Winnipeg Intl / James Armstrong Richardson Intl
49.933,134.633,34.7,0.20,Kur
49.949,7.264,49.2,0.00,Frankfurt Hahn
49.95,6.567,51.3,0.00,Bitburg(Us Army)
49.973,6.693,51.5,0.00,Spangdahlem Ab
50.0,33.017,61.7,0.00,Lubny
50.0,155.383,30.0,0.02,Cape Vasileva
50.0,163.917,27.5,0.00,Ostrov Karaginskiy
50.017,111.183,33.8,0.02,Grjazi
50.026,8.543,54.3,0.00,Frankfurt Main
50.033,20.983,51.5,0.02,Tarnow
50.05,8.325,55.2,0.00,Wiesbaden Aaf
50.05,142.167,37.0,0.00,Pil'Vo
50.067,17.233,35.5,0.08,Praded Mountain
50.067,45.367,56.8,0.00,Kamysin
50.067,132.133,35.5,0.00,Sutur
50.083,19.8,51.8,0.02,Krakow
50.101,14.26,45.5,0.05,Ruzyne
50.167,27.033,56.3,0.00,Shepetivka
50.169,8.962,56.7,0.00,Hanau Aaf
50.217,8.45,45.7,0.02,Kleiner Feldberg
50.233,19.033,48.0,0.04,Katowice
50.233,28.733,58.5,0.00,Zhytomyr
50.283,-88.9,52.1,0.00,Armstrong (Aut)  Ont
50.33,-105.559,38.9,0.04,Moose Jaw Air Vice Marshal C M Mcewen
50.333,119.067,40.0,0.00,Priargunsk
50.383,11.183,43.7,0.00,Sonneberg/Neufang
50.4,116.517,35.0,0.02,Borzya
50.4,143.767,31.8,0.00,Pogranichnoe
50.433,12.95,35.0,0.06,Fichtelberg Mtn
50.433,16.617,44.5,0.33,Klodzko
50.483,12.133,42.3,0.02,Plauen (Aut)
50.617,-97.033,52.4,0.08,Gimli Industrial
50.633,10.15,46.8,0.02,Kaltennordheim(Aut)
50.65,-128.0,38.2,0.00,Holberg
50.7,21.717,55.5,0.00,Sandomierz
50.7,23.25,57.7,0.00,Zamosc
50.7,25.5,58.7,0.00,Luts'K
50.733,102.833,25.7,0.04,Sanaga
50.733,140.433,32.5,0.02,Sizeman
50.8,12.867,42.0,0.06,Chemnitz
50.85,10.467,38.3,0.00,Grosser Inselsberg
50.85,34.667,61.7,0.00,Sumy
50.867,132.25,37.2,0.01,Cekunda
50.867,156.683,28.0,0.00,Mys Lopatka
50.883,12.133,44.0,0.02,Gera/Leumnitz
50.9,15.8,44.5,0.31,Jelenia Gora
50.912,5.77,47.5,0.00,Maastricht Aachen
50.917,117.933,35.2,0.00,Aleksandrovskij Zavod
50.95,115.583,36.2,0.00,Olovjannaja
50.983,11.317,46.8,0.00,Weimar
51.022,71.467,41.3,0.00,Astana Intl
51.1,114.517,34.2,0.00,Aginskoe
51.114,-114.02,39.7,0.12,Calgary Intl
51.117,13.683,42.5,0.10,Wahnsdorf
51.117,16.883,46.3,0.14,Wroclaw I
51.15,82.2,38.5,0.00,Zmeinogorsk
51.151,51.543,50.8,0.00,Uralsk
51.167,14.95,44.7,0.20,Goerlitz
51.217,27.633,56.0,0.00,Olevsk
51.283,26.617,58.0,0.00,Sarny
51.283,30.233,60.5,0.00,Chornobyl'
51.3,13.017,40.7,0.02,Colomberg
51.317,12.45,45.5,0.02,Leipzig-Holzhausen
51.317,28.783,58.5,0.00,Ovruch
51.317,119.617,40.5,0.00,Nerchinskij Zavod
51.35,1.367,46.4,0.00,Manston
51.35,112.467,36.0,0.00,Ulety
51.35,130.433,40.5,0.00,Verhnjaja Tom
51.383,-1.283,45.2,0.00,Greenham
51.4,6.967,49.1,0.00,Essen/Mulheim
51.4,10.317,46.8,0.00,Leinefelde (Aut)
51.417,21.117,57.5,0.00,Radom
51.449,4.342,46.5,0.00,Woensdrecht
51.45,3.6,47.0,0.00,Vlissingen
51.45,5.375,47.2,0.00,Eindhoven
51.467,31.25,58.8,0.00,Chernihiv
51.478,-0.461,46.5,0.02,London Heathrow
51.483,114.533,36.5,0.00,Sedlovaja
51.517,11.95,45.8,0.02,Halle-Kroellwitz
51.533,73.817,40.5,0.00,Bostal
51.55,43.15,55.0,0.00,Balashov
51.567,4.932,46.7,0.00,Gilze Rijen
51.633,128.817,40.5,0.00,Mazanovo
51.65,2.567,48.0,0.00,Noordhinder
51.65,13.583,43.2,0.04,Doberlug/Kirchhain
51.65,103.667,34.0,0.12,Sljudjanka
51.656,5.709,47.6,0.00,Volkel
51.682,-1.79,47.1,0.00,Fairford
51.733,19.4,52.0,0.20,Lodz
51.733,126.633,39.5,0.02,Huma
51.75,-1.584,46.9,0.01,Brize Norton
51.783,14.317,43.2,0.10,Cottbus
51.8,10.617,34.2,0.00,Brocken (Peak)
51.808,107.438,33.5,0.00,Mukhino
51.85,10.767,42.5,0.00,Wernigerode (Aut)
51.85,112.633,31.2,0.02,Turgutuj (Mtn Stn)
51.867,116.033,35.7,0.00,Shilka
51.883,-176.65,38.3,0.00,Adak Nas
51.883,12.65,42.8,0.02,Wittenberg
51.883,66.333,39.7,0.00,Esil'
51.933,-131.017,43.8,0.00,Cape Saint James  &
51.933,1.25,45.0,0.04,Upper Heyford Raf
51.933,3.667,48.5,0.00,Le Goeree
51.933,15.533,44.2,0.47,Zielona Gora
51.957,4.437,47.8,0.00,Rotterdam
51.967,0.5,45.8,0.00,Wethersfield(Raf)
51.983,4.1,47.6,0.00,Hoek Van Holland
52.017,23.117,59.2,0.00,Biala Podlaska
52.026,113.306,32.3,0.02,Kadala
52.033,4.35,48.3,0.00,Ypenburg(Nafb)
52.033,48.833,50.0,0.00,Pugacev
52.05,106.65,33.8,0.08,Kabansk
52.061,5.873,46.4,0.00,Deelen
52.083,1.4,46.5,0.00,Woodbridge Raf
52.1,5.183,47.8,0.00,De Bilt
52.108,23.898,59.5,0.00,Brest
52.117,11.583,44.5,0.00,Magdeburg
52.117,26.117,59.5,0.00,Pinsk
52.127,5.276,47.9,0.00,Soesterberg
52.166,20.967,58.7,0.00,Okecie / Warsaw Chopin
52.167,-106.7,33.7,0.16,Saskatoon John G Diefenbaker Intl
52.167,4.433,48.2,0.00,Valkenburg
52.167,109.783,37.8,0.00,Horinsk
52.195,77.074,43.0,0.00,Pavlodar
52.217,14.117,41.8,0.04,Lindenberg
52.217,141.633,33.0,0.02,Pogibi
52.233,117.7,41.2,0.00,Sretensk
52.267,133.983,33.0,0.00,Sofijskij Priisk
52.27,6.874,46.7,0.00,Twente
52.283,157.0,29.0,0.02,Ust-Bolsheretsk Se
52.3,0.533,45.2,0.00,Chelveston
52.3,115.033,30.7,0.02,Edakuy-In-Chita
52.309,4.764,47.9,0.00,Schiphol
52.317,0.917,47.1,0.00,Shepherd'S Grove
52.333,158.583,31.7,0.00,Petropavlovsk South
52.35,129.917,39.5,0.00,Norsk
52.367,-0.217,46.8,0.00,Alconbury Raf     &
52.367,0.217,46.5,0.00,Huntington
52.367,0.483,45.5,0.00,Mildenhall Raf    &
52.367,14.517,42.5,0.22,Frankfurt /Oder
52.38,13.523,42.0,0.02,Schonefeld / Brandenburg
52.383,-0.417,44.3,0.00,Raf Molesworth
52.383,13.05,42.3,0.00,Potsdam
52.4,0.567,47.6,0.00,Lakenheath Raf
52.421,16.826,48.7,0.04,Lawica
52.461,9.685,44.6,0.00,Hannover
52.467,4.567,47.6,0.00,Ijmuiden
52.473,13.404,42.9,0.00,Tempelhof
52.517,11.4,43.0,0.00,Gardelegen (Aut)
52.527,31.017,58.2,0.00,Gomel / Homiel
52.533,111.55,35.5,0.00,Sosnovo-Ozerskoe
52.533,117.0,40.7,0.00,Chernyshevsk
52.583,19.733,54.0,0.00,Plock
52.583,33.767,59.0,0.00,Trubchevsk
52.583,131.133,44.2,0.00,Selemdzinskoe
52.591,10.022,46.6,0.00,Celle
52.617,5.85,47.2,0.00,Ramspol
52.667,156.233,29.0,0.04,Oktiabr'Skaya
52.7,118.8,38.8,0.00,Ust'-Kara
52.75,120.033,36.3,0.00,Urjupino
52.767,108.133,31.2,0.00,Cheremukhovo
52.767,109.967,26.3,0.00,Zamakta
52.769,-108.244,37.0,0.08,North Battleford
52.783,126.0,40.5,0.00,Chernjaevo
52.8,131.717,41.0,0.00,Stojba
52.8,173.167,36.1,0.00,Attu Ns
52.817,104.767,33.0,0.02,Ust'Ordynskij
52.833,11.15,44.0,0.00,Salzwedel
52.833,157.167,24.8,0.00,Apaca
52.85,0.767,45.6,0.00,Sculthorpe (Af Met)
52.933,36.0,58.5,0.00,Orel
52.967,4.75,47.3,0.00,Den Helder
52.967,11.133,43.9,0.00,Luchow/Rehbeck
53.0,158.333,31.8,0.00,Jelizovo
53.033,11.8,43.2,0.00,Weisen B Wittenberge
53.033,14.0,40.7,0.08,Angermuende
53.05,18.583,42.8,0.00,Torun
53.067,82.3,39.5,0.02,Rebriha
53.067,117.483,35.8,0.00,Zilovo
53.083,4.75,48.0,0.00,Texel Island
53.1,20.35,51.5,0.00,Mlawa
53.1,23.167,57.7,0.00,Bialystok
53.1,160.033,31.5,0.00,Cape Shipunskiy
53.117,157.75,22.3,0.00,Nachiki-In-Kamchat
53.12,6.579,46.4,0.00,Eelde
53.133,133.967,35.5,0.00,Selemdza
53.168,158.454,32.7,0.00,Yelizovo
53.2,112.783,31.7,0.00,Romanovka
53.229,5.761,46.1,0.00,Leeuwarden
53.283,89.167,34.2,0.00,Neozidannij Priisk
53.3,92.417,38.3,0.00,Ermakovskoe
53.317,-60.417,27.1,0.00,Goose Bay Ua
53.35,13.083,41.5,0.02,Neustrelitz
53.35,130.017,39.7,0.00,Dugda
53.367,5.217,46.6,0.00,Terschelling(Lgt-H)
53.381,-0.685,46.9,0.00,Sturgate Airfield
53.383,-2.65,44.7,0.00,Penketh
53.4,10.683,43.7,0.00,Boizenburg (Aut)
53.4,14.617,42.5,0.02,Szczecin
53.417,11.783,42.3,0.02,Parchim
53.45,16.5,45.0,0.01,Nadarzyce
53.467,156.033,28.8,0.05,Kikhchik Kamchatka
53.533,115.617,30.5,0.00,Tungokocen
53.533,128.75,38.0,0.00,Dep-Dolbir
53.55,118.717,37.0,0.00,Ksen'Evskaja
53.573,-113.521,40.1,0.24,Edmonton City Centre
53.617,79.55,38.5,0.00,Habary
53.63,9.988,44.1,0.00,Hamburg
53.633,11.417,43.2,0.00,Schwerin
53.667,-113.467,39.6,0.00,Edmonton/Namao(Mil)
53.7,127.3,44.2,0.00,Zeja
53.717,17.55,41.0,0.10,Chojnice
53.75,14.067,42.0,0.05,Ueckermuende (Aut)
53.75,119.733,35.5,0.00,Mogocha
53.767,12.617,41.0,0.02,Teterow
53.767,20.417,47.0,0.00,Olsztyn
53.889,-122.679,41.4,0.00,Prince George
53.917,14.233,40.5,0.05,Swinoujscie
53.933,32.833,58.5,0.00,Roslavl'
53.967,-101.1,31.9,0.87,The Pas Airport
53.967,129.067,38.8,0.00,Ogoron
54.067,21.367,49.2,0.00,Ketrzyn
54.117,159.983,31.7,0.00,Semyachik
54.133,22.95,51.8,0.00,Suwalki
54.167,158.0,23.7,0.00,Pushchino
54.183,12.083,41.5,0.00,Warnemuende
54.183,15.583,39.0,0.02,Kolobrzeg
54.2,16.15,39.0,0.05,Koszalin
54.2,72.967,40.0,0.00,Odesskoe
54.2,111.95,25.7,0.00,Karaftit
54.25,-133.05,41.8,0.00,Langara
54.3,155.933,24.3,0.04,Sobolevo
54.367,81.883,38.8,0.02,Ordynskoe
54.378,18.466,38.0,0.00,Lecha Walesy
54.405,-110.279,39.7,0.00,Cold Lake / Group Captain R W Mcnair
54.417,-110.283,39.7,0.00,Cold Lake (Can-Mil)
54.45,116.517,32.2,0.00,Ust-Karenga
54.5,89.933,34.5,0.00,Sira
54.55,17.75,38.5,0.02,Lebork
54.55,36.367,58.0,0.00,Kaluga
54.567,11.95,41.0,0.00,Gedser
54.583,16.867,40.0,0.01,Ustka
54.6,18.817,39.5,0.00,Hel
54.617,39.717,62.2,0.00,Rjazan'
54.617,52.8,45.2,0.00,Bugul'Ma
54.617,113.133,28.8,0.00,Troickij Priisk
54.617,161.2,27.5,0.00,Kronoki
54.634,25.286,57.7,0.00,Vilnius Intl
54.683,13.433,39.0,0.02,Arkona (Cape)
54.717,158.717,26.7,0.02,Milkovo
54.717,160.35,21.2,0.00,Kronotsky
54.833,69.15,37.8,0.00,Petropavlovsk
54.89,20.593,43.7,0.00,Khrabrovo
54.9,71.25,38.3,0.02,Isil'Kul'
54.95,41.767,60.0,0.00,Elat'Ma
54.967,73.311,38.8,0.01,Omsk Tsentralny
55.0,15.083,39.0,0.00,Dueodde (Cape)
55.033,126.8,36.3,0.00,Unaha
55.039,-131.579,41.4,0.00,Annette Island Airport
55.117,116.767,33.0,0.00,Kalakan
55.133,91.033,32.5,0.00,Legoatayevo
55.167,34.4,58.0,0.00,Vjaz'Ma
55.221,-162.733,38.0,0.00,Cold Bay Arpt
55.233,84.4,35.5,0.08,Toguchin
55.383,101.033,31.5,0.02,Tanguj
55.467,113.617,25.7,0.02,Uakit
55.509,-4.587,49.3,0.00,Prestwick
55.583,155.583,25.5,0.04,Ica
55.618,12.656,45.0,0.00,Kastrup
55.633,95.467,33.8,0.00,Irbejskoe
55.75,88.317,35.0,0.08,Tisul'
55.967,124.883,22.2,0.00,Nagornyj
56.0,92.883,35.5,0.02,Krasnojarsk
56.1,69.433,37.0,0.02,Ishim
56.2,95.633,36.5,0.04,Kansk
56.217,43.817,54.8,0.00,Gor'Kij
56.217,89.55,32.0,0.00,Bogotol
56.267,34.317,58.0,0.00,Rzev
56.518,21.097,38.0,0.00,Liepaja Intl
56.65,-111.217,39.7,0.00,Fort Mcmurray Awos Arpt
56.683,66.35,37.5,0.00,Jalturovosk
56.817,70.617,35.5,0.00,Vikulovo
56.9,93.133,33.5,0.02,Bol'Shaja Murta
56.917,23.967,39.0,0.00,Riga
57.048,-135.365,39.6,0.00,Sitka Japonski Ap
57.083,156.7,25.0,0.00,Ust'- Hajrjuzovo
57.133,26.717,55.8,0.00,Gulbene
57.155,-170.222,33.2,0.00,St Paul Island Airport
57.417,67.083,36.3,0.00,Jarkovo
57.65,163.233,26.5,0.00,Ozernoy (Mys)
57.75,22.6,38.8,0.00,Kolka
57.751,-152.486,38.5,0.00,Kodiak Airport
58.204,8.085,47.6,0.00,Kjevik
58.35,76.383,32.7,0.02,Grabtsovy
58.357,-134.564,38.5,0.00,Juneau Municipal Arpt
58.411,-135.709,40.4,0.00,Gustavus
58.417,24.467,51.3,0.00,Pjarnu-Sauga
58.467,-78.079,26.0,0.00,Inukjuak Ua
58.483,-62.65,24.5,0.00,Saglek
58.5,159.167,25.5,0.02,Ust'-Voyampolka
58.617,125.367,23.5,0.00,Aldan
58.65,-162.067,32.7,0.00,Cape Newenham Afs
58.683,-156.656,38.2,0.00,King Salmon Airport
58.733,-94.05,26.6,0.20,Churchill A Ua  Man
58.833,-122.6,38.6,0.00,Fort Nelson Ua
58.877,5.638,49.1,0.02,Sola / Stavanger
58.917,22.067,37.0,0.00,Ristna
59.217,78.233,30.2,0.01,Sredny Vasjugan
59.233,39.867,44.8,0.00,Vologda
59.25,163.033,24.0,0.00,Ossora
59.35,160.383,26.0,0.01,Kinkil
59.367,28.6,49.3,0.00,Kingisepp
59.433,-146.333,39.2,0.00,Middleton Island Meteorology Radar Site
59.45,112.583,32.0,0.00,Vitim
59.512,-139.671,37.3,0.00,Yakutat State Ap
59.533,45.467,43.2,0.00,Nikol'Sk
59.617,65.717,33.8,0.00,Leusi
59.642,-151.491,40.9,0.00,Homer Municipal Arpt
59.65,33.55,50.2,0.00,Tihvin
59.749,-154.909,38.0,0.00,Iliamna Arpt
59.767,22.95,38.0,0.02,Hanko Russaro
59.8,30.263,48.5,0.00,Pulkovo
60.02,-111.962,30.1,0.00,Fort Smith Ua - Nt
60.117,10.833,49.3,0.00,Hakadal
60.122,19.898,40.0,0.02,Mariehamn
60.167,-132.733,17.2,0.00,Teslin (Aut)  Yt
60.194,11.1,44.3,0.00,Gardermoen / Oslo
60.317,24.963,44.7,0.00,Helsinki Vantaa
60.333,68.967,31.5,0.00,Altay
60.383,134.45,33.5,0.00,Ust'-Majya
60.489,-145.451,39.7,0.00,M.K.(Mudhole) Smith Arpt
60.514,22.263,43.5,0.00,Turku
60.533,116.233,31.5,0.00,Njuja
60.58,-151.239,39.4,0.00,Kenai Municipal Ap
60.683,-46.533,36.2,0.00,Simiutaq
60.71,-135.067,36.7,0.00,Whitehorse Intl / Erik Nielsen Intl
60.717,114.883,30.5,0.00,Lensk
60.733,163.017,23.0,0.00,Chemurnaut
60.785,-161.829,34.3,0.00,Bethel Airport
60.817,125.317,25.5,0.00,Isit'
60.9,131.983,20.3,0.00,Amga
61.017,36.45,39.7,0.00,Vytegra
61.1,-155.567,34.9,0.00,Sparrevohn Afs
61.161,-45.426,44.5,0.00,Narsarsuaq
61.169,-150.028,40.2,0.00,Anchorage Intl Ap
61.25,-149.8,41.3,0.00,Anchorage/Elmendorf
61.572,-149.54,39.2,0.00,Yakataga Ap
61.583,-159.533,37.6,0.00,Aniak Airport
61.6,90.017,32.2,0.00,Bor
61.667,40.183,41.0,0.00,Njandoma
61.717,30.717,45.5,0.00,Sortavala
61.76,-121.237,31.0,0.00,Fort Simpson
61.783,-166.033,34.1,0.00,Cape Romanzoff Afs
61.8,36.583,42.5,0.00,Pudoz
61.95,160.417,20.0,0.00,Chaybukha
61.977,-151.217,39.7,0.00,Skwentna
62.017,129.717,32.5,0.00,Jakutsk
62.159,-145.459,37.3,0.00,Gulkana Airport
62.32,-150.095,40.4,0.00,Talkeetna State Arpt
62.399,25.678,40.2,0.04,Jyvaskyla
62.417,179.133,24.3,0.09,Buhta Gavriila
62.433,166.083,18.8,0.00,Kamenskoe
62.45,66.05,32.0,0.00,Oktjabr'Skoe
62.517,-153.883,38.8,0.00,Farewell Faa Ap
62.663,29.608,42.8,0.00,Joensuu
62.883,-155.967,38.7,0.00,Tatalina Lrrs
62.957,-155.61,38.2,0.00,Mcgrath Arpt
62.962,-141.988,35.0,0.00,Northway Airport
63.007,27.798,39.7,0.04,Kuopio
63.051,21.762,43.0,0.00,Vaasa
63.2,167.85,22.0,0.00,Slautnoe
63.283,118.333,14.5,0.00,Njurba
63.317,-168.967,32.2,0.00,Northeast Cape
63.331,-149.127,33.1,0.00,Summit Airport
63.458,10.94,41.0,0.06,Vaernes / Trondheim
63.767,121.617,17.2,0.02,Viljujsk
63.883,-160.8,38.8,0.00,Unalakleet Field
63.886,-152.302,36.3,0.00,Minchumina
63.933,65.05,31.0,0.00,Berezovo
63.967,-22.6,45.0,0.20,Keflavik Naval Air Station
63.994,-145.721,41.6,0.00,Allen Army Airfield
64.285,27.692,39.5,0.00,Kajaani
64.299,-96.078,-2.2,0.00,Baker Lake
64.378,-173.243,28.0,0.00,Provideniya Bay
64.511,-165.44,35.7,0.00,Nome Municipal Arpt
64.55,-149.072,33.4,0.00,Nenana Municipal Ap
64.65,-147.067,39.9,0.00,Fairbanks/Eielson A
64.7,-162.05,33.8,0.00,Moses Point
64.733,-156.933,35.8,0.00,Galena A.
64.804,-147.876,42.3,0.00,Fairbanks International
64.833,-147.617,42.7,0.00,Wainwright Aaf
64.85,-147.583,42.3,0.00,Ladd Aab
65.175,-152.107,32.3,0.00,Tanana Ralph M Calhoun Mem Ap
65.283,-126.8,22.2,0.00,Norman Wells Arpt
65.567,-167.917,20.1,0.00,Tin City Afs
65.782,24.599,37.2,0.00,Kemi Tornio
66.0,-153.7,30.4,0.00,Indian Mountain Afs
66.54,-151.31,26.5,0.00,Bettles Field
66.567,-145.267,29.4,0.00,Fort Yukon
66.65,-61.383,6.5,0.00,Cape Dyer
66.767,123.4,11.5,0.00,Zhigansk
66.833,-174.5,6.0,0.00,Koljucinskaja Bay
66.867,-162.633,24.1,0.00,Kotzebue Ralph Wein Memorial
66.9,65.667,19.5,0.00,Ra-Iz
67.017,-50.689,25.8,0.04,Sondre Stromfjord / Kangerlussuaq
67.269,14.365,39.5,0.12,Bodo
67.395,26.619,34.7,0.02,Sodankyla
67.567,133.4,20.8,0.04,Verhojansk
68.367,38.65,36.0,0.02,Cape Cherniy
68.5,73.583,19.5,0.00,Cape Kamennyj
68.75,161.283,1.5,0.00,Cherskij
68.883,-166.133,17.6,0.00,Cape Lisburne Afs
68.9,-179.633,0.5,0.02,Mys Shmidta
69.056,18.54,37.1,0.10,Bardufoss
69.108,-105.138,-11.1,0.00,Cambridge Bay Ua
69.283,18.133,38.0,0.14,Kistefjell
69.4,86.167,-4.5,0.00,Dudinka
69.5,166.583,-3.5,0.00,Rauchua
69.75,61.7,23.5,0.00,Amaderma
69.817,60.75,24.8,0.00,Yugorskiy Shar
69.883,175.767,1.3,0.00,Mys Billingsa
70.083,170.933,0.0,0.02,Val' Karkay
70.134,-143.577,13.7,0.00,Barter Island Airport
70.167,-124.7,5.1,0.00,Cape Parry
70.367,31.1,36.5,0.02,Vardo
70.45,-68.55,1.9,0.00,Cylde Airport     &
70.617,147.883,3.5,0.00,Chokurdah
70.633,162.483,2.0,0.04,Ostrov Chetyrehstolbovoy
70.85,89.883,-11.7,0.00,Kresti
70.933,-8.667,35.7,0.10,Jan Mayen(Nor-Navy)
70.983,-178.65,4.0,0.00,Ostrov Vrangelya
71.283,-156.782,7.4,0.00,W Post-Will Rogers Memorial Airport
71.533,129.917,-1.8,0.00,Mostakh Island
71.698,128.903,-3.5,0.05,Tiksi
71.95,-124.733,3.0,0.00,Sachs Harbour
71.983,102.467,-11.2,0.00,Hatanga
73.0,119.867,-6.7,0.02,Ust' Olenek
73.233,-119.533,-0.7,0.00,Thomsen River
73.267,56.4,31.5,0.00,Mamockin Sar
73.5,80.4,1.5,0.00,Ostrov Dikson
73.9,124.6,3.7,0.02,Dunway Island
74.3,-20.217,25.4,0.00,Daneborg (Aut)
74.517,19.017,34.0,0.04,Bjornoya Island
74.717,-94.969,-12.9,0.00,Resolute Bay
74.883,142.2,-0.3,0.05,Zemlya Bunge
75.417,88.9,-8.0,0.02,Mys Sterlegova
75.75,137.583,0.0,0.04,Tempa Bay
76.0,-56.083,-0.6,0.00,Thule Site B
76.233,-119.333,-6.7,0.00,Mould Bay Airport
76.5,25.067,30.5,0.02,Hopen Island
76.517,-68.833,8.2,0.00,Thule Op Site
76.531,-68.703,8.6,0.00,Pituffik Space Base
76.95,68.55,21.0,0.00,Mys Zhelaniya
77.117,156.583,9.5,0.02,Mys Melville
77.717,104.3,-0.8,0.00,Gmo Im.E.K. Fedorova
78.067,13.633,31.0,0.06,Isfjord Radio
78.783,-103.533,-17.0,0.00,Isachsen (Maps)
79.483,76.983,6.3,0.00,Ostrov Vize
79.55,90.567,0.5,0.00,Mgms Im. G.F. Ushakova
79.983,-85.933,-17.8,0.00,Eureka
80.317,52.8,20.8,0.00,Bukhta Yuriya
80.367,52.917,12.7,0.02,Tikhaya Bay
80.65,25.0,39.0,0.01,Karl Xii Oya
82.5,-62.333,-12.5,0.00,Alert
