lat,lon,temp,precip,name
-90.0,0.0,-92.3,0.00,Amundsen-Scott
-80.017,-119.533,-27.1,0.00,Byrd Station
-77.883,166.733,1.6,0.00,Mcmurdo Sound Naf
-77.733,-41.117,-25.3,0.00,Ellsworth Igy
-72.3,170.217,-6.7,0.00,Adare Hallett
-66.267,110.567,15.0,0.00,Wilkes
-52.55,169.15,51.0,0.00,Campbell Island
-46.412,168.313,44.6,0.00,Invercargill
-46.167,166.633,57.0,0.00,Puysegur Pt (Lgt-H)
-45.767,170.733,50.8,0.00,Taiaroa Head
-43.489,172.532,50.8,0.02,Christchurch Intl
-42.883,147.333,54.1,0.00,Hobart (Ellerslie Road)
-42.836,147.51,51.6,0.00,Hobart
-42.717,170.983,50.3,0.00,Hokitika Aerodrome
-41.75,171.6,54.2,0.00,Westport Harbour
-41.545,147.214,50.7,0.00,Launceston
-41.327,174.805,57.8,0.00,Wellington Intl
-41.283,174.767,54.3,0.00,Wellington
-39.017,174.183,55.5,0.00,New Plymouth Aerodr
-38.725,-62.169,47.8,0.00,Comandante Espora
-38.099,147.149,54.6,0.00,East Sale
-37.867,144.75,57.8,0.00,Laverton Raaf
-37.817,144.967,58.6,0.00,Melbourne Regional Office
-37.733,140.783,53.5,0.00,Mount Gambier Aero
-37.733,144.9,57.9,0.00,Essendon Airport
-37.728,144.902,57.9,0.00,Melbourne Essendon
-36.788,174.63,58.0,0.00,Whenuapai
-36.317,141.633,57.1,0.00,Nhill Aerodrome
-35.307,149.195,53.9,0.00,Canberra
-35.165,147.466,60.4,0.00,Wagga Wagga
-35.067,173.283,59.3,0.00,Kaitaia Aerodrome
-35.02,117.88,54.0,0.00,Albanytown
-34.95,138.533,56.5,0.00,Adelaide
-34.949,150.537,56.4,0.00,Nowra
-34.93,138.58,55.9,0.00,Adelaide (West Terrace)
-33.95,151.2,59.0,0.00,Sydney Intl Airport
-33.946,151.177,59.0,0.00,Sydney Intl
-33.85,151.2,61.4,0.00,Sydney (Observatory Hill)
-32.795,151.834,59.1,0.00,Williamtown
-32.133,133.7,54.4,0.00,Ceduna Amo
-32.0,141.47,65.8,0.00,Brokenhillaero
-31.97,141.45,63.7,0.00,Brokenhillp.O. (Rly Station
-31.94,115.967,51.3,0.00,Perth Intl
-31.933,115.967,51.4,0.00,Perth Intl/Belmont
-31.917,115.867,52.5,0.00,Perth Metro
-31.144,136.817,59.4,0.00,Woomera
-31.08,150.85,61.3,0.00,Tamworthamo/Mo.From1966
-30.833,128.1,48.0,0.00,Forrest Airport
-30.789,121.462,48.1,0.00,Kalgoorlie Boulder
-30.47,138.42,65.0,0.00,Leigh Creek Aero
-30.321,153.116,62.9,0.00,Coffs Harbour
-30.15,131.58,51.0,0.00,Maralinga
-29.25,-177.933,63.8,0.00,Raoul Island Kermadec Islands
-28.796,114.708,57.0,0.00,Geraldton
-28.705,121.891,63.0,0.00,Murrin Murrin
-27.55,135.45,62.2,0.00,Oodnadatta Airport
-27.483,153.033,65.7,0.00,Brisbane
-27.45,-59.056,71.4,0.00,Resistencia
-27.417,153.067,64.9,0.00,Brisbane Airport
-27.386,-55.971,69.0,0.00,Posadas
-27.383,153.117,65.0,0.00,Brisbane Intl Arpt
-26.833,-65.2,65.6,0.00,Tucuman/Teniente Be
-26.757,-60.493,67.8,0.00,Presidencia Roque Saenz Pena / Termal
-26.614,118.537,56.6,0.00,Meekatharra Airport
-26.413,146.263,67.8,0.00,Charleville
-25.033,128.3,60.5,0.00,Giles Meteorological Office
-24.9,152.317,69.7,0.00,Bundaberg Aero
-24.9,152.32,69.3,0.00,Bundabergaero
-24.888,113.67,65.3,0.00,Carnarvon Airport
-24.856,-65.486,58.8,0.00,Salta
-24.721,-60.549,65.6,0.00,Alferez Armando Rodriguez
-23.85,151.267,71.1,0.00,Gladstone Radar
-23.382,150.475,66.6,0.00,Rockhampton
-23.007,-47.135,67.0,0.00,Viracopos
-22.875,-43.385,73.4,0.00,Campo Delio Jardim De Mattos
-21.67,115.12,78.9,0.00,Onslowamo
-21.117,149.217,69.1,0.00,Mackay Mo
-20.667,140.5,83.5,0.00,Cloncurry Airport
-20.469,-54.673,74.1,0.00,Campo Grande
-20.378,118.626,81.1,0.00,Port Hedland Intl
-19.851,-43.951,66.3,0.00,Pampulha Carlos Drummond De Andrade
-19.28,121.5,84.7,0.00,Talgarnoamo/Mo1959-1961
-19.25,146.767,72.7,0.00,Townsville(Civ/Mil)
-18.233,127.667,78.5,0.00,Halls Creek Airport
-17.945,122.232,81.8,0.00,Broome Intl
-17.812,-63.171,75.2,0.00,El Trompillo
-17.755,177.443,76.7,0.00,Nadi Intl
-17.583,-69.45,45.8,0.00,Charana
-16.883,145.767,75.7,0.00,Cairns Airport
-16.513,-68.192,46.7,0.00,El Alto Intl
-16.27,133.38,82.8,0.00,Dalywatersamo
-15.2,12.15,72.5,0.00,Mocamedes
-14.925,13.575,67.4,0.00,Lubango
-14.65,17.683,74.3,0.00,Menongue (Serpa Pinto)
-12.809,15.761,67.8,0.00,Huambo
-12.415,130.877,81.8,0.00,Darwin Intl
-11.9,-76.967,67.8,0.00,Linatakbc
-11.768,19.898,70.3,0.00,Luena
-10.951,142.459,63.9,0.00,Bamaga Injinoo
-10.7,13.75,80.4,0.00,Porto Amboim
-10.683,35.583,72.8,0.00,Songea
-10.567,142.217,80.2,0.00,Thursday Island
-10.339,40.182,81.6,0.00,Mtwara
-9.525,16.312,74.5,0.01,Malanje
-8.933,33.467,65.8,0.00,Mbeya
-8.858,13.231,79.9,0.00,Luanda 4 De Fevereiro
-8.217,114.383,81.2,0.00,Banyuwangi
-7.97,-14.394,80.3,0.00,Ascension Aux Af
-7.733,109.017,83.2,0.00,Cilacap
-7.669,35.752,71.4,0.00,Iringa
-7.616,111.434,84.6,0.00,Iswahyudi
-7.583,15.0,73.0,0.01,Carmona
-7.217,112.717,83.5,0.00,Surabaya/Perak
-6.901,107.576,78.6,0.00,Husein Sastranegara
-6.878,39.203,79.6,0.00,Mwalimu Julius K Nyerere Intl
-6.833,37.65,77.0,0.00,Morogoro (Met)
-6.222,39.225,80.4,0.00,Zanzibar / Abeid Amani Karume Intl
-6.17,35.753,72.8,0.00,Dodoma
-6.15,106.85,80.6,2.17,Jakarta/Kemayoran
-5.683,132.75,85.4,0.31,Tual/Dumatubun
-5.597,12.188,78.8,0.20,Cabinda
-5.083,32.833,73.4,0.00,Tabora Airport
-4.883,29.633,78.8,0.00,Kigoma
-4.883,38.283,78.0,0.00,Mombo
-4.674,55.522,84.1,0.00,Seychelles Intl
-4.45,105.183,85.0,0.79,Menggala/Astra Kset
-4.083,37.717,73.0,0.00,Same
-4.082,122.417,84.7,0.00,Wolter Monginsidi
-4.035,39.594,80.6,0.00,Mombasa Moi Intl
-3.71,128.089,85.0,0.00,Pattimura
-3.4,38.567,77.6,0.00,Voi
-3.35,37.333,73.0,0.00,Moshi
-2.444,32.933,75.2,0.00,Mwanza
-2.283,37.833,75.4,0.00,Makindu
-2.252,40.913,82.8,0.00,Lamu Manda
-2.17,106.13,81.6,0.08,Pangkalpinang / Depati Amir
-2.083,126.0,84.4,0.00,Sanana / Namniwel
-1.5,33.8,75.2,0.00,Musoma
-1.379,-48.476,78.3,0.00,Val De Cans Julio Cezar Ribeiro Intl
-1.333,31.817,74.0,0.00,Bukoba
-1.319,36.928,65.9,0.00,Jkia / Nairobi Jomo Kenyatta Intl
-1.3,36.75,64.3,0.00,Nairobi/Dagoretti
-1.25,29.983,64.8,0.00,Kabale
-1.133,35.833,67.3,0.00,Narok
-0.683,119.733,83.8,0.00,Palu/Mutiara
-0.617,30.65,71.6,0.00,Mbarara
-0.479,104.579,82.8,0.00,Dabo
-0.267,36.1,66.2,0.00,Nakuru
-0.086,34.729,71.9,0.00,Kisumu
-0.017,35.55,57.2,0.00,Equator Sw
0.017,37.067,64.0,0.00,Nanyuki
0.042,32.444,73.4,0.00,Entebbe Intl
0.45,33.183,75.2,0.00,Jinja
0.461,101.445,83.5,0.28,Sultan Syarif Kasim Ii
0.483,35.3,67.8,0.00,Eldoret
0.637,122.85,84.6,0.00,Jalaluddin / Djalaluddin
0.683,34.167,72.8,0.00,Tororo
0.972,34.959,68.8,0.00,Kitale
1.133,127.5,83.8,0.00,Sahu Southeast
1.36,103.91,82.7,0.00,Paya Lebar
1.485,110.347,79.5,0.00,Kuching Intl
1.556,98.889,79.7,2.80,Pinang Sore / Dr Ferdinand Lumbantobing
2.05,129.317,83.0,0.00,Morotai/Pitu
2.067,-50.85,80.6,0.00,Amapa
2.806,32.272,78.8,0.00,Gulu
3.122,35.609,89.0,0.00,Lodwar
3.124,113.02,82.3,0.67,Bintulu
3.2,106.25,88.0,0.00,Tarempa
3.933,41.867,84.2,0.00,Mandera
4.322,113.987,83.3,0.02,Miri
4.872,31.601,84.2,0.00,Juba
5.301,115.25,84.4,0.02,Labuan
5.874,95.34,84.0,0.31,Maimun Saleh
5.901,118.059,81.7,0.00,Sandakan
5.937,116.051,82.0,0.00,Kota Kinabalu Intl
6.922,122.06,82.7,0.00,Zamboanga Intl
6.967,158.217,81.9,0.00,Weather Service Building
7.065,171.272,79.5,0.00,Weather Service Office Building
7.067,125.6,82.3,0.01,Davao
7.167,124.217,83.0,0.00,Cotobato
7.187,100.608,85.8,0.00,Songkhla
7.333,134.483,79.8,0.00,Koror Wso
7.45,151.833,82.5,0.00,Chuuk Wso Ap
7.533,99.05,84.8,0.55,Ko Lanta
8.15,125.133,76.0,0.47,Malaybalay
8.367,126.333,81.1,0.00,Hinatuan
8.483,124.65,80.4,0.16,Cagayan De Oro
8.601,123.334,80.4,0.00,Dipolog
8.683,106.6,85.5,0.00,Con Son
8.733,167.733,78.6,0.00,Kwajalein Missle Ran
8.917,-79.6,84.0,0.00,Fort Kobbe
8.967,-79.55,78.6,0.00,Albrook Afb/Balboa
9.183,105.15,84.1,0.00,Ca Mau
9.483,138.083,82.9,0.00,Yap Island Wso Ap
9.559,31.652,88.3,0.00,Malakal
9.6,105.967,84.1,0.00,Ba-Xuyen/Soc Trang
9.742,118.759,83.2,0.00,Puerto Princesa
9.783,125.483,81.3,0.02,Surigao
9.967,98.583,87.3,0.00,Victoria Point
9.994,-84.209,76.4,0.00,Juan Santamaria Intl
10.0,105.083,86.3,0.00,Rach Gia
10.043,-69.359,75.2,0.00,Barquisimeto Intl
10.217,103.967,86.8,0.00,Phu Quoc
10.25,-67.649,76.5,0.01,Mariscal Sucre
10.333,123.9,83.6,0.02,Lahug
10.558,-71.728,79.7,0.28,La Chinita Intl
10.711,99.362,86.4,0.35,Chumphon
10.713,122.541,80.4,0.00,Iloilo
10.819,106.652,86.1,0.00,Tan Son Nhat Intl
10.85,121.0,82.4,0.00,Cuyo
10.933,108.1,81.8,0.00,Phan Thiet
11.228,125.028,82.0,0.00,Daniel Z Romualdez
11.35,162.35,84.7,0.00,Enewetak  Marshall Is
11.415,-69.681,85.2,0.01,Jose Leonardo Chirinos
11.667,125.45,80.0,0.00,Borongan
11.75,108.383,70.2,0.20,Became Stn 488811
11.767,102.883,86.5,0.00,Khlong Yai
11.788,99.805,92.8,0.00,Prachuap
11.809,-66.179,85.0,0.00,La Orchila
11.991,-83.774,83.2,0.00,Bluefields
12.141,-86.168,79.1,0.00,Managua Intl / Augusto Cesar Sandino Intl
12.217,120.2,81.2,0.00,Coron
12.25,109.2,84.5,0.00,Nha Trang
12.369,123.629,82.4,0.00,Masbate
12.433,98.6,86.4,0.00,Mergui
12.583,122.283,84.1,0.00,Romblon
12.6,102.117,89.2,0.00,Chanthaburi
12.683,100.983,87.8,0.00,Sattahip
12.683,108.083,79.4,0.00,Banmethuot
12.833,45.033,84.6,0.00,Aden Khormaksar
13.083,109.283,85.9,0.00,Tuy-Hoa
13.153,30.233,91.5,0.00,El Obeid
13.157,123.746,84.5,0.00,Legazpi
13.167,32.667,92.2,0.31,Kosti/Rabak
13.367,100.983,93.5,0.00,Chon Buri/Sattahip / Suvarnabhumi Intl
13.417,121.183,82.0,0.00,Calapan/Mindoro Isl
13.483,22.45,89.5,0.00,Geneina
13.483,144.8,81.7,0.00,Guam Wfo
13.567,144.917,79.1,0.00,Andersen Afb
13.576,124.206,84.4,0.00,Virac
13.615,25.325,88.7,0.00,El Fashir
13.699,-89.12,74.7,0.00,Ilopango Intl
13.7,102.504,94.3,0.00,Aranyaprathet
13.733,100.567,90.4,0.00,Bangkok Metropolis
13.767,109.217,82.7,0.00,Quy Nhon
13.913,100.607,91.4,0.00,Bangkok Intl / Don Mueang Intl
14.005,108.017,78.7,0.00,Pleiku
14.017,99.533,97.3,0.00,Kanchana Buri
14.047,-83.387,83.2,0.00,Puerto Cabezas
14.1,98.217,86.0,0.00,Dawei
14.117,93.367,87.5,0.00,Coco Island
14.5,120.9,82.4,0.00,Sangley Point
14.509,121.02,82.6,0.00,Ninoy Aquino Intl
14.8,100.617,98.6,0.00,Lop Buri
14.8,120.267,79.0,0.00,Cubi Point Nf
14.883,103.5,93.7,0.00,Surin
14.935,102.079,93.1,0.00,Khorat
15.116,145.7,86.1,0.00,Saipan Mariana Is/Kobler
15.117,105.767,85.8,0.00,Pakse
15.117,145.7,85.8,0.00,Saipan Marshall Isla
15.133,108.783,84.6,0.00,Quang Ngai
15.186,120.56,78.4,0.00,Clark Intl / Diosdado Macapagal Intl
15.251,104.87,94.0,0.00,Ubon Ratchathani
15.387,36.329,94.0,0.00,Kassala
15.589,32.553,93.2,0.00,Khartoum
16.044,108.199,83.6,0.00,Danang Intl
16.083,120.35,81.8,0.00,Dagupan
16.267,122.133,79.2,0.00,Casiguran
16.402,107.703,85.0,0.00,Phubai
16.467,102.784,94.5,0.00,Khon Kaen
16.533,104.717,88.6,0.75,Mukdahan
16.55,111.617,83.1,0.00,Hoang Sa (Pattle)
16.667,105.0,83.5,0.00,Seno
16.733,-169.517,78.9,0.00,Johnston Is Wso Ap
16.733,107.183,86.5,0.00,Quang Tri
16.767,94.767,89.0,0.00,Pathein
16.783,100.279,97.2,0.00,Phitsanulok
16.9,96.183,90.8,0.00,Mingaladon
16.907,96.133,89.5,0.00,Yangon Intl
17.033,54.083,83.0,0.00,Salalah
17.039,54.091,83.0,0.00,Salalah
17.439,101.722,89.7,0.00,Loei
17.617,100.1,98.2,0.00,Uttaradit
17.7,-64.813,78.6,0.00,Christiansted Hamilton Field
17.7,33.967,92.3,0.00,Atbara
17.988,102.563,85.3,0.00,Wattay Intl
18.178,120.532,82.9,0.00,Laoag Intl
18.217,109.583,83.6,0.00,Sanya
18.255,-65.641,77.9,0.00,Roosevelt Roads
18.271,99.504,88.2,0.00,Lampang
18.336,-64.98,77.6,0.00,Charlotte Amalie Harry S Trum
18.367,121.633,83.8,0.00,Aparri
18.433,-66.011,78.2,0.00,San Juan L M Marin Intl Ap
18.467,-66.117,79.1,0.00,San Juan Ns
18.467,94.35,83.0,0.00,Sandoway
18.5,-67.133,78.6,0.00,Aquadilla/Borinquen
18.55,31.85,90.3,0.00,Karima
18.767,98.963,89.3,0.00,Chiang Mai Intl
18.808,100.783,92.8,0.00,Nan
19.1,108.617,85.8,0.00,Dongfang
19.233,110.467,83.6,0.05,Qionghai
19.267,121.467,81.4,0.02,Calayan
19.283,166.65,79.8,0.00,Wake Island
19.467,103.133,78.8,0.00,Plaine Des Jarres (Xiengkhouang)
19.533,33.317,88.8,0.00,Abu Hamed
19.583,37.217,82.0,0.00,Port Sudan
19.719,-155.053,72.5,0.00,Hilo International Ap
19.9,-75.15,80.9,0.00,Guantanamo Bay Naval Air Station
20.0,110.25,84.6,0.16,Haikou
20.133,92.873,86.6,0.00,Sittwe
20.417,104.067,80.4,0.00,Sam-Neua
20.451,121.98,81.8,0.24,Basco
20.9,-156.429,74.4,0.00,Kahului Airport
21.092,79.047,91.3,0.00,Dr Baba Saheb Ambedkar Intl
21.217,110.4,78.7,0.00,Zhanjiang
21.3,99.617,84.4,0.00,Kengtung
21.317,-158.067,74.3,0.00,Barbers Point
21.324,-157.929,75.5,0.00,Honolulu International Airport
21.433,-71.133,81.0,0.00,Grand Turk Island
21.45,-157.783,75.5,0.00,Kaneohe Bay Mcas
21.483,109.1,80.7,0.00,Beihai
21.5,39.2,83.9,0.00,Jeddah Intl
21.867,111.967,77.7,0.00,Yangjiang
21.95,108.617,80.1,0.02,Qinzhou
21.984,-159.341,74.1,0.00,Lihue Airport
22.15,113.592,76.3,0.00,Macau Intl
22.267,112.783,78.5,0.00,Tai-Shan
22.3,114.167,77.6,0.00,Hong Kong Observatory
22.35,110.933,79.0,0.00,Xinyi
22.367,106.75,83.6,0.00,Longzhou
22.5,103.95,83.0,0.00,He-Kou
22.608,108.172,79.7,0.00,Wuxu
22.767,100.983,69.6,0.02,Simao
22.783,115.367,77.7,0.00,Shanwei
22.8,5.433,68.3,0.00,Tamanrasset
22.95,120.206,82.3,0.00,Tainan
23.392,113.299,77.5,0.51,Baiyun Intl
23.4,110.083,75.3,0.05,Guiping
23.4,116.683,74.9,0.00,Shantou / Chaoshan
23.45,103.333,76.6,0.00,Mengzi
23.462,120.393,81.3,0.00,Chiayi
23.483,111.3,77.9,0.02,Wuzhou
23.6,101.983,87.8,0.00,Yuanjiang
23.7,-15.867,63.8,0.00,Villa Cisneros(Mil)
23.767,90.383,85.8,0.00,Dacca/Tezgaon
23.8,114.733,77.7,0.00,Heyuan
23.8,117.55,72.0,0.00,Guleitou
23.9,106.6,86.4,0.00,Baise
23.95,100.217,69.6,0.04,Lincang
23.964,32.82,93.2,0.00,Aswan Intl
24.067,105.067,78.0,0.00,Guangnan
24.179,23.314,78.9,0.00,Kufra
24.2,110.517,76.2,0.04,Mengshan
24.265,120.621,78.3,0.00,Taichung Intl / Ching Chuang Kang Ab
24.267,97.2,82.2,0.00,Bhamo
24.283,116.067,77.9,0.00,Mei Xian
24.35,109.4,80.0,0.02,Liuzhou
24.544,118.128,75.0,0.02,Gaoqi
24.553,39.705,90.0,0.00,Prince Mohammad Bin Abdulaziz
24.555,-81.752,79.4,0.00,Key West Intl Arpt
24.583,-81.683,76.9,0.00,Key West Nas
24.667,113.6,75.6,0.64,Shaoguan
24.7,108.05,80.4,0.00,Hechi
24.722,46.725,85.5,0.00,King Salman Ab
24.784,141.323,71.1,0.00,Iwoto
24.8,112.367,76.2,0.67,Lianzhou
24.867,121.233,76.5,0.00,Lung Tan(Tafb)
24.95,115.65,74.3,0.71,Xunwu
24.992,102.744,67.1,0.00,Wujiaba / Changshui
25.056,121.243,77.3,0.00,Taoyuan
25.067,109.25,78.3,0.04,Rong-Shui
25.069,121.552,77.8,0.00,Songshan
25.1,117.017,75.4,0.05,Longyan
25.117,99.183,61.6,0.01,Baoshan
25.183,111.583,72.7,0.08,Tuo-Jiang (?)
25.218,110.039,69.0,0.00,Liangjiang
25.267,-76.3,75.2,0.00,Eleuthera Island
25.3,107.4,75.7,0.00,Liu-Chai
25.329,55.517,73.7,0.00,Sharjah Intl
25.35,55.383,73.7,0.00,Ash Shariqah Sw
25.367,97.4,80.2,0.00,Myitkyina
25.4,114.933,75.2,1.30,Xin-Feng
25.433,105.183,75.1,0.00,Xingren
25.433,106.767,84.0,0.00,Luodian
25.45,30.533,91.3,0.00,Kharga
25.483,-80.383,73.5,0.00,Homestead Afb Airport
25.5,28.967,89.2,0.00,Dakhla
25.517,119.783,71.2,0.00,Pingtan
25.583,103.833,70.0,0.00,Zhanyi
25.671,32.707,92.3,0.00,Luxor Intl
25.7,100.183,63.5,0.00,Dali
25.717,118.1,62.0,0.04,Jiuxian Shan
25.733,101.867,81.1,0.00,Yuanmou
25.733,112.967,73.1,0.67,Chenzhou
25.75,88.917,90.5,0.00,Saidpur
25.791,-80.316,72.1,0.00,Miami Intl Ap
25.85,114.95,76.0,1.28,Ganzhou
25.914,-97.423,76.6,0.00,Brownsville/S Padre Island Intl Ap
25.967,108.533,81.0,0.02,Rongjiang
25.967,117.35,71.9,0.06,Yong'An
26.083,119.283,73.7,0.28,Fuzhou
26.133,34.25,78.3,0.00,Kosseir
26.166,-97.346,77.8,0.00,Port Isabel Cameron County Ap
26.196,127.646,76.4,0.00,Naha
26.228,-97.654,78.2,0.00,Valley International Arpt
26.233,111.617,73.2,0.00,Lingling
26.265,50.152,84.7,0.00,King Abdulaziz Ab
26.267,50.617,82.1,0.00,Bahrain/Muharraq
26.35,127.767,75.6,0.00,Kadena Ab
26.356,127.768,75.6,0.00,Kadena Ab
26.539,106.801,67.8,0.12,Longdongbao
26.617,-78.367,73.2,0.00,Gold Rock Creek
26.633,118.15,72.7,0.07,Nanping
26.65,102.25,67.5,0.00,Huili
26.685,-80.099,71.8,0.00,West Palm Beach Intl Arpt
26.833,100.217,61.4,0.00,Lijing
26.933,112.583,74.3,0.87,Hengyang
27.047,31.012,84.0,0.00,Asyut Intl
27.05,27.983,81.0,0.00,Farafra
27.117,114.967,74.7,1.81,Ji'An
27.183,111.45,71.7,0.05,Shaoyang
27.3,105.233,65.4,1.85,Bijie
27.3,112.7,64.3,0.04,Nanyue
27.333,103.75,64.8,0.00,Zhaotong
27.333,120.2,74.6,0.05,Fuding
27.45,109.683,72.1,0.12,Zhijiang
27.5,-97.817,76.6,0.00,Kingsville
27.544,-99.461,80.3,0.00,Laredo Air Force Base
27.583,116.65,75.5,1.18,Nancheng
27.683,-97.283,74.5,0.00,Corpus Christi Nas
27.7,106.883,70.7,0.08,Zunyi
27.733,89.083,34.7,0.00,Pagri
27.774,-97.512,75.3,0.00,Corpus Christi International Airport
27.8,114.383,72.6,1.27,Yichun
27.85,-82.517,75.0,0.08,Mac Dill Afb Airport
27.9,102.267,72.1,0.00,Xichang
27.917,118.533,72.0,0.02,Pucheng
27.932,-15.387,64.0,0.00,Gran Canaria
27.95,117.833,62.7,0.24,Qixian Shan
27.962,-82.54,75.1,0.00,Tampa Intl Arpt
28.017,120.667,73.0,0.08,Wenzhou
28.133,121.217,68.5,0.00,Yu-Huan
28.2,-177.383,70.9,0.00,Henderson Field Airport
28.2,113.083,75.9,0.00,Changsha/Datuopu
28.209,33.646,77.8,0.00,El Tor
28.233,-80.6,74.8,0.00,Patrick Afb Airport
28.267,109.683,71.2,0.20,Qian-Zhou-Zhen
28.333,28.867,79.7,0.00,Baharia
28.367,-97.667,75.6,0.00,Beeville Chase Naas
28.394,129.553,73.0,0.16,Naze/Funchatoge
28.434,-81.325,72.1,0.00,Orlando International Airport
28.45,98.883,40.9,0.01,Deqen
28.45,119.917,78.2,0.00,Lishui
28.467,110.4,71.3,0.94,Yuanling
28.483,-80.567,74.5,0.12,Cocoa Beach Cape Kennedy Afs
28.517,103.617,68.4,0.00,Hu-Jia-Pu-Ziia
28.545,-81.333,72.8,0.00,Orlando Municipal Arpt
28.617,121.417,69.0,0.00,Hongjia
28.78,-81.244,72.7,0.00,Sanford Airport
28.783,-97.083,76.6,0.00,Victoria
28.8,104.6,76.5,0.51,Yibin
28.833,108.767,69.3,0.02,Youyang
28.865,115.9,74.6,0.63,Changbei Intl
28.883,105.433,75.0,0.16,Luzhou
28.95,107.15,56.3,0.08,Jinfo Shan (Mount)
28.967,-89.383,71.5,0.00,Burrwood Wb
28.967,118.867,75.1,0.00,Qu Xian
29.0,101.5,54.4,0.00,Jiulong
29.033,21.567,68.6,0.00,Jalo
29.033,114.583,72.7,0.08,Xiushui
29.05,111.683,71.3,0.97,Changde
29.117,15.95,62.2,0.00,Hon
29.167,-82.217,72.4,0.00,Ocala Intl J Taylor
29.183,-81.048,72.4,0.00,Daytona Beach Regional Arpt
29.2,25.483,73.5,0.00,Siwa
29.267,-100.283,68.4,0.00,Del Rio(Nexrad)
29.273,-94.859,72.2,0.00,Galveston Scholes Field
29.3,117.2,76.1,0.35,Jingdezhen
29.317,47.667,83.3,0.00,Jahra
29.35,-98.45,74.1,0.00,Brooks Afb
29.367,-100.783,76.1,0.00,Laughlin Afb Airport
29.383,-98.583,73.1,0.00,Lackland Air Force Base (Kelly Field Annex)
29.383,113.083,72.9,0.61,Yueyang
29.517,103.333,44.5,0.51,Emei Shan
29.517,106.483,72.4,0.16,Chong-Qing
29.533,-98.262,72.0,0.00,Randolph Afb Airport
29.544,-98.484,71.8,0.00,San Antonio International Airport
29.561,34.96,81.0,0.00,Eilat
29.583,105.05,74.8,0.16,Neijiang
29.583,111.3,71.2,0.19,Shi-Men
29.583,115.983,66.0,0.94,Lu Shan
29.617,-95.167,74.0,0.00,Ellington Field Airport
29.633,-95.267,73.3,0.00,William P Hobby
29.717,113.883,73.5,0.96,Puqi
29.717,118.267,74.0,0.43,Tunxi
29.75,24.533,70.4,0.04,Gighbub
29.75,115.917,74.9,0.31,Fenlu Southeast
29.8,47.767,86.4,0.00,Umm Al-Aish
29.817,-90.017,73.3,0.00,New Orleans Alvin Callender F
29.951,-94.021,73.4,0.00,Port Arthur Jefferson County
29.983,103.0,70.9,0.07,Ya'An
29.997,-90.278,72.3,0.00,Louis Armstrong New Orleans Intl Ap
30.0,99.1,63.2,0.00,Batang
30.0,100.267,42.1,0.00,Litang
30.033,122.117,65.0,0.05,Dinghai
30.067,-85.583,73.6,0.00,Tyndall Afb Airport
30.122,31.406,74.8,0.00,Cairo Intl
30.125,-93.228,71.1,0.00,Lake Charles Regional Airport
30.133,118.15,57.0,0.67,Huang Shan
30.183,-97.68,68.8,0.00,Austin-Bergstrom Intl Airport
30.2,-97.683,69.2,0.00,Bergstrom Afb/Austi
30.21,-93.143,70.8,0.00,Lake Charles Wb Airp
30.228,120.432,69.9,0.02,Xiaoshan
30.233,-81.667,74.8,0.00,Jacksonville Nas
30.283,109.467,68.3,0.20,Enshi
30.321,-97.76,67.8,0.00,Austin Mueller Municipal Ap
30.35,-87.317,71.7,0.00,Pensacola Forest Sherman Nas
30.367,-89.45,80.7,0.00,Bay Saint Louis
30.386,130.659,69.7,2.01,Yakushima
30.393,-84.353,74.1,0.00,Tallahassee Dale Mabry Field
30.4,-81.417,72.0,0.00,Mayport Ns
30.417,-88.917,74.7,0.00,Keesler Air Force Base
30.417,-86.683,71.3,0.00,Hurlburt Field Airport
30.483,-87.35,74.7,0.00,Pensacola Saufley Nas
30.483,-86.517,73.4,0.00,Eglin Afb Airport
30.495,-81.694,72.7,0.00,Jacksonville International Airport
30.511,-99.766,71.0,0.00,Junction
30.533,-87.2,77.9,0.00,Pensacola Ellyson Fld Naas
30.537,-91.147,72.2,0.00,Baton Rouge Ryan Arpt
30.567,32.1,73.0,0.00,Abu Suwayr
30.579,103.947,71.2,0.04,Shuangliu
30.617,116.967,75.5,0.00,Anqing
30.626,-88.068,71.2,0.00,Mobile Downtown Airport
30.65,-86.517,83.4,0.00,Duke Fld
30.683,107.8,65.7,0.28,Liangping
30.688,-88.246,72.0,0.00,Mobile Regional Ap
30.717,20.167,60.5,0.00,Agedabia
30.717,130.983,69.3,0.67,Tanegashima
30.733,111.367,70.6,1.66,Yichang
30.733,122.45,59.6,0.04,Shengsi
30.75,106.133,68.8,0.28,Gaoping
30.784,114.208,76.5,0.20,Tianhe
30.967,-83.2,74.5,0.00,Moody Afb/Valdosta
31.017,102.367,61.0,0.07,Xiao-Jin
31.017,109.533,68.9,0.28,Fengjie
31.067,-97.833,66.8,0.00,Robert Gray Aff Airport
31.083,33.817,69.8,0.00,El Arish-Agrimet
31.15,97.167,51.4,0.02,Qamdo
31.167,112.633,73.7,0.47,Zhongxiang
31.184,29.949,67.0,0.04,Alexandria Intl
31.198,121.336,65.0,0.05,Hongqiao Intl
31.2,16.583,62.0,0.04,Sirte
31.2,107.5,65.9,0.24,Da Xian
31.236,-94.754,72.1,0.00,Lufkin Angelina Co
31.25,-81.467,70.7,0.00,Brunswick Glynn Co A
31.267,-85.717,74.7,0.00,Cairns Army Airfield (Fort Rucker)
31.267,32.3,69.8,0.00,Port Said
31.267,130.3,68.1,0.75,Makurazaki
31.287,34.723,70.5,0.00,Teyman
31.317,-92.55,71.9,0.00,Alexandria Int
31.325,27.222,63.2,0.16,Mersa Matruh
31.333,118.35,73.3,0.00,Wu-Hu
31.352,-100.495,69.3,0.00,San Angelo Regional/Maths Field Ap
31.393,-92.296,71.6,0.00,Esler Field Aaf
31.4,116.333,73.8,0.00,Huoshan
31.417,95.6,42.4,0.00,Dengqen
31.483,92.067,30.0,0.00,Nagqu
31.5,34.45,69.0,0.01,Ghazza
31.514,10.598,59.0,0.00,Nalut
31.533,25.183,62.7,0.00,Salloum
31.55,130.55,66.3,1.46,Kagoshima
31.583,131.4,68.1,0.55,Aburatsu
31.588,-110.344,50.9,0.00,Sierra Vista Municipal-Libby Aaf Airport
31.617,100.0,49.0,0.02,Garze
31.617,113.817,75.7,0.08,Yingshan North
31.619,-97.228,68.0,0.00,Waco Regional Airport
31.633,-97.067,67.6,0.00,Waco James Connally Afb
31.733,131.083,64.8,0.94,Miyakonojo
31.742,118.862,69.9,0.02,Lukou
31.767,119.95,66.6,0.00,Changzhou
31.78,117.298,73.6,0.01,Luogang / Xinqiao
31.811,-106.376,61.7,0.00,El Paso International Airport
31.833,-106.4,62.7,0.00,Biggs Afb
31.865,35.219,65.3,0.00,Jerusalem
31.867,23.9,62.0,0.00,Tobruk
31.9,102.233,56.9,0.02,Barkam
31.933,131.417,65.9,0.51,Miyazaki
31.948,-102.209,69.0,0.00,Midland International Airport
32.009,-81.146,71.5,0.00,Hunter Aaf
32.011,34.887,67.3,0.00,Ben Gurion
32.033,110.767,68.3,1.22,Fangxian
32.033,130.2,67.0,1.30,Akune
32.067,108.033,65.8,0.04,Wanyuan
32.084,131.451,66.4,0.00,Nyutabaru
32.097,20.269,60.8,0.01,Benina Airport
32.1,34.783,67.2,0.00,Sde-Dov (Tel-Aviv)
32.117,-7.883,63.2,0.00,Ben Guerir Air Base
32.131,-110.955,54.8,0.00,Tucson International Ap
32.131,-81.202,71.5,0.00,Savannah/Hilton Head Intl Airport
32.133,114.05,75.1,0.02,Xinyang
32.167,-110.883,57.9,0.00,Davis-Monthan Afb Airport
32.167,115.617,76.4,0.00,Gushi
32.2,130.033,66.3,0.87,Ushibuka
32.217,-101.517,71.1,0.00,Webb Afb
32.217,130.75,63.8,0.87,Hitoyoshi
32.243,15.021,60.9,0.16,Misurata
32.267,-64.85,69.8,0.00,Little Sound
32.283,-106.917,58.3,0.00,Las Cruces Intl
32.3,-86.408,75.7,0.00,Montgomery Dannelly Field
32.321,-90.078,73.0,0.00,Jackson International Airport
32.333,-90.233,72.7,0.00,Jackson 4 Nw
32.333,103.733,64.8,0.02,Zhenjiangguan
32.335,-88.744,70.7,0.00,Meridian Key Field
32.35,-86.983,75.3,0.00,Craig Fld
32.35,-85.0,74.3,0.00,Lawson Aaf Airport
32.356,36.259,64.5,0.00,King Hussein
32.367,-64.683,69.1,0.00,Naval Atlantic Meterology & Oceanography Facility
32.383,-86.35,76.3,0.00,Maxwell Afb Airport
32.411,-99.682,67.0,0.00,Abilene Regional Airport
32.433,-99.85,68.4,0.00,Abilene Dyess Afb
32.433,105.8,62.4,0.00,Guang-Yuan
32.433,111.733,72.6,0.50,Laohekou
32.447,-93.824,72.9,0.00,Shreveport Regional Arpt
32.483,-80.717,72.4,0.00,Beaufort Mcas
32.5,-93.667,73.7,0.00,Barksdale Air Force Base
32.516,-84.942,78.3,0.00,Columbus Metro Airport
32.555,12.056,63.3,0.00,Zuara
32.567,-117.117,56.2,0.00,Imperial Beach Ream Field Nas
32.583,-116.983,53.7,0.00,Chula Vista Brown Field Naas
32.633,-106.4,58.3,0.00,White Sands Missile Range Site No.39
32.633,-83.6,77.1,0.00,Robins Afb Airport
32.664,13.159,60.9,0.12,Tripoli Intl
32.667,-114.6,62.7,0.00,Yuma Intl Arpt
32.667,35.183,64.2,0.00,Ramat-David
32.667,103.6,47.5,0.00,Songpan
32.685,-83.653,77.3,0.00,Macon Middle Ga Regional Ap
32.7,-117.2,57.3,0.00,North Island Nas
32.717,109.033,71.3,2.17,Ankang
32.717,133.017,65.9,0.43,Shimizu
32.733,-96.967,69.4,0.00,Dallas Hensley Field Nas
32.733,129.867,66.7,0.01,Nagasaki
32.733,130.267,60.1,0.24,Unzendake
32.734,-117.183,57.5,0.00,San Diego Lindbergh Field
32.767,-97.45,69.3,0.00,Fort Worth Naval Air Station Jrb/Carswell Field
32.782,-98.06,65.3,0.00,Mineral Wells Airport
32.783,22.583,61.9,0.01,Derna
32.8,21.883,52.9,0.12,Shahat
32.817,-115.683,65.6,0.00,El Centro Naf
32.817,35.0,68.4,0.00,Haifa/U. Michaeli
32.817,130.7,65.5,0.12,Kumamoto
32.833,-114.4,63.4,0.00,Yuma Proving Ground
32.85,-106.1,57.5,0.00,Holloman Afb
32.85,117.3,71.6,0.00,Bengbu
32.85,120.283,59.4,0.00,Dongtai
32.852,-96.856,69.5,0.00,Dallas Love Field Airport
32.867,-117.133,54.3,0.00,San Diego Miramar Nas
32.883,131.067,56.1,0.75,Asosan
32.898,-97.019,68.5,0.00,Dallas-Fort Worth Intl Ap
32.899,-80.041,72.8,0.00,Charleston Afb/International Airport
32.9,13.283,62.1,0.00,Wheelus Fld
32.917,132.7,64.5,1.97,Sukumo
32.933,113.917,74.4,0.00,Zhumadian
33.017,96.95,45.3,0.02,Yushu
33.023,-118.588,60.3,0.00,Nalf/F. Sherman Fld Arpt
33.067,107.033,64.0,0.27,Hanzhong
33.1,112.483,76.9,0.21,Nanyang
33.117,139.783,61.8,1.26,Hachijojima
33.167,129.733,66.0,0.02,Sasebo
33.2,126.267,62.0,0.00,Mosulpo (Kor-Afb)
33.233,131.617,61.8,0.16,Oita
33.233,132.55,64.5,0.08,Uwajima
33.237,-107.268,51.2,0.00,Truth Or Consequences Muni Ap
33.25,-119.45,55.3,0.00,San Nicholas Island
33.25,134.183,61.9,3.35,Murotomisaki
33.267,130.3,66.0,0.04,Saga
33.3,-111.667,58.9,0.00,Williams Gateway Airport
33.308,-104.508,61.1,0.00,Roswell International Air Center Ap
33.317,130.933,65.1,0.12,Hita
33.364,-81.963,75.7,0.00,Augusta Bush Field
33.367,-7.59,60.7,0.00,Mohammed V
33.367,129.55,64.1,0.02,Hirado
33.4,-104.533,64.0,0.00,Roswell Muni Ap
33.4,104.917,66.9,0.07,Wudu
33.428,-112.004,60.5,0.00,Phoenix Sky Harbor Intl Ap
33.433,-112.367,60.8,0.00,Litchfield Park Naf
33.433,129.433,66.3,0.00,Ikitsukijima
33.45,135.75,60.5,1.93,Shionomisaki
33.456,-93.988,71.8,0.00,Texarkana Regional Airport-Webb Field
33.483,-90.985,72.4,0.00,Mid Delta Rgnl
33.483,36.233,62.0,0.01,Damascus /Dimasho
33.55,-112.367,60.3,0.00,Luke Afb Airport
33.566,-86.745,73.3,0.00,Birmingham Municipal Ap
33.567,133.55,64.0,0.94,Kochi
33.583,130.383,64.6,0.01,Fukuoka
33.586,130.451,65.7,0.00,Fukuoka
33.6,-102.05,61.9,0.00,Reese Afb/Lubbock
33.6,119.033,60.6,0.02,Qingjiang
33.63,-84.442,75.9,0.00,Atlanta Hartsfield Intl Ap
33.65,-88.45,74.5,0.00,Columbus Afb Airport
33.65,130.7,64.9,0.02,Iizuka
33.666,-101.823,62.3,0.00,Lubbock International Airport
33.667,-117.733,54.6,0.00,El Toro Mcas
33.683,-78.933,70.9,0.00,Myrtle Beach Intl Airport
33.7,-117.833,59.6,0.00,Marine Corps Air Station
33.75,99.65,33.4,0.06,Darlag
33.75,105.75,61.4,0.17,Cheng-Xian
33.783,-118.05,54.0,0.00,Los Alamitos
33.783,114.517,74.5,0.02,Xihua
33.783,115.733,74.6,0.00,Boxian
33.812,-118.146,56.6,0.00,Long Beach / Daugherty Field / Airport
33.85,132.783,61.0,0.39,Matsuyama
33.85,134.1,46.4,0.00,Tsurugisan
33.877,10.103,62.0,0.00,Gabes / Matmata
33.883,130.653,64.0,0.00,Ashiya
33.9,-117.25,52.8,0.00,March Air Reserve Base
33.917,-84.517,74.9,0.00,Dobbins Air Reserve Base Airport
33.938,-118.389,55.6,0.00,Los Angeles Municipal Arpt
33.942,-81.118,77.6,0.00,Columbia Metro Arpt
33.948,-83.328,74.7,0.00,Athens Municipal Arpt
33.95,130.933,60.5,0.02,Shimonoseki
33.967,-80.467,77.3,0.00,Shaw Air Force Base
33.979,-98.493,68.6,0.00,Sheppard Afb/Wichita Falls Muni Ap
34.05,131.533,60.9,0.71,Wofu
34.067,134.567,60.8,0.35,Tokushima
34.067,136.2,58.3,1.18,Owase
34.083,111.067,70.0,0.00,Lushi
34.095,-117.235,53.4,0.00,San Bernardino International Airport
34.117,-119.117,52.9,0.00,Point Mugu Nf
34.117,139.517,62.9,0.55,Miyakejima
34.15,132.233,61.7,0.00,Iwakuni
34.185,-79.724,75.7,0.00,Florence City County Ap
34.198,129.292,64.3,0.02,Izuhara
34.201,-119.207,53.2,0.00,Oxnard Airport
34.201,-118.358,54.5,0.00,Hollywood Burbank Arpt
34.217,-119.083,52.9,0.00,Oxnard Aaf
34.233,-6.05,62.4,0.00,Sidi Slimane
34.233,135.167,63.0,0.12,Wakayama
34.268,-77.9,74.2,0.00,Wilmington
34.283,117.15,68.8,0.00,Xuzhou
34.3,-6.6,61.5,0.00,Port Lyautey
34.333,134.9,57.9,0.16,Sumoto
34.348,-85.161,72.4,0.00,Rome R B Russell Ap
34.35,107.133,68.3,0.02,Baoji
34.367,139.25,63.0,0.83,Niijima Island
34.383,-103.317,55.8,0.00,Cannon Afb Airport
34.417,131.4,66.0,0.02,Hagi
34.426,-119.843,51.7,0.00,Santa Barbara Municipal Ap
34.447,108.752,72.9,0.00,Xianyang
34.483,110.083,55.9,0.22,Hua Shan
34.583,-117.383,49.8,0.00,Southern California Logistics Airport
34.583,105.75,59.8,0.30,Tianshui
34.59,32.988,63.1,0.00,Akrotiri
34.6,138.217,59.2,0.83,Omaezaki
34.6,138.85,59.8,1.14,Irozaki
34.633,137.1,59.5,0.71,Irako
34.644,-86.786,74.4,0.00,Huntsville Madison County Arp
34.65,-99.267,67.4,0.00,Altus Afb Airport
34.65,-98.4,66.8,0.00,Henry Post Aaf Airport
34.652,-112.421,41.9,0.00,Prescott Municipal Ap
34.667,-120.583,50.5,0.00,Point Arguello Afwb
34.667,112.417,76.1,0.00,Luo-Yang
34.683,133.917,59.9,0.35,Okayama
34.683,135.517,62.3,0.04,Osaka
34.7,-77.383,79.9,0.00,New River Mcas
34.7,135.217,61.1,0.08,Kobe
34.7,135.833,59.5,0.04,Nara
34.717,104.883,50.7,0.24,Wu-Shan
34.718,10.691,60.5,0.00,Thyna
34.727,-92.239,73.7,0.00,Little Rock Adams Field
34.733,136.517,57.7,0.59,Tsu
34.744,-118.724,48.0,0.00,Sandberg
34.75,-120.567,50.1,0.00,Vandenberg Afb
34.75,137.717,57.5,1.02,Hamamatsu
34.75,139.367,57.7,0.98,Oshima
34.767,-82.383,75.6,0.00,Greenville Donaldson Afb
34.767,136.15,58.0,0.16,Ueno
34.768,-114.619,61.9,0.00,Needles Airport
34.793,5.738,66.0,0.00,Biskra / Mohamed Khider
34.833,134.667,58.4,0.59,Himeji
34.846,-82.346,76.0,0.00,Greenville Downtown Arpt
34.85,119.133,54.4,0.08,Ganyu
34.85,136.467,56.7,0.91,Seki
34.854,-116.786,55.0,0.00,Barstow-Daggett Airport
34.899,-120.449,50.3,0.00,Santa Maria Public Arpt
34.9,-117.867,49.3,0.00,Edwards Air Force Base
34.9,-76.883,73.6,0.00,Cherry Point Mcas
34.9,132.067,64.4,0.08,Hamada
34.917,-92.15,72.9,0.00,Little Rock Afb Airport
34.917,-81.95,76.5,0.00,Spartanburg
34.917,98.217,28.1,0.06,Madoi
34.917,139.833,61.4,0.83,Tokisaki
34.983,-89.783,77.4,0.00,Olive Branch
34.983,138.4,57.5,0.91,Shizuoka
35.0,102.9,40.9,0.61,Hezuo
35.017,135.733,60.3,0.04,Kyoto
35.028,-110.721,43.8,0.00,Winslow Municipal Ap
35.031,-85.201,71.7,0.00,Chattanooga Lovell Field Ap
35.042,-106.616,50.3,0.00,Albuquerque Intl Sunport Airport
35.05,139.1,58.3,0.24,Ajiro
35.056,-89.987,74.8,0.00,Memphis Municipal Arpt
35.067,-108.833,39.4,0.00,Zuni
35.067,134.017,58.5,0.67,Tsuyama
35.083,33.9,61.5,0.02,Ayios Nicolaos
35.083,128.067,65.1,0.00,Sacheon Ab
35.117,111.067,75.7,0.00,Yuncheng
35.117,138.933,58.3,0.47,Mishima
35.144,-111.666,32.2,0.00,Flagstaff Pulliam Arpt
35.15,33.283,59.5,0.33,Nicosia Airfield
35.15,140.317,61.3,0.51,Katsuura
35.167,109.05,69.9,0.16,Tongchuan
35.167,129.133,61.8,0.00,Pusan Ast - Rok K-9
35.167,136.967,56.7,0.55,Nagoya
35.174,-79.009,80.3,0.00,Pope Afb Airport
35.18,128.938,62.9,0.00,Gimhae Intl
35.182,-103.603,53.2,0.00,Tucumcari Municipal Arpt
35.224,-80.955,77.7,0.00,Charlotte Douglas Municipal A
35.23,-101.704,56.8,0.00,Amarillo Rick Husband Intl Airport
35.233,-75.622,69.0,0.00,Hatteras Billy Mitchell Ap
35.233,-33.717,64.5,0.00,Gecitkale
35.25,113.95,69.8,0.00,Guguzhai Nw
35.25,115.433,72.1,0.00,Heze/Caozhou
35.267,100.65,40.1,0.15,Tongde
35.283,136.25,57.9,0.39,Hikone
35.283,139.667,59.2,0.00,Yokosuka
35.285,40.176,74.8,0.00,Deir Zzor
35.317,139.65,60.4,0.00,Oppama
35.333,-99.2,65.7,0.00,Clinton-Sherman
35.333,-94.363,73.6,0.00,Fort Smith Regional Airport
35.344,-77.965,78.9,0.00,Seymour-Johnson Afb Airport
35.367,138.733,23.7,0.00,Fujisan
35.383,105.0,44.8,0.00,Huajialing
35.389,-97.601,66.0,0.00,Will Rogers World Airport
35.4,136.767,56.9,0.87,Gifu
35.417,-97.383,66.5,0.00,Tinker Afb Airport
35.417,136.417,44.9,0.35,Ibukiyama Mtn (Aut)
35.432,-82.538,67.5,0.00,Asheville Airport
35.433,133.333,63.6,0.12,Yonago
35.434,-119.054,55.7,0.00,Bakersfield Kern County Arpt
35.45,133.067,63.5,0.12,Matsue
35.45,135.317,60.9,0.02,Maizuru
35.45,139.45,59.5,0.00,Atsugi Nas
35.483,134.233,63.3,0.20,Tottori
35.5,138.767,51.6,0.01,Kawaguchiko
35.514,139.394,60.2,0.00,Kastner Aaf / Camp Zama Japan
35.517,137.817,52.4,0.28,Iida
35.517,139.4,59.9,0.00,Kastner Aaf
35.533,134.817,62.0,0.08,Toyooka
35.55,106.667,62.1,0.63,Pingliang
35.55,133.233,63.1,0.08,Sakai
35.552,139.78,60.6,0.00,Tokyo Intl
35.567,116.85,71.6,0.00,Yanzhou
35.624,-0.621,62.0,0.00,Es Senia / Ahmed Benbella
35.65,136.067,60.8,0.08,Tsuruga
35.654,-105.142,42.9,0.00,Las Vegas Municipal Arpt
35.667,138.55,57.3,0.02,Kofu
35.67,-120.628,52.0,0.00,Paso Robles Municipal Arpt
35.683,139.767,60.6,0.02,Tokyo
35.688,-117.693,52.2,0.00,China Lake Naf
35.7,139.4,59.0,0.00,Tachikawa (Jasdf)
35.733,107.633,61.9,0.47,Xifengzhen
35.733,140.85,60.7,0.31,Choshi
35.748,139.348,58.4,0.00,Yokota Ab
35.75,139.35,58.4,0.00,Fussa
35.818,-83.986,72.8,0.00,Mc Ghee Tyson Airport
35.833,139.417,57.4,0.00,Iruma
35.842,139.411,57.7,0.00,Iruma
35.857,14.478,60.3,0.00,Luqa
35.892,-78.782,76.8,0.00,Raleigh-Durham International Ap
35.894,128.659,66.5,0.00,Daegu Ab
35.917,126.617,57.9,0.00,Kunsan Ab
35.967,-89.95,75.3,0.00,Arkansas International Airport
35.983,139.067,55.5,0.02,Chichibu
36.0,-86.517,74.8,0.00,Smyrna
36.05,103.883,52.2,0.69,Lanzhou
36.072,-115.163,51.5,0.00,Las Vegas Mccarran Intl Ap
36.083,129.567,63.7,0.00,Changgai Gap
36.097,-79.943,75.7,0.00,Piedmont Triad International Airport
36.119,-86.689,74.8,0.00,Nashville Berry Field
36.125,-90.924,74.1,0.00,Walnut Ridge Municipal Arpt
36.134,-80.222,76.6,0.00,Winston-Salem Reynolds Ap
36.15,111.45,76.8,0.00,Canyu Northeast
36.15,139.383,56.9,0.02,Kumagaya
36.151,-5.35,64.1,0.00,Gibraltar
36.181,37.224,63.5,0.04,Aleppo Intl
36.199,-95.887,69.2,0.00,Tulsa International Airport
36.2,113.117,60.8,0.00,Chang-Zhi
36.2,133.333,60.2,0.04,Saigo
36.217,140.1,48.7,0.04,Tsuksbasan (Mount)
36.25,117.1,59.8,0.00,Tai Shan
36.261,-76.175,78.4,0.00,Monroe Co
36.266,120.374,53.9,0.00,Liuting / Qingdao Intl
36.267,6.683,51.0,0.00,Le Khroub
36.297,-99.769,64.1,0.00,Gage/Shattuck
36.3,98.1,44.6,0.00,Doulan
36.333,-97.917,65.9,0.00,Vance Afb
36.35,100.783,44.0,0.26,Gonghe
36.383,140.467,59.2,0.04,Mito
36.4,139.067,57.7,0.04,Maebashi
36.417,94.9,50.3,0.00,Golmud
36.45,127.433,63.0,0.00,Taejon Rok K-5
36.473,-82.404,70.8,0.00,Bristol Tri City Airport
36.517,126.317,63.2,0.00,Anmyeondo
36.583,104.683,55.4,0.79,Jingyuan
36.6,-121.867,51.2,0.00,Monterey Naf
36.6,109.5,70.1,0.00,Yan An
36.617,101.767,44.4,0.47,Xining / Caojiapu
36.65,-6.35,61.7,0.00,Rota Nas
36.664,-121.608,53.5,0.00,Salinas Municipal Ap
36.667,-87.483,74.6,0.00,Campbell Aaf Airport
36.683,-121.767,55.4,0.00,Fritzsche Aaf
36.683,116.983,67.6,0.00,Jinan/Tsinan
36.691,3.215,59.0,0.00,Houari Boumediene
36.733,139.5,44.8,0.51,Nikko
36.741,-104.502,45.8,0.00,Raton Municipal Crews Field A
36.744,-108.229,41.1,0.00,Farmington Municipal Ap
36.767,119.183,63.3,0.00,Weifang
36.78,-119.719,54.1,0.00,Fresno Yosemite International Airport
36.817,-76.033,77.6,0.00,Oceana Nas
36.822,7.809,58.2,0.00,Annaba / Rabah Bitat
36.851,10.227,60.7,0.00,Carthage
36.867,81.7,59.9,0.02,Yutian/Keriya
36.883,122.417,55.0,0.02,Shidao
36.903,-76.192,80.8,0.00,Norfolk Regional Arpt
36.95,-76.3,80.3,0.00,Norfolk Fleet Wf Nas
36.95,-76.283,76.5,0.00,Norfolk Nas
37.021,41.191,70.7,0.00,Kamishly
37.033,111.917,66.5,0.00,Jiexiu
37.056,-88.774,74.0,0.00,Paducah Barkley Field
37.083,-76.36,79.8,0.00,Langley Afb Airport
37.087,-84.077,69.0,0.00,London-Corbin Ap
37.091,127.03,60.1,0.00,Osan Ab
37.133,79.933,54.0,0.61,Hotan
37.175,-5.616,61.0,0.00,Moron Ab
37.2,102.867,31.5,0.14,Wushaoling
37.239,127.007,60.7,0.00,Suwon
37.24,-93.39,68.7,0.00,Springfield Municipal Arpt
37.317,-79.974,78.0,0.00,Roanoke Woodrum Arpt
37.321,-79.207,83.6,0.00,Lynchburg Municipal Arpt
37.367,97.367,46.7,0.03,Delingha
37.371,-118.358,52.9,0.00,Bishop Airport
37.383,-120.567,55.6,0.00,Castle Afb
37.4,14.917,58.8,0.00,Sigonella
37.406,-122.048,54.8,0.00,Mountain View Moffett Fld Nas
37.433,116.317,64.0,0.00,Dezhou
37.439,-105.861,35.1,0.00,Alamosa Arpt
37.467,53.967,74.8,0.00,Esenguly
37.483,105.683,62.3,0.04,Zhongning
37.5,117.533,61.4,0.00,Huimin
37.5,129.133,61.6,0.00,Donghae Radar
37.505,-77.32,79.2,0.00,Richmond Intl Ap
37.55,121.367,53.6,0.28,Yantai Northeast
37.558,126.791,60.3,0.00,Gimpo
37.567,126.967,62.3,0.00,Seoul City
37.6,62.183,73.5,0.00,Bajramaly
37.617,-97.267,67.5,0.00,Mcconnell Afb Airport
37.62,-122.365,52.9,0.00,San Francisco Intl Ap
37.648,-97.43,67.7,0.00,Wichita Municipal Arpt
37.67,-95.484,70.0,0.00,Chanute Martin Johnson Ap
37.706,-112.146,24.5,0.00,Bryce Cnyn Faa Ap
37.709,-113.094,35.2,0.00,Cedar City Municipal Ap
37.721,-122.221,54.2,0.00,Oakland Metropolitan
37.747,112.628,66.7,0.00,Wusu
37.754,128.944,61.9,0.00,Gangneung
37.769,-99.968,57.1,0.00,Dodge City Municipal Arpt
37.783,-122.317,55.7,0.00,Naval Air Station
37.783,126.85,66.8,0.00,Yeongdongri
37.8,107.383,66.1,0.00,Yanchi
37.833,65.2,73.3,0.00,Kerki Intl
37.85,91.483,44.3,0.00,Ziliujing West
37.9,-85.967,74.7,0.00,Godman Aaf Airport
37.917,127.05,68.1,0.00,Camp Casey/Tongduch
37.933,124.667,50.3,0.00,Baengnyeongdo Ab
37.95,128.317,64.4,0.00,Hyun Ni (Kor-Army)
37.967,126.567,63.8,0.12,Kaesong
37.987,58.361,78.8,0.00,Ashgabat
38.017,128.133,64.1,0.00,Kwandae Ri Team 840
38.033,125.7,65.2,0.39,Haeju
38.041,-84.606,73.3,0.00,Lexington Bluegrass Field
38.044,-87.521,75.0,0.00,Evansville Dress Regional Arp
38.049,-103.512,50.3,0.00,La Junta Municipal Ap
38.051,-117.09,36.4,0.00,Tonopah Airport
38.067,-122.5,52.5,0.00,Hamilton Aaf
38.067,-78.15,74.3,0.00,Gordonsville Faa Ap
38.067,114.35,65.7,0.00,Shijiazhuang
38.083,102.917,51.4,0.20,Caiqi Southeast
38.131,-91.768,70.9,0.00,Vichy Rolla Natl Arpt
38.15,85.55,58.4,0.00,Qiemo/Qarqan
38.181,-85.739,75.5,0.00,Louisville Standiford Field
38.233,127.967,64.7,0.00,Wonju Ab
38.25,-78.05,74.5,0.00,Orange Co
38.25,140.35,56.5,0.01,Yamagata
38.267,-121.933,53.7,0.00,Travis Air Force Base
38.267,109.783,70.3,0.00,Yulin
38.289,-104.506,47.7,0.00,Pueblo Memorial Airport
38.3,-76.417,78.3,0.00,Naval Air Station
38.333,116.833,59.7,0.00,Cangzhou
38.379,-81.59,74.8,0.00,Charleston Kanawha Arpt
38.417,-113.017,50.5,0.00,Milford Municipal Ap
38.417,-82.5,73.3,0.00,Chesapeake Huntington Ap
38.433,77.267,53.6,0.03,Shache
38.45,48.883,65.2,0.00,Astara
38.483,106.217,64.1,0.05,Yinchuan / Hedong
38.5,-77.3,77.6,0.00,Quantico Mcas
38.507,-121.495,56.1,0.00,Sacramento Executive Arpt
38.517,125.767,59.6,0.00,Sariwon
38.543,68.825,62.2,0.00,Dushanbe
38.55,-89.85,71.4,0.00,Scott Air Force Base/Midamerica Airport
38.567,-121.3,55.6,0.00,Mather Field
38.667,-121.4,56.3,0.00,Sacramento Mcclellan Afb
38.683,61.2,73.3,0.00,Cheshme
38.717,-93.55,69.4,0.00,Whiteman Afb Airport
38.717,-77.183,75.4,0.00,Davison Aaf Airport
38.733,115.483,63.2,0.00,Baoding
38.75,112.7,63.9,0.00,Yuanping
38.753,-90.374,73.8,0.00,St Louis Lambert Int'L Arpt
38.762,-27.091,58.6,0.00,Lajes
38.783,-97.65,66.5,0.00,Salina Muni
38.8,101.083,47.0,0.06,Shan-Dan
38.81,-104.688,40.9,0.00,City Of Colorado Springs Municipal Ap
38.817,-76.867,78.5,0.00,Andrews Air Force Base Airport
38.817,100.4,29.1,0.21,Zhang-Ye/South
38.832,-94.89,69.2,0.00,Olathe Johnson Co Industrial
38.833,-77.017,80.7,0.00,Washington Dc Bolling Field A
38.844,-94.56,69.0,0.00,Richard Gebaur
38.847,-77.035,81.1,0.00,Ronald Reagan Washington Natl Ap
38.85,-77.033,83.6,0.00,Anacostia Nas
38.876,-98.809,62.1,0.00,Russell Municipal Ap
38.885,-79.853,69.1,0.00,Elkins Elkins-Randolph Co Arp
38.9,46.25,73.8,0.00,Megri
38.917,139.85,54.3,0.31,Sakata
38.95,-95.664,69.4,0.00,Forbes Field Airport
38.95,113.517,41.1,0.00,Wutai Shan
38.966,121.539,59.0,0.00,Zhoushuizi
38.967,-92.367,69.7,0.00,Columbia Municipal Ap
38.983,56.283,77.8,0.00,Gyzylarbat
38.991,-76.489,76.4,0.00,U.S. Naval Academy
39.033,88.167,61.1,0.00,Ruoqiang
39.043,-84.672,73.5,0.00,Cincinnati Greater Cincinnati
39.05,-96.767,67.8,0.00,Marshall Army Airfield
39.073,-95.626,69.9,0.00,Topeka Municipal Ap
39.083,-76.767,78.5,0.00,Tipton Airport
39.083,63.6,76.0,0.00,Chardzhev
39.1,53.1,65.8,0.00,Ogryda
39.1,107.983,62.3,0.00,Otog Qi
39.1,117.167,59.5,0.00,Tianjin
39.121,-94.597,71.6,0.24,Kansas City Downtown Ap
39.126,-123.201,47.8,0.00,Ukiah Municipal Ap
39.133,-121.433,52.8,0.00,Beale Air Force Base
39.133,-75.467,77.0,0.00,Dover Afb Airport
39.134,-108.54,41.1,0.00,Grand Junction Walker Field
39.173,-76.684,79.5,0.00,Baltimore-Washington Intl Airport
39.183,127.433,61.6,0.00,Wonsan
39.2,45.417,64.0,0.24,Naxcivan
39.224,125.67,61.6,0.00,Pyongyang Intl
39.277,-120.71,33.8,0.00,Blue Canyon Ap
39.283,109.75,63.1,0.00,Xinjie Nw
39.295,-114.847,26.7,0.00,Ely Yelland Field
39.367,-101.693,48.9,0.00,Goodland Renner Field
39.367,111.217,67.8,0.05,Hequ
39.383,99.717,52.0,0.05,Gaotai West
39.402,-77.984,78.9,0.00,Martinsburg Eastern Wv Reg Ap
39.417,-118.717,42.3,0.00,Fallon Naas
39.417,-77.383,82.3,0.00,Frederick
39.431,-83.777,71.8,0.00,Airborne Airpark Airport
39.452,-74.567,74.0,0.00,Atlantic City International Airport
39.484,-119.771,35.2,0.00,Reno/Tahoe International Airport
39.543,76.02,54.0,0.04,Kashi / Laining
39.595,47.196,68.2,0.00,Fuzuli
39.65,-106.917,34.4,0.00,Eagle County Ap
39.65,118.1,59.4,0.00,Tangshan
39.65,141.967,60.7,0.02,Miyako
39.667,-119.867,34.8,0.00,Stead Afb
39.667,76.167,45.5,0.02,Ar-Tux
39.673,-75.601,72.3,0.00,Wilmington Dupont Ap
39.7,141.167,53.2,0.20,Morioka
39.717,-104.9,41.0,0.00,Denver Lowry Afb
39.717,123.067,59.7,0.00,Shishan Northeast
39.717,140.1,52.9,0.59,Akita
39.732,-86.279,73.6,0.00,Indianapolis Weir Cook Munici
39.733,49.6,67.4,0.00,Byandovan
39.75,-104.867,41.4,0.00,Denver Wsfo
39.767,98.483,48.4,0.06,Jiuquan/Suzhou
39.783,105.75,60.6,0.02,Jartai
39.8,-72.667,56.7,0.00,New York Shoals Afs
39.8,78.567,52.1,0.05,Bachu
39.817,-82.933,72.6,0.00,Rickenbacker Intl Airport
39.833,-84.05,74.9,0.00,Wright-Patterson Afb Airport
39.833,114.567,61.3,0.00,Yu Xian
39.845,-89.684,72.8,0.00,Springfield Capital Ap
39.868,-75.231,73.0,0.00,Philadelphia International Ap
39.883,-75.167,83.0,0.00,Philadelphia Naas
39.906,-84.219,72.9,0.00,Dayton Municipal Arpt
39.933,127.55,64.2,0.00,Hamheung
39.967,49.4,66.2,0.00,Alat
39.991,-82.881,74.8,0.00,Columbus Municipal Arpt
40.0,119.75,56.9,0.00,Shan-Hai-Guan
40.017,-74.6,71.7,0.00,Mcguire Afb Airport
40.033,-74.35,67.4,0.00,Lakehurst Nas
40.033,52.983,72.0,0.00,Turkmenbashi
40.05,124.333,59.5,0.00,Dandong
40.068,-118.569,39.8,0.00,Lovelock Derby Field
40.08,116.585,64.0,0.00,Beijing - Capital International Airport
40.1,124.383,62.0,0.00,Sinuiju
40.15,94.683,60.3,0.00,Dunhuang
40.152,-122.254,50.8,0.00,Red Bluff Municipal Arpt
40.167,-112.933,39.8,0.00,Dugway Proving Grou
40.183,-112.933,39.8,0.00,Dugway Pg Utah/Michales Aaf
40.183,-74.067,63.4,0.00,Belmar Asc
40.183,-74.066,63.7,0.00,Belmar Nj/Sig Corps Evans Lab
40.183,58.483,77.5,0.00,Deverze
40.196,-76.772,78.1,0.00,Harrisburg Intl
40.2,-75.15,81.8,0.00,Willow Grove Nas
40.212,44.53,61.6,0.02,Yerevan-Arabkir
40.217,-76.851,77.7,0.00,Harrisburg Capital City Arpt
40.217,69.733,63.0,0.00,Khudjant
40.267,97.033,48.0,0.02,Yumenzhen
40.3,-88.15,72.2,0.00,Rantoul/Chanute Afb
40.367,71.75,66.0,0.00,Fergana Airport
40.4,99.8,54.1,0.05,Shuangchengtzu
40.417,115.5,62.1,0.00,Huailai
40.467,62.283,69.8,0.00,Darganata
40.485,-80.214,73.0,0.00,Pittsburgh International Airport
40.497,-3.446,59.1,0.00,Torrejon
40.567,109.983,61.6,0.00,Baotou
40.583,-73.883,62.9,0.00,New York Floyd Benne
40.639,-73.762,59.5,0.00,New York Fort Totten
40.65,-86.15,73.8,0.00,Grissom Arb
40.651,-75.449,75.3,0.00,Allentown Bethlehem-Easton Ar
40.667,122.2,55.0,0.04,Yingkou
40.667,129.2,51.8,0.00,Kimchaek/Songjin
40.668,-89.684,70.2,0.00,Peoria Greater Peoria Ap
40.683,-74.169,64.4,0.00,Newark International Arpt
40.705,141.372,56.1,0.00,Misawa Ab
40.717,46.417,63.4,0.00,Gandja
40.717,124.783,53.0,0.01,Kuandian
40.721,-114.036,45.6,0.00,Wendover Usaf Auxiliary Field
40.733,-73.6,60.3,0.00,Mitchel Field
40.767,107.4,58.5,0.00,Linhe
40.778,-111.969,40.0,0.00,Salt Lake City International Airport
40.779,-73.88,62.3,0.00,New York Laguardia Arpt
40.783,-91.125,69.7,0.00,Burlington Municipal Ap
40.783,55.333,74.5,0.00,Chagyl
40.783,114.883,60.8,0.02,Zhangjiakou
40.82,-82.518,76.2,0.00,Mansfield Lahm Ap
40.829,-115.789,34.1,0.00,Elko Municipal Arpt
40.833,67.667,63.1,0.00,Zapadny Arnasay
40.844,-72.632,56.1,0.00,Francis S Gabreski Ap
40.85,-96.767,65.2,0.00,Lincoln Afb
40.851,-96.748,65.2,0.00,Lincoln Municipal Airport
40.851,111.824,60.3,0.00,Baita
40.869,141.378,64.3,0.00,Draughon Range
40.883,123.9,51.9,0.01,Caohekou
40.902,-117.808,33.7,0.00,Winnemucca Municipal Arpt
40.917,-81.433,72.5,0.00,Akron Akron-Canton Airport
40.961,-98.314,55.5,0.00,Grand Island Arpt
40.967,107.167,57.2,0.02,Hang-Chin-Hou-Chi Nw
40.967,117.917,62.0,0.00,Chengde
40.967,126.6,51.8,0.00,Kanggye
40.971,-85.206,73.9,0.02,Fort Wayne International Airport
40.978,-124.109,49.7,0.00,Arcata Airport
41.017,-69.5,45.2,0.00,Nantucket Shoals Afs
41.033,113.067,49.3,0.00,Jining
41.05,52.917,59.7,0.00,Karabogazkel
41.117,-111.967,39.8,0.00,Hill Afb Airport
41.117,-95.917,66.0,0.00,Offutt Afb Airport
41.121,-100.669,48.7,0.00,North Platte Lee Bird Field
41.133,121.117,56.6,0.00,Jinzhou
41.15,126.217,52.5,0.02,Ji'An
41.158,-104.807,41.1,0.00,Cheyenne Airport
41.158,-73.129,57.1,0.00,Bridgeport Municipal Arpt
41.243,-76.922,75.3,0.00,Williamsport-Lycoming County
41.255,-80.674,72.5,0.00,Youngstown-Warren Regional Airport
41.258,69.281,60.8,0.00,Yuzhny / Tashkent Islam Karimov Intl
41.264,-72.887,60.4,0.00,New Haven Tweed Airport
41.267,80.233,51.6,0.18,Wen-Su
41.31,-95.899,66.8,0.00,Omaha Eppley Airfield
41.333,-122.333,38.0,0.00,Mount Shasta
41.334,-75.727,75.1,0.00,Wilkes-Barre Scranton Ap
41.4,128.167,45.2,5.91,Hyesan
41.405,-81.853,69.8,0.00,Cleveland Hopkins Intl Ap
41.417,48.883,55.1,0.00,Khachmaz Aerodrome
41.433,76.0,45.5,0.00,Naryn
41.465,-90.523,71.6,0.00,Moline Quad City Arpt
41.5,-74.1,66.1,0.00,Stewart International Airport
41.534,-93.653,68.7,0.00,Des Moines Municipal Arpt
41.55,23.267,58.3,0.00,Sandanski
41.55,120.45,58.8,0.00,Chaoyang
41.567,108.517,51.0,0.00,Haliut
41.583,-71.417,50.2,0.00,Quonset Point Nas
41.589,-83.801,73.0,0.00,Toledo Express Airport
41.594,-109.053,30.3,0.00,Rock Springs Arpt
41.6,41.633,50.7,0.04,Batumi
41.65,42.317,45.5,0.00,Khulo
41.667,-1.05,58.8,0.00,Zaragoza (Usafb)
41.667,46.65,63.2,0.00,Zakatala
41.683,-67.783,42.5,0.00,Georges Shoals Afs
41.7,110.433,50.5,0.00,Bailing-Miao
41.707,-86.316,67.3,0.00,South Bend St Joseph Co Arpt
41.717,82.95,55.8,0.09,Kuqa
41.722,-71.433,52.0,0.00,Providence T F Green Arpt
41.733,123.517,53.0,0.02,Shenyang
41.75,44.767,58.7,0.02,Tbilisi / Lochini Airport
41.75,59.817,70.7,0.00,Dashkhovuz
41.781,-122.472,43.3,0.00,Montague Siskiyou County Ap
41.783,95.133,48.7,0.00,Xing-Xing-Xia
41.783,126.883,48.6,0.16,Chunggang
41.783,129.817,55.4,0.00,Chongjin
41.786,-87.752,61.2,0.00,Chicago Midway Ap
41.8,-107.2,31.9,0.00,Rawlins Municipal Ap
41.8,-78.633,69.4,0.00,Bradford Regional Ap
41.817,140.75,50.2,0.35,Hakodate
41.867,-71.017,50.7,0.00,Taunton Muni
41.867,140.117,48.8,0.24,Esashi
41.871,-103.593,46.4,0.00,Scottsbluff W B Heilig Fiel
41.9,114.0,46.7,0.00,Huade
41.917,19.217,53.8,0.00,Ulcinj
41.933,117.75,56.6,0.00,Weichang
41.938,-72.683,58.2,0.00,Hartford Bradley Intl Ap
41.96,-87.932,59.0,0.24,Chicago O'Hare International Airport
41.983,21.467,49.1,0.08,Sxodje
41.986,-97.435,56.6,0.00,Norfolk Karl Stefan Mem Arpt
42.05,86.567,49.8,0.04,Yanqi
42.067,68.117,60.0,0.00,Bajrkum
42.08,-80.183,67.8,0.00,Erie International Ap
42.083,-87.833,57.0,0.00,Naval Air Station
42.1,-83.167,67.3,0.00,Grosse Ile Nas
42.1,140.567,51.8,0.39,Mori
42.147,-121.724,36.7,0.00,Klamath Falls Airport
42.15,-70.933,51.1,0.00,South Weymouth Nas
42.167,142.783,45.7,0.31,Urakawa
42.183,116.467,47.8,0.00,Duolun
42.193,-89.093,60.3,0.00,Rockford Greater Rockford Ap
42.2,-72.533,57.2,0.00,Westover Afb/Metropolitan Airport
42.207,-75.98,68.5,0.00,Binghamton Broome County Arpt
42.231,-83.331,68.9,0.00,Detroit Metro Ap
42.233,-83.533,69.3,0.00,Detroit Willow Run Ap
42.267,42.633,51.9,0.08,Kutaisi
42.271,-71.873,51.3,0.00,Worcester Municipal Arpt
42.3,118.833,52.1,0.04,Chifeng
42.317,130.4,52.2,0.00,Senbong
42.317,140.983,48.2,0.28,Muroran/Yakumo
42.361,-71.01,48.4,0.00,Gen E L Logan International Airport
42.367,19.25,52.7,0.02,Podgorica / Golubovci
42.381,-122.872,48.0,0.00,Medford Jackson County Arpt
42.391,-96.379,54.5,0.00,Sioux City Municipal Arpt
42.398,-90.704,60.4,0.00,Dubuque Municipal Ap
42.4,112.9,47.1,0.00,Jurh
42.409,-83.01,67.2,0.00,Detroit City Airport
42.417,-71.483,50.4,0.00,Maynard
42.417,122.533,52.2,0.00,Zhangwu
42.47,-71.289,50.4,0.08,Bedford Hanscom Field
42.517,125.633,43.7,0.01,Meihekou West
42.533,47.917,51.0,0.04,Izberg
42.542,-113.766,41.5,0.00,Burley Municipal Arpt
42.554,-92.401,61.7,0.67,Waterloo Municipal Airport
42.57,27.515,55.5,0.00,Burgas
42.583,23.267,27.4,0.20,Cherni Vrah (Top/Sommet)
42.6,-123.364,35.8,0.00,Sexton Summit
42.608,-82.835,39.8,0.00,Selfridge Angb/Train
42.608,-82.818,64.4,0.00,Selfridge Air National Guard Base
42.617,141.55,42.7,0.43,Tomakomai
42.65,130.8,50.2,0.01,Pos'Et
42.733,52.65,57.6,0.00,Fetisovo
42.733,80.133,39.3,0.00,Narynkol
42.747,-73.799,61.5,0.04,Albany International Airport
42.78,-84.579,60.6,0.00,Lansing Capital City Arpt
42.8,140.217,48.3,0.20,Suttsu
42.815,-108.726,36.5,0.00,Lander Hunt Field
42.817,93.517,60.9,0.00,Hami
42.85,71.3,58.2,0.00,Taraz
42.867,41.133,52.3,0.00,Suhumi
42.883,129.5,44.0,0.12,Yanji
42.898,-106.474,36.5,0.00,Natrona County International Ap
42.9,-85.667,61.2,0.00,Grand Rapids
42.917,143.217,49.0,0.02,Obihiro
42.92,-112.571,38.0,0.00,Pocatello Municipal Arpt
42.933,-71.438,50.1,0.00,Manchester Municipal Ap
42.933,-71.433,50.5,0.00,Grenier Afb
42.94,-78.736,57.5,0.00,Buffalo Niagara International Airpor
42.95,89.233,70.6,0.00,Turpan
42.955,-87.905,49.3,0.31,General Mitchell International Ap
42.967,-83.749,57.7,0.00,Flint Bishop Arpt
42.967,54.117,72.6,0.00,Akkuduk
42.983,144.4,43.0,0.12,Kushiro/Kenebetsu
43.0,47.5,57.8,0.00,Mahachkala
43.033,44.683,54.6,0.04,Vladikavkaz
43.033,69.367,64.6,0.00,Cajan
43.05,-115.867,45.4,0.00,Mountain Home Afb Airport
43.067,141.333,49.5,0.31,Sapporo
43.083,-70.817,46.2,0.00,Pease Intl Tradepor
43.108,-78.938,59.4,0.00,Niagara Falls Intl Airport
43.111,-76.104,59.0,0.16,Syracuse Hancock International Ap
43.117,-77.677,56.1,0.00,Rochester Monroe Co Arpt
43.117,131.933,44.8,0.10,Vladivostok
43.141,-89.345,55.4,0.75,Dane Co Regional-Truax Field Airport
43.154,-93.327,52.0,0.00,Mason City Municipal Arpt
43.171,-86.237,56.9,0.00,Muskegon County Arpt
43.183,124.333,49.6,0.00,Siping
43.183,141.017,49.4,0.31,Otaru
43.195,-71.501,48.2,0.00,Concord Municipal Arpt
43.2,51.717,55.2,0.00,Jeralijev
43.217,91.733,56.0,0.00,Shisanjianfang
43.217,141.783,50.1,0.12,Iwamizawa
43.232,27.825,52.5,0.00,Varna
43.233,76.933,53.0,0.00,Almaty
43.234,-75.407,59.4,0.12,Griffiss Airpark
43.239,-123.355,49.0,0.00,Roseburg Municipal Ap
43.25,40.267,52.6,1.10,Gagby
43.25,45.717,60.6,0.00,Groznyj
43.317,78.25,34.4,0.00,Assi
43.333,145.583,44.5,0.01,Nemuro
43.413,-124.244,49.5,0.00,North Bend Muni Airport
43.417,24.6,53.0,0.01,Pleven
43.516,-112.067,35.8,0.00,Idaho Falls Fanning Field
43.517,16.433,51.3,0.38,Split/Marjan
43.533,-84.08,49.6,0.00,Saginaw Tri City Intl Ap
43.567,-116.241,44.1,0.00,Boise Air Terminal
43.578,-96.754,47.8,0.00,Sioux Falls Foss Fld
43.583,-119.05,39.1,0.00,Burns Federal Bldg
43.583,39.767,52.0,0.39,Sotchi
43.583,104.417,48.2,0.00,Dalanzadgad
43.583,134.167,38.5,0.08,Bereznjaki
43.6,122.267,51.1,0.00,Tongliao
43.626,-72.305,48.2,0.00,Lebanon Awo
43.633,118.033,44.1,0.00,Linxi
43.65,-70.3,45.9,0.00,Portland Intl Jetport
43.65,72.383,59.0,0.00,Umbet
43.65,112.0,45.0,0.00,Erenhot
43.677,-79.631,54.7,0.28,Lester B Pearson Intl
43.7,73.783,58.9,0.00,Tole Bi
43.717,127.15,45.4,0.01,Jiaohe South
43.733,20.683,42.0,0.39,Kraljevo
43.733,111.9,48.5,0.00,Zamyn-Uud
43.75,142.367,50.4,0.08,Asahikawa
43.783,87.617,49.1,0.02,Wu Lu Mu Qi
43.817,23.25,52.6,0.16,Lom
43.825,18.331,37.4,0.02,Sarajevo
43.85,25.95,56.2,0.00,Rousse/Ruse
43.86,51.092,50.3,0.00,Aktau
43.879,-91.253,50.9,0.28,La Crosse Municipal Airport
43.9,-69.933,44.2,0.24,Naval Air Station
43.904,-92.492,46.3,0.00,Rochester Municipal Arpt
43.917,-60.0,39.2,0.00,Sable Island  Ns
43.95,81.333,54.4,0.04,Yining
43.95,116.117,45.3,0.00,Xilin Hot
43.95,141.633,48.3,0.31,Rumoi
43.983,75.083,53.8,0.00,Anarkhay
43.983,119.4,49.6,0.00,Lindong
43.989,-76.026,51.3,0.00,Watertown Intl Airport
43.996,125.681,47.5,0.00,Longjia
44.017,89.567,50.3,0.00,Qitai
44.017,115.0,39.3,0.00,Abag Qi
44.017,144.283,54.1,0.08,Abashiri
44.017,145.867,42.8,0.00,Juzhno-Kuril'Sk
44.067,62.9,65.4,0.00,Cirik-Rabat
44.117,15.233,49.0,0.35,Zadar
44.117,27.267,55.0,0.02,Silistra
44.128,-123.221,49.2,0.00,Eugene Mahlon Sweet Arpt
44.15,-103.1,41.2,0.00,Ellsworth Air Force Base
44.167,22.8,50.2,0.04,Novo Selo
44.167,66.75,63.0,0.00,Shieli
44.167,80.067,60.6,0.00,Zharkent
44.217,28.65,49.3,0.02,Constanta
44.225,43.082,55.3,0.00,Mineralnyye Vody
44.25,123.967,50.9,0.00,Changling
44.256,-121.139,40.8,0.00,Redmond Roberts Field
44.3,86.033,55.0,0.00,Shihezi
44.317,54.6,68.0,0.00,Duken
44.367,141.7,48.6,0.63,Haboro
44.381,-100.286,43.0,0.00,Pierre Regional Ap
44.383,131.15,40.8,0.83,Suifenhe
44.398,-98.223,46.5,0.00,Huron Municipal Arpt
44.433,84.967,54.6,0.00,Kuytun
44.45,-83.4,43.5,0.00,Oscoda-Wurtsmith Airport
44.467,78.667,43.7,0.00,Kugali
44.468,-73.15,47.9,0.39,Burlington International Airport
44.479,-88.137,42.5,0.16,Austin Straubel International Ap
44.483,34.167,52.8,0.00,Yalta
44.5,129.667,42.1,0.20,Mudanjiang
44.503,26.102,54.6,0.00,Baneasa Aurel Vlaicu
44.567,82.817,56.5,0.00,Jinghe
44.567,120.9,50.4,0.00,Jarud Qi
44.583,117.6,40.6,0.02,Xi Ujimqin Qi
44.583,142.967,49.3,0.04,Omu
44.633,22.633,46.6,0.08,Drobeta Turnu Severin
44.64,-63.499,44.8,0.00,Shearwater
44.651,-73.468,48.4,0.00,Plattsburgh Intl
44.683,34.133,52.3,0.00,Simferopol'
44.717,37.767,50.5,2.95,Novorossijsk
44.717,132.067,41.8,0.79,Astrahanka
44.733,51.967,64.3,0.00,Tuscikuduk
44.741,-85.583,46.8,0.00,Traverse City Cherry Capital
44.769,-106.969,33.8,0.00,Sheridan County Arpt
44.783,44.133,59.4,0.00,Budennovsk
44.798,-68.819,46.7,0.04,Bangor Airport
44.8,-68.817,46.3,0.00,Dow Afb
44.8,20.467,43.6,0.08,Beograd
44.8,69.117,62.2,0.00,Tasty
44.8,71.067,58.7,0.00,Ulanbel'
44.8,77.333,47.8,0.00,Zhety-Zhol
44.843,-117.809,36.1,0.00,Baker Municipal Ap
44.85,65.5,63.0,0.00,Kzyl-Orca
44.867,-91.488,43.8,0.00,Eau Claire Municipal Ap
44.867,13.85,48.7,0.08,Pula
44.883,-93.229,42.3,0.59,Minneapolis-St Paul International Ap
44.883,-93.217,43.6,0.00,Minneapolis Nas
44.883,63.167,64.0,0.00,Karak
44.905,-123.001,47.0,0.00,Salem Mcnary Field
44.929,-89.628,45.4,0.00,Wausau Municipal Arpt
44.933,142.583,49.6,0.28,Kitamiesashi
44.936,-74.846,48.4,0.00,Massena Ap
44.941,17.298,42.0,0.25,Banja Luka
44.95,-68.667,47.3,0.00,Old Town Faa Airport
44.983,-64.917,45.4,0.00,Greenwood (Can-Mil)
44.983,41.117,49.5,0.12,Armavir
45.0,136.6,37.3,0.37,Ternej
45.033,35.383,56.2,0.00,Feodosiia
45.033,39.15,48.8,0.47,Krasnodar
45.072,-83.564,43.8,0.00,Alpena Phelps Collins Field
45.083,124.867,50.0,0.00,Qian Gorlos
45.1,73.967,50.5,0.00,Ciganak
45.109,42.113,50.3,0.00,Shpakovskoye
45.167,29.733,51.3,0.00,Sulina
45.217,127.967,42.5,0.98,Shangzhi
45.25,55.083,69.3,0.00,Bejneu
45.25,67.067,60.8,0.00,Zlikha
45.258,-112.554,25.9,0.00,Dillon
45.283,38.117,50.5,0.00,Slavjansk-Na-Kubani
45.3,82.483,48.5,0.00,Druzba
45.3,130.917,44.1,0.94,Jixi
45.323,-75.669,49.5,0.63,Ottawa Macdonald Cartier Intl
45.333,78.017,53.6,0.00,Karatal E
45.4,56.117,75.4,0.00,Sam
45.417,141.683,43.2,0.94,Wakkanai
45.45,25.45,17.2,0.02,Varfu Omu
45.467,10.933,58.7,0.00,Verona
45.483,28.033,54.0,0.00,Galati
45.511,-118.425,39.7,0.00,Meachum Emergency Ap
45.517,-73.417,49.9,0.00,St Hubert
45.517,32.7,51.2,0.00,Chornomors'Ke
45.517,116.967,44.2,0.02,Uliastai
45.533,18.733,43.6,0.08,Bogus Yugoslavian
45.533,72.4,49.8,0.00,Tyuken
45.543,-94.051,39.1,0.00,St Cloud Municipal Arpt
45.596,-122.609,47.7,0.00,Portland International Airport
45.619,-121.166,47.4,0.00,The Dalles Municipal Arpt
45.633,38.933,49.5,0.02,Timasevskaja
45.633,75.117,52.5,0.00,Aul
45.633,122.85,53.4,0.00,Baicheng Northeast
45.648,-68.693,45.1,0.00,Millinocket Municipal Ap
45.667,28.617,51.5,0.00,Bolgrad
45.698,-118.855,49.1,0.00,Pendleton Municipal Arpt
45.7,77.267,48.0,0.00,Nayman-Suyek
45.733,112.367,46.0,0.00,Bayandelger
45.767,62.117,62.9,0.00,Kazaly
45.807,-108.542,29.0,0.00,Billings Municipal Arpt
45.81,21.338,41.6,0.02,Traian Vuia
45.865,-84.637,34.9,0.00,Mackinack Island
45.867,133.733,43.2,1.00,Dal'Nerechensk
45.9,15.967,42.2,0.28,Puntijarka (Mount)
45.9,78.711,49.7,0.00,Matai
45.933,126.567,50.9,0.00,Harbin
45.965,-112.501,23.7,0.00,Butte Silver Bow Co Arpt
45.967,128.733,49.3,0.00,Tonghe
46.0,70.0,58.9,0.00,Betpak-Dala Steppe
46.017,12.617,52.8,0.00,Aviano (Usaf)
46.033,38.15,50.5,0.00,Primorsko-Ahtarsk
46.095,-118.287,49.2,0.00,Walla Walla Regional Arpt
46.157,-123.883,48.4,0.00,Astoria Clatsop County Arpt
46.167,-60.05,36.4,0.00,Sydney A
46.167,34.817,48.5,0.00,Heniches'K
46.167,80.933,52.2,0.00,Uc-Aral
46.17,8.88,53.5,0.00,Magadino-Cadenazzo
46.177,21.262,42.5,0.02,Arad
46.183,45.35,61.4,0.00,Yashkul'
46.2,150.5,33.6,0.01,Urup
46.217,122.05,52.2,0.00,Qarsan Southeast
46.22,7.327,53.5,0.00,Sion
46.233,14.483,39.9,0.20,Ljubljana /Brnik
46.238,6.109,51.4,0.00,Geneva Cointrin
46.25,-84.467,44.2,0.00,Kincheloe Afb
46.267,102.783,35.6,0.00,Arvaiheer
46.283,47.983,64.9,0.00,Astrahan'
46.364,-79.423,41.4,0.20,North Bay
46.375,-117.016,45.8,0.00,Lewiston Nez Perce County Arp
46.383,125.317,49.4,0.00,Anda
46.4,96.25,29.8,0.00,Altai
46.427,-105.883,34.7,0.00,Miles City Municipal Arpt
46.427,30.676,49.7,0.00,Odesa Intl
46.45,108.217,39.0,0.00,Choir
46.479,-84.357,44.6,0.00,Sault Ste Marie
46.522,26.91,51.0,0.00,George Enescu Bacau Intl
46.533,138.333,35.5,0.24,Sosunovo
46.55,41.05,50.0,0.00,Celina
46.567,43.667,60.3,0.12,Remontnoe
46.568,-120.543,46.0,0.00,Yakima Air Terminal
46.583,68.617,58.5,0.00,Jeti-Konur
46.6,49.267,62.0,0.00,Ganjushkino
46.606,-111.964,27.7,0.00,Helena Arpt
46.633,-60.933,24.6,0.00,Cheticamp Cs
46.633,32.567,55.8,0.00,Kherson
46.633,57.333,66.5,0.00,Ak-Tumsuk
46.65,8.617,20.6,0.75,Guetsch Ob Andermatt
46.65,14.333,44.6,0.02,Klagenfurt(Civ/Mil)
46.65,82.75,50.1,0.00,Bahty
46.683,113.283,40.8,0.00,Baruun-Urt
46.7,100.133,33.8,0.00,Galuut
46.717,59.167,60.0,0.00,Ayak-Kum
46.717,62.5,63.9,0.00,Monsyr
46.75,36.783,50.7,0.00,Berdyansk
46.783,-100.757,38.3,0.00,Bismarck Municipal Arpt
46.783,61.667,60.8,0.00,Aralsk
46.785,23.686,40.2,0.04,Cluj Napoca / Avram Iancu
46.799,-102.797,33.4,0.00,Dickinson Municipal Ap
46.8,53.917,66.0,0.00,Kulsary
46.8,75.083,53.1,0.00,Balhash
46.8,134.267,44.0,0.08,Bikin
46.817,85.75,44.1,0.05,Hoboksar
46.817,130.333,46.7,0.00,Chia-Mu-Ssu /Chiamueze
46.837,-92.183,32.7,0.16,Duluth International Airport
46.85,1.717,49.5,0.00,Chateauroux
46.85,151.867,42.8,0.00,Simusir
46.871,-68.017,39.7,0.00,Caribou Municipal Arpt
46.883,64.667,60.3,0.00,Kara-Kum
46.9,102.767,34.0,0.00,Hujirt
46.921,-114.093,32.5,0.00,Missoula Johnson-Bell Fld
46.925,-96.811,39.9,0.00,Hector International Airport
46.95,-67.883,41.2,0.00,Loring Afb/Limeston
46.973,-122.903,46.5,0.00,Olympia Municipal Arpt
46.983,89.517,46.6,0.00,Fuyun
46.991,15.44,43.7,0.00,Graz
47.0,-65.45,39.4,0.00,Miramichi A
47.017,28.983,53.7,0.00,Chisinau
47.033,37.5,48.7,0.00,Mariupol'
47.033,55.133,68.5,0.00,Zambike
47.049,-109.458,23.0,0.00,Lewistown Municipal Arpt
47.05,12.95,1.4,0.79,Sonnblick
47.117,51.917,65.1,0.00,Atyrau
47.15,-122.483,46.7,0.31,Mcchord Afb Airport
47.167,119.933,37.7,0.10,Arxan
47.169,-88.489,34.6,0.00,Hancock Houghton Co Ap
47.178,27.621,50.8,0.00,Iasi
47.2,73.35,50.2,0.00,Mointy
47.208,-119.319,47.9,0.00,Grant County Intl Airport
47.233,131.983,46.1,0.00,Fujin
47.24,123.918,49.5,0.00,Sanjiazi
47.25,9.35,14.3,1.10,Saentis
47.25,39.817,48.0,0.00,Rostov-Na-Donu
47.26,11.344,41.0,0.22,Innsbruck
47.277,-121.337,34.8,0.00,Stampede Pass
47.3,-53.983,34.9,0.00,Argentia (Aut)
47.3,107.483,34.2,0.00,Maanti
47.317,110.633,40.4,0.00,Underkhaan
47.333,142.8,41.5,0.35,Dolinsk
47.417,10.983,6.1,0.98,Zugspitze Mountain
47.444,-122.314,47.7,0.04,Seattle-Tacoma International Airport
47.45,101.467,36.2,0.00,Tsetserleg
47.45,126.867,44.5,0.02,Hailun
47.465,8.549,43.5,0.01,Zurich
47.467,84.917,50.1,0.00,Zajsan
47.473,-111.382,25.4,0.00,Great Falls Intl Arpt
47.517,-111.183,26.5,0.04,Malmstrom Afhp Heliport
47.517,19.033,42.6,0.12,Budapest Met Center
47.53,-122.301,50.9,0.00,Boeing Fld/King Co Intl Ap
47.567,7.683,32.0,0.01,St. Chrischona
47.567,31.333,53.4,0.00,Voznesens'K
47.622,-117.528,38.6,0.00,Spokane International Airport
47.633,-117.65,38.4,0.00,Fairchild Air Force Base
47.633,43.15,56.6,0.08,Kotel'Nikovo
47.65,9.483,41.7,0.16,Friedrichshafen
47.683,-122.267,50.2,0.00,Seattle Nas
47.683,8.617,44.9,0.02,Schaffhausen
47.703,22.886,40.6,0.24,Satu Mare
47.733,26.65,47.0,0.06,Botosani
47.733,88.083,52.2,0.00,Altay
47.733,130.967,47.4,0.00,Ekaterino-Nikol'Skoe
47.75,96.85,35.6,0.00,Uliastai
47.783,27.95,48.2,0.00,Balti
47.793,13.004,36.6,0.31,Salzburg
47.8,82.833,42.0,0.00,Aksuat
47.833,66.75,54.4,0.00,Karsakpaj
47.843,106.767,32.6,0.00,Chinggis Khaan Intl / Buyant Ukhaa Intl
47.85,59.617,67.7,2.95,Celkar
47.867,35.316,47.2,0.63,Zaporizhzhia Intl
47.867,105.25,30.6,0.00,Lung
47.9,-122.283,47.8,0.00,Snohomish Co
47.9,48.8,68.0,0.00,Novyj Ushtogan
47.933,1.883,52.6,0.00,Orleans
47.933,44.7,60.0,0.00,Malye Derbety
47.95,132.617,48.5,0.00,Leninskoe
47.967,-97.4,36.9,0.00,Grand Forks Afb Airport
47.967,80.45,44.3,0.00,Ajaguz
47.983,142.2,36.8,2.95,Ilyinskiy
47.998,70.771,55.0,0.00,Karazhal
48.0,7.85,43.9,0.02,Freiburg (Civ/Fafb)
48.0,122.733,45.5,0.02,Zalantun
48.017,91.567,38.6,0.00,Hovd
48.053,-77.783,33.7,0.00,Val D Or
48.067,37.767,47.9,0.00,Donets'K
48.067,153.217,36.2,0.00,Matua
48.083,114.55,39.8,0.31,Choibalsan
48.11,16.57,40.5,0.16,Wien Schwechat
48.15,-103.617,31.8,0.00,Williston
48.167,78.417,45.5,0.00,Barshatas
48.17,17.213,40.3,0.08,M R Stefanik
48.183,15.617,38.8,0.20,St. Poelten
48.214,-106.621,30.7,0.00,Glasgow Intl Arpt
48.217,46.733,62.6,2.95,Verhnij Baskunchak
48.217,57.117,68.0,0.00,Kozasaj
48.233,14.188,40.0,0.22,Linz
48.25,62.0,61.4,0.00,Taup
48.255,-101.273,33.5,0.00,Minot Faa Ap
48.267,77.317,46.2,0.00,Ogiztau
48.304,-114.264,36.7,0.00,Kalispell Glacier Pk Int'L Ar
48.331,-70.996,41.1,0.00,Bagotville
48.35,-122.667,51.2,0.00,Whidbey Island Nas
48.35,41.867,49.0,0.00,Morozovsk
48.354,11.786,37.5,0.26,Munchen
48.367,-89.333,35.0,0.08,Thunder Bay A
48.367,25.9,42.2,0.00,Chernivtsi
48.383,-124.733,47.7,0.00,Tatoosh Island
48.417,-106.533,28.8,0.00,St Marie
48.417,-101.35,34.3,0.00,Minot Afb Airport
48.425,10.932,38.1,0.18,Augsburg
48.45,27.783,49.7,0.00,Mohyliv-Podil'S'Kyi
48.517,32.2,47.2,0.04,Kirovohrad
48.528,135.188,42.5,0.00,Khabarovsk Novy
48.533,-58.55,32.6,0.00,Stephenville Dymond
48.561,-93.398,36.9,0.00,International Falls Intl Ap
48.567,-109.667,31.2,0.00,Havre
48.567,39.25,45.4,0.00,Luhans'K
48.583,13.467,37.9,0.61,Passau
48.603,-112.375,25.0,0.00,Cut Bank Muni Ap
48.617,61.267,64.2,0.00,Irgiz
48.617,110.6,36.2,0.04,Binder
48.633,22.267,40.7,0.00,Uzhhorod
48.633,58.5,59.0,0.00,Mugodzarskaja
48.65,1.1,48.6,0.00,Dreux
48.65,19.15,39.6,0.04,Sliac
48.667,21.217,39.0,0.09,Kosice
48.69,9.222,39.0,0.08,Stuttgart
48.7,71.633,47.8,0.00,Atasu
48.717,80.9,44.5,0.00,Kara-Jol
48.767,5.983,42.9,0.00,Toul Rosiere
48.767,30.233,52.7,0.00,Uman'
48.767,121.917,37.4,0.07,Bugt
48.783,44.346,54.0,0.08,Gumrak
48.794,-122.537,51.5,0.00,Bellingham Intl Airport
48.817,7.2,40.8,0.00,Phalsbourg
48.917,106.067,36.0,0.79,Baruunharaa
48.933,89.933,33.5,0.00,Ulgi
48.95,14.433,38.0,0.14,Ceske Budejovice
48.967,24.4,37.6,0.00,Ivano-Frankivs'K
48.967,49.617,67.0,0.00,Novaja Kazanka
49.0,131.083,43.2,0.00,Obluc'E
49.017,-122.367,49.3,0.00,Abbotsford Airport
49.017,1.233,48.5,0.00,Evreux
49.033,8.367,46.2,0.00,Karlsruhe (Usa-Af)
49.05,12.1,39.0,0.16,Regensburg/Oberhub
49.05,51.867,62.0,0.00,Taipak
49.083,-125.767,45.8,0.31,Tofino Airport
49.117,5.467,43.6,0.00,Verdun
49.15,4.533,45.4,0.00,Suippes Range (Met)
49.15,57.117,65.3,0.00,Temir
49.151,16.694,40.9,0.02,Turany
49.167,125.233,39.9,0.05,Nenjiang
49.183,85.617,44.4,0.00,Katon-Karagaj
49.2,20.217,6.0,0.21,Lomnicky Stit
49.2,77.367,51.0,0.00,Kajnar
49.2,84.517,40.4,0.00,Ulken Naryn
49.215,7.11,40.3,0.02,Saarbrucken
49.217,7.4,40.7,0.00,Zweibruecken
49.217,81.217,47.4,0.00,Zhangiztobe
49.217,143.1,36.5,2.95,Poronajsk
49.233,19.983,15.0,0.39,Kasprowy Wierch
49.25,59.55,61.7,0.08,Taldyk
49.25,119.7,41.6,0.02,Hailar
49.383,75.517,45.4,0.00,Karkaralinsk
49.4,8.65,44.5,0.00,Heidelberg Aaf
49.433,26.983,43.0,0.00,Khmel'Nyts'Kyi
49.433,46.85,58.5,0.00,Ozhanybek
49.433,127.35,39.3,0.02,Sunwu
49.437,7.6,41.6,0.00,Ramstein Ab
49.45,136.567,38.0,0.00,Troickoe
49.474,10.388,40.1,0.00,Illesheim Ahp
49.499,11.078,39.5,0.04,Nurnberg
49.5,7.867,40.5,0.04,Sembach (Usafb)
49.564,8.463,47.5,0.00,Coleman Aaf / Coleman Barracks Germany
49.567,42.75,50.2,0.00,Serafimovic
49.583,15.767,34.1,0.04,Pribyslav
49.6,34.55,45.0,0.00,Poltava
49.617,128.65,45.2,0.00,Pojarkovo
49.633,3.55,47.3,0.00,Laon
49.633,100.167,33.5,0.00,Muren
49.635,63.482,61.5,0.00,Torgai
49.648,9.966,44.4,0.00,Giebelstadt Aaf
49.671,73.334,53.5,0.00,Karaganda
49.696,18.111,37.8,0.12,Mosnov
49.699,11.94,36.8,0.00,Grafenwohr Aaf
49.711,-124.887,48.4,0.00,Comox
49.733,117.267,42.0,0.00,Matsiyevskaya
49.75,6.667,41.8,0.05,Trier/Petrisberg
49.75,10.2,45.1,0.00,Kitzingen
49.767,9.967,39.2,0.02,Wurzburg (Usa-Af)
49.8,22.767,37.0,0.06,Przemysl
49.8,92.083,37.5,0.00,Ulaangom
49.813,23.956,34.0,0.01,Lviv Intl
49.85,7.883,46.0,0.00,Bad Kreuznach Aaf
49.883,69.517,59.6,0.00,Berlik
49.9,115.75,43.0,0.00,Solov'Evsk
49.903,-98.274,34.2,0.00,Southport
49.91,-97.24,35.0,0.00,Winnipeg Intl / James Armstrong Richardson Intl
49.925,36.29,46.7,0.00,Osnova Intl
49.933,134.633,40.0,0.00,Kur
49.949,7.264,37.2,0.00,Frankfurt Hahn
49.95,6.567,39.9,0.00,Bitburg(Us Army)
49.95,60.133,61.2,3.11,Karabutak
49.973,6.693,39.0,0.00,Spangdahlem Ab
50.0,33.017,48.0,0.00,Lubny
50.0,163.917,25.0,0.02,Ostrov Karaginskiy
50.017,111.183,32.8,0.00,Grjazi
50.026,8.543,42.5,0.00,Frankfurt Main
50.033,20.983,36.9,0.20,Tarnow
50.05,8.325,42.6,0.00,Wiesbaden Aaf
50.05,18.2,36.8,0.35,Raciborz
50.05,142.167,32.0,0.00,Pil'Vo
50.067,17.233,19.8,0.16,Praded Mountain
50.067,45.367,53.2,2.95,Kamysin
50.067,132.133,40.2,0.00,Sutur
50.083,19.8,36.4,0.47,Krakow
50.101,14.26,37.9,0.06,Ruzyne
50.11,22.019,38.5,0.06,Jasionka
50.133,55.7,58.7,0.00,Novoaleksjevka
50.133,65.233,64.5,0.00,Amangeldy
50.15,48.55,63.3,0.00,Aleksandrov-Gaj
50.169,8.962,42.7,0.00,Hanau Aaf
50.2,51.167,66.6,0.00,Chapaevo
50.217,38.1,49.0,0.00,Valujki
50.233,19.033,36.5,0.35,Katowice
50.233,28.733,45.0,0.00,Zhytomyr
50.246,57.207,61.2,0.00,Aktyubinsk / Aktobe
50.25,52.567,61.5,0.00,Dzhambejty
50.267,113.267,37.2,0.00,Aksa
50.283,127.483,46.0,0.00,Blagovescensk
50.289,11.855,33.3,0.06,Hof Plauen
50.33,-105.559,33.6,0.00,Moose Jaw Air Vice Marshal C M Mcewen
50.333,119.067,41.6,0.00,Priargunsk
50.367,108.75,35.5,0.00,Krasnyj Chikoj
50.383,11.183,33.3,0.04,Sonneberg/Neufang
50.4,116.517,42.5,0.00,Borzya
50.402,30.451,47.7,2.95,Zhuliany Intl
50.417,80.3,52.9,0.00,Semipalatinsk
50.433,12.95,24.3,0.87,Fichtelberg Mtn
50.433,16.617,35.9,0.31,Klodzko
50.483,12.133,35.0,0.13,Plauen (Aut)
50.517,104.833,37.0,0.00,Torej
50.55,67.917,57.8,0.00,Taldy-Kul
50.617,-97.033,32.6,0.00,Gimli Industrial
50.633,10.15,35.2,0.10,Kaltennordheim(Aut)
50.633,81.917,39.0,0.00,Semonaiha
50.65,-128.0,41.2,0.00,Holberg
50.7,21.717,38.1,0.22,Sandomierz
50.7,23.25,37.2,0.10,Zamosc
50.733,15.733,19.4,0.35,Sniezka
50.733,102.833,34.4,0.00,Sanaga
50.75,56.533,59.0,0.00,Martuk
50.8,12.867,36.0,0.08,Chemnitz
50.8,75.7,60.0,0.00,Bajanaul
50.817,20.7,37.2,0.20,Kielce-Sukow
50.85,10.467,27.5,0.13,Grosser Inselsberg
50.85,34.667,46.0,0.00,Sumy
50.866,7.143,42.5,0.02,Koln Bonn
50.867,156.683,31.6,0.04,Mys Lopatka
50.883,12.133,37.0,0.10,Gera/Leumnitz
50.9,15.8,36.9,0.14,Jelenia Gora
50.98,10.958,36.5,0.04,Erfurt Weimar
51.022,71.467,52.4,0.00,Astana Intl
51.033,54.1,59.4,0.00,Cingirlau
51.114,-114.02,26.0,0.55,Calgary Intl
51.117,13.683,37.0,0.06,Wahnsdorf
51.117,16.883,41.0,0.10,Wroclaw I
51.133,142.667,33.2,0.08,Ado-Tymovo
51.151,51.543,59.0,0.00,Uralsk
51.167,14.95,38.3,0.06,Goerlitz
51.183,8.483,29.6,0.12,Kahler Asten(Mount)
51.2,136.8,32.2,0.00,Gorin
51.217,22.4,37.7,0.31,Lublin Radawiec
51.233,33.2,47.6,0.00,Konotop
51.267,67.233,59.0,0.00,Kazgorodok
51.283,26.617,40.0,0.00,Sarny
51.283,91.667,43.0,0.00,Cadan
51.3,9.45,39.4,0.14,Kassel
51.3,13.017,35.5,0.05,Colomberg
51.35,130.433,42.8,0.00,Verhnjaja Tom
51.35,139.1,30.6,0.00,Suhanovka
51.367,48.3,56.6,0.00,Ershov
51.383,-1.283,50.0,0.00,Greenham
51.4,6.967,41.9,0.05,Essen/Mulheim
51.4,10.317,36.5,0.04,Leinefelde (Aut)
51.4,12.417,40.0,0.06,Leipzig /Mockau
51.417,21.117,40.0,0.08,Radom
51.467,31.25,45.0,0.00,Chernihiv
51.483,95.583,35.2,0.00,Saryg-Sep
51.483,156.483,32.0,2.95,Ozernaja
51.517,11.95,39.5,0.03,Halle-Kroellwitz
51.55,43.15,45.9,0.00,Balashov
51.565,46.047,53.2,2.95,Tsentralny
51.583,126.75,40.4,0.00,Kumara
51.633,133.267,37.6,0.00,Ust'-Umal'Ta
51.65,13.583,39.7,0.14,Doberlug/Kirchhain
51.682,-1.79,51.0,0.00,Fairford
51.683,100.983,31.5,2.95,Mondy
51.733,19.4,38.9,0.04,Lodz
51.733,126.633,36.6,0.00,Huma
51.75,-1.584,50.8,0.00,Brize Norton
51.767,36.167,44.5,0.00,Kursk
51.783,14.317,40.2,0.16,Cottbus
51.783,18.083,37.9,0.17,Kalisz
51.783,28.333,42.8,0.00,Leloiov
51.796,55.457,61.8,0.00,Orenburg
51.8,10.617,25.2,0.28,Brocken (Peak)
51.808,107.438,36.8,0.00,Mukhino
51.814,39.23,46.0,0.00,Chertovitskoye
51.817,68.367,58.0,0.00,Atbasar
51.833,41.483,50.8,0.00,Zerdevka
51.85,10.767,37.8,0.10,Wernigerode (Aut)
51.883,-176.65,38.3,0.00,Adak Nas
51.883,12.65,38.5,0.06,Wittenberg
51.883,66.333,56.0,0.31,Esil'
51.933,-131.017,45.6,0.00,Cape Saint James  &
51.933,1.25,48.9,0.00,Upper Heyford Raf
51.933,15.533,40.6,0.04,Zielona Gora
51.967,0.5,45.9,0.00,Wethersfield(Raf)
51.967,7.6,41.3,0.02,Munster/Telgte
52.026,113.306,37.2,0.00,Kadala
52.033,48.833,57.7,0.00,Pugacev
52.083,1.4,45.7,0.00,Woodbridge Raf
52.108,23.898,37.8,0.00,Brest
52.117,11.583,40.0,0.06,Magdeburg
52.127,5.276,43.7,0.00,Soesterberg
52.133,1.433,44.7,0.00,Bentwaters Raf
52.166,20.967,39.6,0.10,Okecie / Warsaw Chopin
52.167,-106.7,35.7,0.00,Saskatoon John G Diefenbaker Intl
52.195,77.074,52.0,0.00,Pavlodar
52.2,18.667,39.6,0.08,Kolo
52.217,14.117,40.7,0.02,Lindenberg
52.217,57.452,51.5,0.00,Zilair
52.217,141.633,31.2,0.00,Pogibi
52.233,117.7,37.4,0.01,Sretensk
52.268,104.389,39.0,0.01,Irkutsk
52.3,0.533,46.5,0.00,Chelveston
52.367,-0.217,47.2,0.00,Alconbury Raf     &
52.367,0.217,46.9,0.00,Huntington
52.367,0.483,47.0,0.00,Mildenhall Raf    &
52.367,14.517,43.2,0.10,Frankfurt /Oder
52.38,13.523,42.0,0.06,Schonefeld / Brandenburg
52.383,13.05,42.0,0.02,Potsdam
52.383,140.467,29.8,5.91,Bogorodskoe
52.4,0.567,46.5,0.00,Lakenheath Raf
52.421,16.826,39.1,0.08,Lawica
52.45,130.867,34.7,0.00,Byssa
52.461,9.685,40.8,0.06,Hannover
52.467,-1.117,46.8,0.00,Bruntingthorpe
52.467,71.983,53.7,0.00,Aksu
52.473,13.404,42.4,0.04,Tempelhof
52.5,99.817,29.0,0.00,Orlik (Mtn Stn)
52.517,11.4,39.2,0.04,Gardelegen (Aut)
52.583,19.733,39.9,0.06,Plock
52.583,33.767,42.0,0.00,Trubchevsk
52.683,62.6,54.0,0.04,Tobol
52.7,137.533,30.6,0.00,Guga
52.717,174.1,36.0,0.00,Eareckson As
52.75,120.033,36.2,0.00,Urjupino
52.783,126.0,41.8,0.00,Chernjaevo
52.8,41.333,47.8,0.00,Tambov
52.8,89.917,44.8,0.00,Tastyp
52.817,52.217,58.9,0.00,Buzuluk
52.85,0.767,45.7,0.00,Sculthorpe (Af Met)
52.9,12.817,41.2,0.02,Neuruppin
52.933,36.0,44.4,0.00,Orel
52.95,-168.85,32.2,0.00,Nikolski
52.967,101.983,41.5,0.00,Inga
53.0,128.65,32.8,0.00,Oktjabr'Skij Priisk
53.033,11.8,40.7,0.10,Weisen B Wittenberge
53.033,14.0,42.3,0.05,Angermuende
53.048,8.787,41.0,0.05,Bremen
53.05,18.583,39.5,0.08,Torun
53.05,136.033,28.0,2.95,Burukan
53.067,132.933,32.0,0.01,Ekimcan
53.1,20.35,37.1,0.12,Mlawa
53.1,23.167,36.9,0.08,Bialystok
53.1,160.033,30.0,0.08,Cape Shipunskiy
53.117,26.0,38.3,0.00,Baranovichi
53.133,45.017,48.0,0.00,Penza
53.168,158.454,30.8,2.95,Yelizovo
53.183,111.717,33.0,0.00,Ust-Zaza
53.217,63.617,53.3,0.08,Kostanay
53.317,-60.417,30.5,0.00,Goose Bay Ua
53.333,7.2,41.6,0.06,Emden/Hafen
53.35,13.083,42.5,0.02,Neustrelitz
53.35,59.083,47.5,0.00,Magnitogorsk
53.35,75.45,55.5,0.00,Ertis
53.4,10.683,41.0,0.31,Boizenburg (Aut)
53.4,14.617,41.1,0.20,Szczecin
53.417,11.783,42.0,0.05,Parchim
53.45,16.5,38.0,0.17,Nadarzyce
53.467,122.4,33.6,0.00,Ignasino
53.483,42.633,47.7,0.02,Zametchino
53.505,50.164,57.5,0.00,Kurumoch
53.533,8.583,43.5,0.04,Bremerhaven
53.533,115.617,32.6,0.04,Tungokocen
53.583,55.934,50.6,0.00,Sterlitamak
53.6,24.05,37.2,0.00,Grodno
53.63,9.988,43.2,0.02,Hamburg
53.633,11.417,42.2,0.02,Schwerin
53.667,-113.467,35.2,0.00,Edmonton/Namao(Mil)
53.7,127.3,34.2,0.00,Zeja
53.717,17.55,35.1,0.22,Chojnice
53.75,14.067,41.0,0.04,Ueckermuende (Aut)
53.75,63.167,50.4,0.04,Fyodorov Sovkhoz
53.75,91.4,46.0,0.00,Abakan
53.75,119.733,35.4,0.00,Mogocha
53.767,12.617,40.7,0.00,Teterow
53.767,20.417,36.9,0.02,Olsztyn
53.817,76.533,53.5,0.00,Mikhailovka
53.833,69.783,56.1,0.20,Krasnoarmejsk
53.864,27.54,43.8,0.00,Minsk 1
53.889,-122.679,38.6,0.00,Prince George
53.917,14.233,42.1,0.01,Swinoujscie
53.95,30.067,40.6,0.00,Mogilev
53.967,-166.85,25.8,0.00,Driftwood Bay
53.967,-101.1,30.3,0.00,The Pas Airport
53.967,105.9,36.6,5.91,Kacug
54.033,108.267,34.4,0.01,Solnethnaya
54.067,21.367,38.7,0.16,Ketrzyn
54.133,22.95,37.9,0.04,Suwalki
54.167,6.35,42.0,0.04,Ufs Tw/Ems (Aut)
54.167,103.017,39.6,0.12,Ust-Uda
54.183,12.083,43.5,0.00,Warnemuende
54.183,15.583,41.2,0.04,Kolobrzeg
54.2,16.15,40.0,0.05,Koszalin
54.217,96.967,38.2,0.04,Verhnjaja Gutara
54.25,-133.05,47.8,0.00,Langara
54.3,155.933,32.0,0.04,Sobolevo
54.367,66.967,51.3,0.04,Blagoveshchenka
54.367,93.433,41.2,0.00,Artemovsk
54.378,18.466,36.5,0.00,Lecha Walesy
54.383,21.317,41.2,0.00,Zeleznodorozny
54.405,-110.279,39.2,0.00,Cold Lake / Group Captain R W Mcnair
54.417,-110.283,39.2,0.00,Cold Lake (Can-Mil)
54.417,142.717,28.6,0.39,Cape Yelizaveti
54.533,9.55,42.4,0.04,Schleswig
54.55,17.75,35.9,0.08,Lebork
54.55,36.367,40.8,0.00,Kaluga
54.558,55.874,54.0,0.00,Ufa
54.567,11.95,44.4,0.00,Gedser
54.583,16.867,40.6,0.04,Ustka
54.6,18.817,36.1,0.00,Hel
54.617,52.8,54.2,0.00,Bugul'Ma
54.617,161.2,31.6,0.12,Kronoki
54.634,25.286,39.0,0.00,Vilnius Intl
54.683,13.433,40.5,0.01,Arkona (Cape)
54.733,130.45,24.8,0.02,Loksak
54.75,32.067,40.8,0.00,Smolensk
54.817,46.583,50.5,0.00,Alatyr'
54.833,69.15,56.2,0.08,Petropavlovsk
54.85,111.15,37.0,0.00,Tassa
54.883,23.833,38.7,0.08,Kaunas
54.883,99.033,43.8,0.00,Nizne-Udinsk
54.89,20.593,38.1,0.04,Khrabrovo
54.967,73.311,57.7,0.00,Omsk Tsentralny
55.0,15.083,38.0,0.16,Dueodde (Cape)
55.0,57.983,51.8,0.00,Kropacevo
55.033,44.5,48.2,0.00,Lukojanov
55.033,126.8,31.0,0.00,Unaha
55.039,-131.579,47.3,0.00,Annette Island Airport
55.117,159.067,32.0,0.00,Dolinovka
55.183,124.667,27.4,0.00,Tynda
55.2,165.983,33.0,2.95,Ostrov Beringa
55.221,-162.733,25.4,0.00,Cold Bay Arpt
55.383,101.033,38.0,0.16,Tanguj
55.433,120.667,32.0,0.00,Srednjaja Olekma
55.467,113.617,28.8,0.00,Uakit
55.509,-4.587,49.5,0.02,Prestwick
55.583,155.583,30.0,0.01,Ica
55.606,49.279,56.0,0.00,Kazan
55.618,12.656,41.4,0.04,Kastrup
55.75,88.317,46.8,0.00,Tisul'
55.767,52.067,53.3,0.00,Elabuga
55.783,109.55,31.8,0.02,Nizhneangarsk
55.833,37.617,44.6,0.00,Moskva Vdnh (Dolgoprudnyj)
55.867,26.617,39.8,2.95,Daugavpils
55.933,158.667,25.5,0.00,Esso
55.95,98.0,38.3,0.01,Tajshet
55.983,82.7,43.7,2.95,Pihtovka
56.0,-160.517,17.1,0.00,Port Moller
56.0,92.883,42.6,0.00,Krasnojarsk
56.05,105.833,36.8,0.18,Orlinga
56.067,63.65,55.3,0.00,Sadrinsk
56.1,69.433,54.5,0.08,Ishim
56.117,40.35,46.8,0.00,Vladimir
56.167,163.317,29.5,5.91,Cape Afrika
56.217,89.55,43.2,0.01,Bogotol
56.283,131.133,21.7,2.95,Toko
56.317,28.9,37.5,0.00,Idrica
56.317,160.833,32.0,0.00,Kljuchi
56.333,46.583,51.0,0.00,Koz'Modem'Jansk
56.35,78.35,47.5,0.01,Severnoe
56.371,101.698,36.4,0.04,Bratsk
56.45,138.15,23.5,0.16,Ayan
56.467,49.0,50.5,0.00,Morki
56.5,84.917,42.5,2.95,Tomsk
56.65,-111.217,39.8,0.00,Fort Mcmurray Awos Arpt
56.65,57.783,46.2,0.00,Krasnoufimsk
56.743,60.803,43.7,0.00,Koltsovo
56.833,124.867,23.8,0.00,Culman/Neriugri
56.867,105.7,38.6,0.04,Ust'-Kut
56.883,35.867,41.4,0.04,Tver'
56.9,74.383,45.8,2.95,Tara
56.9,93.133,39.7,0.05,Bol'Shaja Murta
56.9,118.267,31.4,0.00,Chara
56.917,23.967,38.7,0.00,Riga
56.933,72.667,51.3,0.00,Bol'Sie Uki
57.048,-135.365,51.4,0.00,Sitka Japonski Ap
57.083,54.75,49.0,0.00,Nozovka
57.083,156.7,30.6,0.00,Ust'- Hajrjuzovo
57.15,31.183,41.4,0.00,Holm
57.155,-170.222,29.2,0.00,St Paul Island Airport
57.333,43.117,50.0,0.00,Jur'Evec
57.55,49.95,50.2,0.00,Nolinsk
57.65,163.233,28.3,2.95,Ozernoy (Mys)
57.667,46.633,52.0,0.00,Sakun'Ja
57.751,-152.486,32.7,0.00,Kodiak Airport
57.767,108.067,35.7,0.09,Kirensk
57.784,28.396,38.0,0.00,Pskov
57.967,33.233,35.0,0.39,Valdaj
58.05,63.683,49.2,0.00,Turinsk
58.133,52.583,50.5,0.00,Glazov
58.15,68.25,50.2,2.95,Tobol'Sk
58.2,102.75,35.6,0.00,Ust-Ilimsk
58.204,8.085,45.4,0.02,Kjevik
58.307,26.69,39.0,0.00,Tartu
58.317,82.95,33.2,0.16,Kolpasevo
58.357,-134.564,48.3,0.00,Juneau Municipal Arpt
58.367,45.533,51.8,0.00,Sar'Ja
58.411,-135.709,49.4,0.00,Gustavus
58.417,24.467,38.1,0.00,Pjarnu-Sauga
58.417,116.017,34.2,0.20,Svetly
58.483,-62.65,16.6,0.00,Saglek
58.483,41.533,47.1,2.95,Buj
58.55,109.767,37.5,0.09,Ichera
58.583,76.517,35.5,0.12,Novyj Vasyugan
58.617,125.367,26.9,0.00,Aldan
58.633,86.733,34.2,0.08,Stepanovka
58.65,-162.067,16.6,0.00,Cape Newenham Afs
58.65,49.617,51.7,2.95,Kirov
58.683,-156.656,21.6,0.00,King Salmon Airport
58.733,-94.05,20.0,0.04,Churchill A Ua  Man
58.833,-122.6,48.1,0.00,Fort Nelson Ua
58.877,5.638,43.3,0.00,Sola / Stavanger
58.983,54.65,47.8,0.00,Kudymkar
59.05,80.833,29.5,0.04,Kargasok
59.117,159.967,27.0,0.00,Palana
59.25,163.033,21.0,0.00,Ossora
59.283,106.167,35.0,5.91,Ika
59.367,28.6,34.3,0.39,Kingisepp
59.413,24.833,35.4,0.04,Lennart Meri Tallinn
59.45,-146.317,38.0,0.00,Middleton Island Aut
59.45,112.583,34.6,0.04,Vitim
59.512,-139.671,47.3,0.00,Yakutat State Ap
59.533,70.417,33.8,0.16,Limkoyevskiye
59.6,60.533,39.7,2.95,Serov
59.642,-151.491,36.4,0.00,Homer Municipal Arpt
59.65,33.55,39.2,0.00,Tihvin
59.749,-154.909,23.3,0.00,Iliamna Arpt
59.767,22.95,36.1,0.02,Hanko Russaro
59.8,30.263,33.1,0.00,Pulkovo
59.911,150.72,25.0,0.00,Sokol
60.02,-111.962,45.3,0.00,Fort Smith Ua - Nt
60.117,10.833,43.7,0.02,Hakadal
60.122,19.898,39.6,0.02,Mariehamn
60.167,-132.733,3.3,0.00,Teslin (Aut)  Yt
60.194,11.1,39.3,0.02,Gardermoen / Oslo
60.317,24.963,35.0,0.39,Helsinki Vantaa
60.333,51.55,43.4,0.00,Kazim
60.333,102.267,32.5,0.00,Vanavara
60.35,84.083,26.2,0.00,Vanzil'-Kynak
60.383,26.967,35.0,0.71,Kotka Rankki
60.4,120.417,32.1,0.00,Olekminsk
60.433,169.667,20.5,0.00,Apuka
60.467,40.2,37.6,0.00,Vozega
60.489,-145.451,39.4,0.00,M.K.(Mudhole) Smith Arpt
60.5,74.017,25.0,0.12,Ugut
60.514,22.263,38.4,0.08,Turku
60.533,116.233,34.7,0.00,Njuja
60.55,171.083,26.0,0.00,Topata-Olyutorskaya
60.58,-151.239,38.0,0.00,Kenai Municipal Ap
60.683,60.45,32.0,0.16,Ivdel'
60.71,-135.067,45.4,0.00,Whitehorse Intl / Erik Nielsen Intl
60.717,28.733,37.0,0.29,Vyborg
60.717,114.883,32.4,0.00,Lensk
60.717,142.783,21.7,0.00,Uega
60.733,163.017,19.0,0.00,Chemurnaut
60.785,-161.829,7.8,0.00,Bethel Airport
60.817,23.5,39.0,0.28,Jokioinen
60.817,125.317,28.4,0.00,Isit'
60.85,151.767,11.1,2.95,Atka
60.9,131.983,25.7,0.00,Amga
61.017,36.45,39.4,0.04,Vytegra
61.1,-155.567,13.4,0.00,Sparrevohn Afs
61.169,-150.028,40.0,0.00,Anchorage Intl Ap
61.233,46.717,35.4,0.00,Kotlas
61.25,-149.8,40.2,0.00,Anchorage/Elmendorf
61.267,108.017,38.4,0.00,Erbogacen
61.35,166.0,26.4,0.01,Korf
61.462,21.8,39.9,0.04,Pori
61.483,129.15,24.2,0.00,Pokrovsk
61.572,-149.54,43.5,0.00,Yakataga Ap
61.583,-159.533,12.2,0.00,Aniak Airport
61.6,90.017,33.8,0.00,Bor
61.647,50.845,37.3,0.00,Syktyvkar
61.683,53.683,41.0,0.00,Ust'-Kulom
61.717,30.717,38.6,0.04,Sortavala
61.76,-121.237,47.6,0.00,Fort Simpson
61.783,-166.033,10.1,0.00,Cape Romanzoff Afs
61.817,34.267,36.9,0.16,Petrozavodsk
61.917,158.983,18.8,0.00,Najahan
62.017,129.717,29.5,0.00,Jakutsk
62.033,132.6,21.0,0.00,Curapca
62.05,175.283,8.5,0.00,Hatyrka
62.1,42.9,36.6,0.01,Shenkursk
62.15,117.65,31.6,0.00,Suntar
62.159,-145.459,40.6,0.00,Gulkana Airport
62.167,64.0,26.8,1.38,Tuzkin-Kurt
62.32,-150.095,38.5,0.00,Talkeetna State Arpt
62.399,25.678,34.3,0.02,Jyvaskyla
62.433,166.083,13.9,0.00,Kamenskoe
62.45,66.05,26.5,0.20,Oktjabr'Skoe
62.483,86.283,25.7,0.00,Kellog
62.517,-153.883,20.5,0.00,Farewell Faa Ap
62.663,29.608,36.3,0.04,Joensuu
62.7,56.2,29.0,0.35,Troicko-Pecherskoe
62.717,101.117,32.0,0.08,Kerbo
62.883,-155.967,19.5,0.00,Tatalina Lrrs
62.883,108.433,35.2,0.00,Nakanno
62.917,152.417,19.2,0.00,Sejmchan
62.957,-155.61,20.9,0.00,Mcgrath Arpt
62.962,-141.988,44.5,0.00,Northway Airport
63.007,27.798,35.7,0.14,Kuopio
63.051,21.762,37.0,0.02,Vaasa
63.217,113.633,28.5,0.00,Syuldyukar
63.25,143.15,6.0,0.00,Ojmjakon
63.283,118.333,31.3,0.00,Njurba
63.317,-168.967,3.5,0.00,Northeast Cape
63.331,-149.127,33.9,0.00,Summit Airport
63.458,10.94,39.6,0.35,Vaernes / Trondheim
63.517,129.483,23.7,0.00,Batamaj
63.55,53.817,26.5,0.00,Uhta
63.583,45.633,33.4,0.00,Sura
63.767,34.283,34.6,0.00,Segeza
63.767,121.617,32.0,2.95,Viljujsk
63.833,30.817,32.2,0.04,Reboly
63.883,-160.8,10.1,0.00,Unalakleet Field
63.886,-152.302,29.8,0.00,Minchumina
63.9,38.117,39.0,0.00,Onega
63.95,135.867,16.3,0.00,Tompo
63.967,-22.6,35.9,0.00,Keflavik Naval Air Station
63.994,-145.721,38.8,0.00,Allen Army Airfield
64.0,158.917,11.3,0.00,Kedon
64.217,164.233,5.0,0.00,Verhnee Penzino
64.267,100.233,30.2,0.00,Tura
64.285,27.692,34.2,0.08,Kajaani
64.299,-96.078,10.6,0.00,Baker Lake
64.511,-165.44,1.0,0.00,Nome Municipal Arpt
64.55,-149.072,37.2,0.00,Nenana Municipal Ap
64.6,40.717,34.2,0.00,Talagi
64.65,-147.067,38.2,0.00,Fairbanks/Eielson A
64.7,-162.05,5.9,0.00,Moses Point
64.733,-156.933,20.7,0.00,Galena A.
64.735,177.741,4.5,0.00,Ugolny
64.75,32.117,29.7,0.00,Juskozero
64.75,47.65,29.8,0.00,Kojnas
64.804,-147.876,40.1,0.00,Fairbanks International
64.833,-147.617,41.6,0.00,Wainwright Aaf
64.85,-147.583,41.2,0.00,Ladd Aab
64.93,25.355,37.4,0.06,Oulu
65.0,130.683,16.6,2.95,Syuryun-Kyuyel'
65.175,-152.107,30.9,0.00,Tanana Ralph M Calhoun Mem Ap
65.2,36.817,28.3,0.00,Zizgin
65.217,31.167,33.0,0.00,Kalevala
65.283,-126.8,47.8,0.00,Norman Wells Arpt
65.467,72.667,9.5,0.00,Nadym
65.567,-167.917,6.3,0.00,Tin City Afs
65.782,24.599,36.7,0.05,Kemi Tornio
65.783,-169.083,3.2,0.02,Ratmanova Island
65.783,87.989,28.0,0.00,Turuhansk
65.867,44.217,26.7,0.00,Mezen'
65.988,29.239,31.6,0.01,Kuusamo
66.0,-153.7,24.3,0.00,Indian Mountain Afs
66.183,39.533,26.8,0.00,Pjalica
66.383,93.117,31.0,0.04,Kochundek
66.54,-151.31,31.7,0.00,Bettles Field
66.567,-145.267,43.2,0.00,Fort Yukon
66.633,72.933,-0.8,0.00,Nyda
66.767,123.4,26.2,0.00,Zhigansk
66.867,-162.633,-5.1,0.00,Kotzebue Ralph Wein Memorial
67.017,-50.689,-1.2,0.00,Sondre Stromfjord / Kangerlussuaq
67.15,32.35,36.0,0.00,Kandalaksha
67.269,14.365,42.7,0.00,Bodo
67.35,37.05,25.8,0.00,Krasnoscel'E
67.395,26.619,36.3,0.02,Sodankyla
67.467,86.567,10.5,0.00,Igarka
67.567,30.4,32.0,0.00,Kovdor
68.304,-133.483,39.3,0.00,Inuvik Mike Zubko
68.607,27.405,33.9,0.00,Ivalo
68.75,161.283,-6.7,0.00,Cherskij
68.782,32.751,27.9,0.00,Murmansk
68.883,-166.133,2.9,0.00,Cape Lisburne Afs
68.967,28.783,30.2,0.00,Yaniskoski
69.056,18.54,42.3,0.00,Bardufoss
69.117,36.067,27.7,0.00,Dalne-Zelenetskaya
69.2,35.117,28.5,0.00,Teriberka
69.283,18.133,43.5,0.00,Kistefjell
69.4,30.233,29.3,0.00,Nikel
69.4,86.167,0.3,0.00,Dudinka
69.733,-163.017,3.5,0.00,Point Lay Liz 2
70.133,113.967,16.5,0.00,Dzalinda
70.134,-143.577,21.0,0.00,Barter Island Airport
70.167,-124.7,20.5,0.00,Cape Parry
70.5,-149.883,18.5,0.00,Oliktok Pow 2
70.5,-117.633,29.0,0.00,Holman Island
70.617,-159.85,11.0,0.00,Wainwright Liz 3
70.917,-153.25,21.2,0.00,Lonely
71.283,-156.782,15.8,0.00,W Post-Will Rogers Memorial Airport
71.95,-124.733,24.8,0.00,Sachs Harbour
73.183,143.233,-0.5,0.00,Mys Shalaurova
74.3,-20.217,18.1,0.39,Daneborg (Aut)
74.717,-94.969,2.8,0.00,Resolute Bay
76.15,152.833,-1.5,0.00,Zohova Island
76.233,-119.333,9.1,0.00,Mould Bay Airport
76.4,-68.133,-3.3,0.00,Camp Tuto Icecap Sta
76.517,-68.833,0.0,0.00,Thule Op Site
76.531,-68.703,0.4,0.00,Pituffik Space Base
78.783,-103.533,1.4,0.00,Isachsen (Maps)
79.983,-85.933,-16.1,0.00,Eureka
82.5,-62.333,-5.2,0.00,Alert
