lat,lon,temp,precip,name
-90.0,0.0,-95.8,0.00,Amundsen-Scott
-80.017,-119.533,-15.5,0.00,Byrd Station
-77.883,166.733,13.3,0.00,Mcmurdo Sound Naf
-77.733,-41.117,-16.0,0.00,Ellsworth Igy
-72.3,170.217,3.0,0.00,Adare Hallett
-66.267,110.567,15.7,0.00,Wilkes
-52.55,169.15,45.0,0.00,Campbell Island
-46.412,168.313,50.0,0.00,Invercargill
-46.167,166.633,49.7,0.00,Puysegur Pt (Lgt-H)
-45.767,170.733,54.0,0.00,Taiaroa Head
-43.81,-176.457,55.8,0.00,Chatham Islands
-43.489,172.532,61.0,0.00,Christchurch Intl
-42.883,147.333,51.0,0.00,Hobart (Ellerslie Road)
-42.836,147.51,49.3,0.00,Hobart
-42.717,170.983,59.2,0.00,Hokitika Aerodrome
-41.75,171.6,56.5,0.00,Westport Harbour
-41.545,147.214,46.9,0.00,Launceston
-41.327,174.805,60.6,0.00,Wellington Intl
-41.283,174.767,58.5,0.00,Wellington
-40.55,173.0,60.0,0.00,Farewell Spit
-39.017,174.183,58.7,0.00,New Plymouth Aerodr
-38.099,147.149,54.3,0.00,East Sale
-37.867,144.75,55.8,0.00,Laverton Raaf
-37.817,144.967,56.7,0.00,Melbourne Regional Office
-37.733,144.9,55.0,0.00,Essendon Airport
-37.728,144.902,54.9,0.00,Melbourne Essendon
-36.788,174.63,54.4,0.00,Whenuapai
-36.317,141.633,54.0,0.00,Nhill Aerodrome
-35.307,149.195,54.2,0.00,Canberra
-35.165,147.466,56.5,0.00,Wagga Wagga
-35.067,173.283,60.7,0.00,Kaitaia Aerodrome
-35.02,117.88,65.7,0.00,Albanytown
-34.95,138.533,58.6,0.00,Adelaide
-34.949,150.537,59.2,0.00,Nowra
-34.93,138.58,61.0,0.00,Adelaide (West Terrace)
-33.95,151.2,61.9,0.00,Sydney Intl Airport
-33.946,151.177,61.7,0.00,Sydney Intl
-33.85,151.2,61.4,0.00,Sydney (Observatory Hill)
-32.795,151.834,61.5,0.00,Williamtown
-32.133,133.7,59.4,0.00,Ceduna Amo
-32.0,141.47,55.9,0.00,Brokenhillaero
-31.97,141.45,56.0,0.00,Brokenhillp.O. (Rly Station
-31.94,115.967,68.1,0.00,Perth Intl
-31.933,115.967,68.2,0.00,Perth Intl/Belmont
-31.917,115.867,69.4,0.00,Perth Metro
-31.5,19.726,71.8,0.00,Calvinia
-31.391,-54.112,53.9,0.00,Comandante Gustavo Kraemer
-31.144,136.817,61.2,0.00,Woomera
-31.08,150.85,58.4,0.00,Tamworthamo/Mo.From1966
-30.833,128.1,62.7,0.00,Forrest Airport
-30.789,121.462,63.2,0.00,Kalgoorlie Boulder
-30.321,153.116,65.5,0.00,Coffs Harbour
-29.25,-177.933,67.0,0.00,Raoul Island Kermadec Islands
-28.796,114.708,75.2,0.00,Geraldton
-28.705,121.891,56.8,0.00,Murrin Murrin
-27.55,135.45,70.6,0.00,Oodnadatta Airport
-27.483,153.033,68.5,0.00,Brisbane
-27.45,-59.056,58.6,0.00,Resistencia
-27.417,153.067,68.2,0.00,Brisbane Airport
-27.386,-55.971,56.8,0.00,Posadas
-27.383,153.117,68.1,0.00,Brisbane Intl Arpt
-26.833,-65.2,60.8,0.00,Tucuman/Teniente Be
-26.757,-60.493,58.2,0.00,Presidencia Roque Saenz Pena / Termal
-26.614,118.537,71.6,0.00,Meekatharra Airport
-26.413,146.263,59.8,0.00,Charleville
-25.528,-49.176,59.1,0.00,Afonso Pena
-25.033,128.3,71.7,0.00,Giles Meteorological Office
-24.9,152.317,68.7,0.00,Bundaberg Aero
-24.9,152.32,69.0,0.00,Bundabergaero
-24.888,113.67,76.8,0.00,Carnarvon Airport
-24.856,-65.486,57.6,0.02,Salta
-24.721,-60.549,60.2,0.00,Alferez Armando Rodriguez
-23.85,151.267,70.0,0.00,Gladstone Radar
-23.8,133.917,65.2,0.00,Alice Springs Arpt
-23.382,150.475,66.9,0.00,Rockhampton
-23.007,-47.135,71.1,0.00,Viracopos
-21.67,115.12,84.7,0.00,Onslowamo
-21.117,149.217,70.4,0.00,Mackay Mo
-20.667,140.5,74.8,0.00,Cloncurry Airport
-20.469,-54.673,72.5,0.00,Campo Grande
-20.378,118.626,83.5,0.00,Port Hedland Intl
-19.851,-43.951,71.9,0.00,Pampulha Carlos Drummond De Andrade
-19.28,121.5,89.4,0.00,Talgarnoamo/Mo1959-1961
-19.25,146.767,76.4,0.00,Townsville(Civ/Mil)
-17.945,122.232,85.8,0.00,Broome Intl
-17.755,177.443,80.0,0.02,Nadi Intl
-17.652,-39.253,75.4,0.00,Caravelas
-17.583,-69.45,41.7,0.00,Charana
-16.883,145.767,77.5,0.00,Cairns Airport
-16.513,-68.192,48.0,0.08,El Alto Intl
-16.27,133.38,80.4,0.00,Dalywatersamo
-15.863,-47.913,72.4,0.00,Presidente Juscelino Kubitschek
-15.833,20.35,74.8,0.00,Mavinga
-15.383,-75.167,68.3,0.00,San Juan De Marcona
-15.2,12.15,80.6,0.00,Mocamedes
-14.925,13.575,66.4,0.00,Lubango
-14.65,17.683,72.5,0.00,Menongue (Serpa Pinto)
-12.809,15.761,67.3,0.00,Huambo
-12.415,130.877,83.8,0.00,Darwin Intl
-12.367,13.533,82.0,0.00,Lobito
-11.9,-76.967,67.5,0.00,Linatakbc
-10.951,142.459,69.0,0.00,Bamaga Injinoo
-10.7,13.75,80.2,0.00,Porto Amboim
-10.683,35.583,69.8,0.00,Songea
-10.567,142.217,79.5,0.00,Thursday Island
-10.339,40.182,79.8,0.00,Mtwara
-9.689,20.432,78.3,0.08,Saurimo
-9.525,16.312,74.0,0.12,Malanje
-9.334,-54.965,75.1,0.00,Cachimbo / Campo De Provas Brigadeiro Veloso
-8.933,33.467,64.4,0.00,Mbeya
-8.858,13.231,74.8,0.00,Luanda 4 De Fevereiro
-8.217,114.383,80.2,0.00,Banyuwangi
-7.97,-14.394,79.9,0.00,Ascension Aux Af
-7.733,109.017,81.0,0.16,Cilacap
-7.669,35.752,70.2,0.00,Iringa
-7.616,111.434,79.4,0.00,Iswahyudi
-7.217,112.717,77.6,0.00,Surabaya/Perak
-6.901,107.576,74.7,0.00,Husein Sastranegara
-6.878,39.203,78.7,0.00,Mwalimu Julius K Nyerere Intl
-6.222,39.225,82.8,0.00,Zanzibar / Abeid Amani Karume Intl
-6.17,35.753,73.4,0.00,Dodoma
-6.15,106.85,80.8,0.00,Jakarta/Kemayoran
-5.683,132.75,83.8,0.00,Tual/Dumatubun
-5.597,12.188,82.0,0.08,Cabinda
-5.092,39.071,83.0,0.00,Tanga
-5.083,32.833,75.6,0.00,Tabora Airport
-4.883,29.633,77.0,0.00,Kigoma
-4.883,38.283,81.8,0.00,Mombo
-4.674,55.522,84.8,0.00,Seychelles Intl
-4.45,105.183,85.0,0.00,Menggala/Astra Kset
-4.083,37.717,78.0,0.00,Same
-4.082,122.417,83.0,0.00,Wolter Monginsidi
-4.035,39.594,82.3,0.00,Mombasa Moi Intl
-3.71,128.089,82.8,0.08,Pattimura
-3.4,38.567,81.8,0.00,Voi
-3.368,36.633,68.2,0.00,Arusha
-3.35,37.333,76.2,0.00,Moshi
-2.444,32.933,74.0,0.00,Mwanza
-2.283,37.833,77.4,0.00,Makindu
-2.252,40.913,85.0,0.00,Lamu Manda
-2.17,106.13,77.4,1.69,Pangkalpinang / Depati Amir
-1.5,33.8,76.5,0.00,Musoma
-1.379,-48.476,76.4,0.00,Val De Cans Julio Cezar Ribeiro Intl
-1.333,31.817,71.2,0.00,Bukoba
-1.319,36.928,66.3,0.00,Jkia / Nairobi Jomo Kenyatta Intl
-1.3,36.75,66.5,0.00,Nairobi/Dagoretti
-1.25,29.983,61.0,0.00,Kabale
-1.133,35.833,68.4,0.00,Narok
-0.617,30.65,69.6,0.00,Mbarara
-0.464,39.648,87.0,0.00,Garissa
-0.267,36.1,67.8,0.00,Nakuru
-0.086,34.729,74.6,0.00,Kisumu
0.017,37.067,65.2,0.00,Nanyuki
0.042,32.444,71.4,0.00,Entebbe Intl
0.45,33.183,74.6,0.00,Jinja
0.461,101.445,84.6,0.00,Sultan Syarif Kasim Ii
0.483,35.3,68.0,0.00,Eldoret
0.637,122.85,86.0,0.00,Jalaluddin / Djalaluddin
0.683,34.167,75.2,0.00,Tororo
0.972,34.959,69.2,0.00,Kitale
1.133,127.5,84.2,0.00,Sahu Southeast
1.36,103.91,82.8,0.00,Paya Lebar
1.393,-77.291,64.5,0.00,Antonio Narino
1.485,110.347,79.8,0.00,Kuching Intl
1.556,98.889,85.5,0.00,Pinang Sore / Dr Ferdinand Lumbantobing
2.05,129.317,82.8,1.65,Morotai/Pitu
2.263,102.252,81.6,1.81,Malacca
2.45,103.833,83.8,0.24,Mersing
2.806,32.272,77.4,0.00,Gulu
3.122,35.609,89.4,0.00,Lodwar
3.124,113.02,79.5,0.87,Bintulu
3.131,101.549,82.9,0.16,Sultan Abdul Aziz Shah Intl
3.2,106.25,84.2,0.00,Tarempa
3.543,-76.382,75.8,0.00,Alfonso Bonilla Aragon Intl
3.775,103.209,79.1,0.31,Kuantan
3.933,41.867,87.0,0.00,Mandera
4.217,100.7,81.0,0.24,Sitiawan
4.322,113.987,79.2,0.71,Miri
4.567,101.1,83.6,3.54,Ipoh
4.702,-74.147,56.5,0.00,El Dorado Intl
4.872,31.601,84.7,0.04,Juba
5.297,100.277,81.3,0.08,Penang Intl
5.301,115.25,81.7,0.47,Labuan
5.333,103.133,84.2,0.00,Kuala Trengganu/Clim
5.874,95.34,82.4,0.00,Maimun Saleh
5.901,118.059,82.5,0.28,Sandakan
5.937,116.051,78.7,0.94,Kota Kinabalu Intl
6.05,121.0,80.3,0.51,Jolo
6.167,102.293,83.3,0.00,Sultan Ismail Petra
6.2,100.4,84.6,0.04,Alor Star
6.22,-75.591,68.7,0.08,Olaya Herrera
6.52,101.743,82.0,0.00,Narathiwat
6.922,122.06,81.4,0.00,Zamboanga Intl
6.967,158.217,82.2,0.00,Weather Service Building
7.065,171.272,82.5,0.00,Weather Service Office Building
7.067,125.6,80.8,0.43,Davao
7.167,124.217,81.0,0.47,Cotobato
7.187,100.608,85.9,0.00,Songkhla
7.333,134.483,81.2,0.00,Koror Wso
7.45,151.833,82.5,0.00,Chuuk Wso Ap
7.533,99.05,83.8,0.20,Ko Lanta
8.113,98.317,82.5,0.00,Phuket Intl
8.15,125.133,74.1,0.12,Malaybalay
8.3,73.15,81.8,0.00,Minicoy
8.367,126.333,76.3,1.97,Hinatuan
8.471,99.956,85.5,0.00,Cha Ian
8.483,76.95,84.2,0.00,Thiruvananthapuram
8.483,124.65,82.5,0.04,Cagayan De Oro
8.683,106.6,83.6,0.00,Con Son
8.733,167.733,82.0,0.00,Kwajalein Missle Ran
8.967,-79.55,79.8,0.00,Albrook Afb/Balboa
9.133,99.136,84.9,0.00,Surat Thani
9.183,105.15,83.9,0.00,Ca Mau
9.483,138.083,83.1,0.00,Yap Island Wso Ap
9.559,31.652,89.0,0.00,Malakal
9.6,105.967,84.1,0.00,Ba-Xuyen/Soc Trang
9.742,118.759,85.0,0.28,Puerto Princesa
9.778,98.585,84.7,0.00,Ranong
9.967,76.233,85.0,0.00,Fort Cochin
9.967,98.583,84.8,0.00,Victoria Point
10.0,105.083,86.3,0.00,Rach Gia
10.043,-69.359,75.2,0.02,Barquisimeto Intl
10.217,103.967,82.2,0.00,Phu Quoc
10.25,-67.649,80.4,0.02,Mariscal Sucre
10.333,107.083,87.0,0.00,Vungtau/Phare
10.333,123.9,86.3,0.00,Lahug
10.558,-71.728,83.7,0.02,La Chinita Intl
10.711,99.362,84.2,0.00,Chumphon
10.765,78.71,86.3,0.00,Tiruchirappalli
10.819,106.652,84.9,0.00,Tan Son Nhat Intl
10.85,121.0,85.2,0.00,Cuyo
10.89,-74.781,79.9,0.00,Ernesto Cortissoz
10.933,108.1,82.3,0.00,Phan Thiet
11.228,125.028,81.0,0.39,Daniel Z Romualdez
11.25,75.783,86.2,0.00,Kozhikode
11.35,162.35,82.7,0.00,Enewetak  Marshall Is
11.415,-69.681,82.0,0.00,Jose Leonardo Chirinos
11.417,-7.5,84.6,0.00,Bougouni
11.567,108.067,77.2,0.00,Di Linh
11.667,92.717,85.7,0.00,Port Blair
11.667,125.45,80.4,0.94,Borongan
11.75,108.383,73.6,0.00,Became Stn 488811
11.767,79.767,85.2,0.00,Cuddalore
11.767,102.883,86.8,0.00,Khlong Yai
11.788,99.805,86.2,0.00,Prachuap
11.809,-66.179,79.7,0.00,La Orchila
11.991,-83.774,82.0,0.00,Bluefields
12.141,-86.168,85.0,0.00,Managua Intl / Augusto Cesar Sandino Intl
12.189,-68.96,80.2,0.00,Hato
12.217,120.2,86.3,0.00,Coron
12.25,109.2,82.2,0.00,Nha Trang
12.369,123.629,84.0,0.02,Masbate
12.433,98.6,84.2,0.00,Mergui
12.55,103.85,90.0,0.00,Pursat
12.583,122.283,83.5,0.00,Romblon
12.6,102.117,86.7,0.00,Chanthaburi
12.633,-7.967,91.0,0.00,Bamako
12.636,99.952,85.4,0.00,Hua Hin
12.683,108.083,78.1,0.00,Banmethuot
12.833,45.033,84.3,0.00,Aden Khormaksar
12.85,-11.233,96.3,0.00,Kenieba
12.95,77.633,82.4,0.00,Bangalore/Hindustan Airport
12.994,80.181,87.2,0.00,Chennai Intl
13.067,-9.467,95.8,0.00,Kita
13.083,109.283,84.2,0.00,Tuy-Hoa
13.153,30.233,87.3,0.00,El Obeid
13.157,123.746,82.7,0.00,Legazpi
13.167,32.667,90.0,0.00,Kosti/Rabak
13.233,11.983,93.2,0.00,Maine-Soroa
13.333,-4.833,90.0,0.00,San
13.4,-6.15,90.5,0.00,Segou
13.417,121.183,85.0,0.00,Calapan/Mindoro Isl
13.482,2.184,91.9,0.00,Diori Hamani
13.483,22.45,88.5,0.00,Geneina
13.483,144.8,81.1,0.00,Guam Wfo
13.503,7.127,93.0,0.00,Maradi
13.567,144.917,79.5,0.00,Andersen Afb
13.576,124.206,81.3,0.00,Virac
13.615,25.325,83.5,0.00,El Fashir
13.699,-89.12,77.0,0.00,Ilopango Intl
13.7,102.504,88.0,0.00,Aranyaprathet
13.733,100.567,88.8,0.00,Bangkok Metropolis
13.767,109.217,82.7,0.00,Quy Nhon
13.779,8.984,90.3,0.00,Zinder
13.8,5.25,89.3,0.00,Birni-N'Konni
13.913,100.607,89.4,0.00,Bangkok Intl / Don Mueang Intl
14.005,108.017,74.5,0.00,Pleiku
14.017,99.533,90.8,0.00,Kanchana Buri
14.047,-83.387,82.0,0.00,Puerto Cabezas
14.061,-87.217,72.6,0.00,Toncontin Intl
14.078,101.38,91.8,0.00,Khao E To
14.1,98.217,88.0,0.00,Dawei
14.117,93.367,87.3,0.00,Coco Island
14.117,122.95,83.4,0.00,Daet/Bagasbas
14.2,1.45,93.0,0.00,Tillabery
14.25,13.117,89.7,0.00,N'Guigmi
14.45,79.983,87.2,0.00,Nellore
14.482,-11.44,96.0,0.00,Kayes/Dag-Dag
14.5,120.9,86.2,0.00,Sangley Point
14.509,121.02,86.3,0.00,Ninoy Aquino Intl
14.513,-4.08,92.6,0.00,Ambodedjo
14.583,-90.527,68.3,0.00,La Aurora
14.583,77.633,90.0,0.00,Pbo Anantapur
14.8,100.617,94.6,0.00,Lop Buri
14.8,120.267,86.2,0.00,Cubi Point Nf
14.876,5.265,91.4,0.00,Tahoua
14.935,102.079,90.6,0.00,Khorat
15.116,145.7,82.0,0.00,Saipan Mariana Is/Kobler
15.117,105.767,80.8,0.00,Pakse
15.117,145.7,81.7,0.00,Saipan Marshall Isla
15.133,108.783,82.6,0.00,Quang Ngai
15.186,120.56,85.4,0.00,Clark Intl / Diosdado Macapagal Intl
15.251,104.87,95.0,0.00,Ubon Ratchathani
15.333,-1.683,99.2,0.00,Hombori
15.387,36.329,93.0,0.00,Kassala
15.417,75.633,85.0,0.43,Gadag
15.453,-87.924,78.8,0.00,La Mesa Intl / Ramon Villeda Morales Intl
15.589,32.553,89.2,0.00,Khartoum
15.673,100.137,95.0,0.00,Nakhon Sawan
15.776,-87.476,78.8,0.00,Tela
15.8,102.033,96.0,0.00,Chaiyaphum
15.867,2.217,89.2,0.00,Menaka
16.044,108.199,82.2,0.00,Danang Intl
16.07,103.646,92.6,0.00,Rob Muang
16.083,120.35,86.7,0.00,Dagupan
16.248,-0.005,94.9,0.00,Gao
16.267,122.133,80.1,0.00,Casiguran
16.402,107.703,85.1,0.00,Phubai
16.467,102.784,97.7,0.00,Khon Kaen
16.5,-15.817,88.4,0.00,Rosso
16.5,97.617,87.0,0.00,Mawlamyine
16.533,104.717,88.6,0.00,Mukdahan
16.55,111.617,83.6,0.00,Hoang Sa (Pattle)
16.59,-11.406,102.7,0.00,Kiffa
16.6,-6.733,101.0,0.00,Nema
16.711,-9.638,101.5,0.00,Aioun El Atrouss
16.73,-3.008,98.5,0.00,Tombouctou
16.733,-169.517,77.2,0.00,Johnston Is Wso Ap
16.733,107.183,87.0,0.00,Quang Tri
16.767,94.767,86.8,0.00,Pathein
16.783,100.279,95.0,0.00,Phitsanulok
16.833,112.333,82.8,0.00,Xisha Dao
16.9,96.183,88.0,0.00,Mingaladon
16.907,96.133,90.5,0.00,Yangon Intl
16.967,7.967,88.2,0.00,Agadez / Mano Dayak
17.033,54.083,83.0,0.00,Salalah
17.039,54.091,83.0,0.00,Salalah
17.15,104.133,86.5,0.00,Sakon Nakhon
17.386,102.788,93.5,0.00,Udon Thani
17.439,101.722,89.8,0.00,Loei
17.452,78.461,87.5,0.00,Begumpet Airport / Hyderabad Intl
17.533,-14.683,97.0,0.00,Boutilimit
17.539,-88.308,84.8,0.00,Philip S W Goldson Intl
17.617,100.1,95.0,0.00,Uttaradit
17.628,75.935,91.5,0.00,Solapur
17.7,-64.813,79.9,0.00,Christiansted Hamilton Field
17.7,33.967,89.0,0.00,Atbara
17.988,102.563,88.3,0.00,Wattay Intl
18.098,-15.948,99.8,0.00,Nouakchott
18.178,120.532,86.1,0.00,Laoag Intl
18.217,109.583,83.7,0.00,Sanya
18.255,-65.641,78.6,0.00,Roosevelt Roads
18.271,99.504,89.2,0.00,Lampang
18.336,-64.98,79.5,0.00,Charlotte Amalie Harry S Trum
18.367,121.633,84.1,0.00,Aparri
18.433,-66.011,75.2,0.00,San Juan L M Marin Intl Ap
18.467,-66.117,76.4,0.00,San Juan Ns
18.467,94.35,85.4,0.00,Sandoway
18.5,-67.133,76.7,0.00,Aquadilla/Borinquen
18.533,73.85,89.4,0.00,Pune
18.55,31.85,86.3,0.00,Karima
18.57,-11.424,97.3,0.00,Tidjikja
18.683,12.917,96.8,0.00,Bilma
18.767,98.963,85.2,0.00,Chiang Mai Intl
18.808,100.783,91.8,0.00,Nan
19.089,72.868,85.5,0.00,Chhatrapati Shivaji Maharaj Intl
19.1,108.617,87.0,0.00,Dongfang
19.233,110.467,83.8,0.02,Qionghai
19.267,121.467,83.1,0.00,Calayan
19.283,166.65,79.2,0.00,Wake Island
19.301,97.976,92.2,0.00,Mae Hong Son
19.533,33.317,86.8,0.00,Abu Hamed
19.583,37.217,81.8,0.00,Port Sudan
19.719,-155.053,72.1,0.00,Hilo International Ap
19.75,-14.367,95.8,0.00,Akjoujt
19.883,75.333,92.8,0.00,Aurangabad
19.897,102.161,89.6,0.00,Luang Phabang Intl
19.9,-75.15,79.2,0.00,Guantanamo Bay Naval Air Station
20.0,110.25,85.1,0.24,Haikou
20.133,92.873,84.6,0.00,Sittwe
20.451,121.98,83.2,0.00,Basco
20.507,-13.043,93.0,0.00,Atar
20.85,88.25,83.6,0.00,Sandheads
20.9,-156.429,75.3,0.00,Kahului Airport
20.9,70.367,81.4,0.00,Veraval
21.092,79.047,92.8,0.00,Dr Baba Saheb Ambedkar Intl
21.2,72.833,84.2,0.00,Surat
21.217,110.4,78.4,0.04,Zhanjiang
21.221,105.807,82.4,0.00,Noibai Intl
21.317,-158.067,75.6,0.00,Barbers Point
21.324,-157.929,76.4,0.00,Honolulu International Airport
21.433,-71.133,78.8,0.00,Grand Turk Island
21.45,-157.783,75.7,0.00,Kaneohe Bay Mcas
21.5,39.2,84.6,0.00,Jeddah Intl
21.817,31.483,82.8,0.00,Halfa (Wadi)
21.867,111.967,76.0,1.06,Yangjiang
21.95,108.617,77.7,0.05,Qinzhou
21.984,-159.341,74.5,0.00,Lihue Airport
22.15,105.833,84.0,0.00,Bac Can
22.15,113.592,76.5,0.08,Macau Intl
22.267,112.783,74.6,0.85,Tai-Shan
22.3,114.167,77.3,0.00,Hong Kong Observatory
22.35,91.817,86.0,0.00,Chittagong
22.35,103.817,74.1,0.00,Sa Pa
22.35,110.933,75.9,3.35,Xinyi
22.367,106.75,80.6,0.02,Longzhou
22.5,103.95,84.4,0.05,He-Kou
22.5,103.967,86.7,0.00,Lao Cai
22.608,108.172,74.6,0.00,Wuxu
22.639,113.811,78.0,0.67,Baoan Intl
22.655,88.447,89.4,0.00,Netaji Subhash Chandra Bose Intl
22.667,106.25,81.3,0.00,Cao Bang
22.683,-12.7,93.0,0.00,F Derik
22.722,75.801,87.2,0.00,Devi Ahilyabai Holkar
22.767,81.9,87.4,0.00,Pendra Road
22.767,100.983,73.1,0.00,Simao
22.783,115.367,76.2,0.04,Shanwei
22.95,120.206,80.9,0.00,Tainan
23.05,112.467,73.8,1.73,Gaoyao
23.077,72.635,89.0,0.00,Ahmedabad / Sardar Vallabhbhai Patel Intl
23.178,80.052,86.6,0.00,Jabalpur
23.267,90.7,87.7,0.00,Chandpur
23.287,77.337,89.2,0.00,Bhopal / Raja Bhoj
23.288,69.67,84.2,0.00,Bhuj
23.392,113.299,73.0,0.38,Baiyun Intl
23.4,110.083,70.6,0.00,Guiping
23.4,116.683,71.6,0.04,Shantou / Chaoshan
23.45,103.333,80.7,0.00,Mengzi
23.462,120.393,80.3,0.00,Chiayi
23.467,87.433,91.0,0.00,Panagarh
23.483,111.3,68.4,0.71,Wuzhou
23.6,101.983,86.6,0.00,Yuanjiang
23.7,-15.867,68.0,0.00,Villa Cisneros(Mil)
23.767,90.383,87.0,0.00,Dacca/Tezgaon
23.8,114.733,72.0,0.75,Heyuan
23.8,117.55,68.0,0.04,Guleitou
23.887,91.24,86.4,0.00,Agartala
23.9,106.6,77.9,0.04,Baise
23.95,100.217,72.4,0.00,Lincang
23.964,32.82,84.2,0.00,Aswan Intl
24.067,105.067,65.6,0.04,Guangnan
24.179,23.314,79.9,0.00,Kufra
24.265,120.621,74.5,0.00,Taichung Intl / Ching Chuang Kang Ab
24.267,97.2,90.2,0.00,Bhamo
24.283,116.067,71.7,0.87,Mei Xian
24.3,91.733,87.0,0.00,Srimangal
24.35,109.4,66.1,0.08,Liuzhou
24.544,118.128,67.4,1.14,Gaoqi
24.553,39.705,84.4,0.00,Prince Mohammad Bin Abdulaziz
24.555,-81.752,77.5,0.00,Key West Intl Arpt
24.567,80.833,86.4,0.00,Satna
24.583,-81.683,77.1,0.00,Key West Nas
24.583,73.7,82.8,0.00,Udaipur
24.667,113.6,63.5,1.22,Shaoguan
24.7,108.05,70.7,3.15,Hechi
24.722,46.725,79.5,0.00,King Salman Ab
24.784,141.323,72.1,0.00,Iwoto
24.8,112.367,61.7,0.63,Lianzhou
24.867,121.233,73.3,0.00,Lung Tan(Tafb)
24.907,67.161,82.0,0.00,Jinnah Intl
24.95,115.65,66.0,0.24,Xunwu
24.992,102.744,68.4,0.00,Wujiaba / Changshui
25.056,121.243,72.2,0.00,Taoyuan
25.069,121.552,74.2,0.00,Songshan
25.1,117.017,68.5,0.47,Longyan
25.117,99.183,67.8,0.00,Baoshan
25.183,75.85,88.2,0.00,Kota-In-Rajasthan
25.218,110.039,58.9,1.22,Liangjiang
25.329,55.517,79.5,0.00,Sharjah Intl
25.35,55.383,79.5,0.00,Ash Shariqah Sw
25.367,97.4,86.3,0.00,Myitkyina
25.433,105.183,59.5,0.02,Xingren
25.433,106.767,68.5,0.05,Luodian
25.44,81.734,87.2,0.00,Allahabad Arpt
25.45,30.533,80.2,0.00,Kharga
25.483,-80.383,76.5,0.00,Homestead Afb Airport
25.5,28.967,77.8,0.00,Dakhla
25.517,69.783,90.0,0.00,Chhor
25.517,119.783,63.1,0.51,Pingtan
25.583,103.833,59.0,0.02,Zhanyi
25.671,32.707,84.2,0.00,Luxor Intl
25.7,100.183,68.1,0.00,Dali
25.717,118.1,57.9,0.28,Jiuxian Shan
25.733,101.867,85.6,0.00,Yuanmou
25.733,112.967,54.6,1.65,Chenzhou
25.75,71.383,88.8,0.00,Barmer
25.75,88.917,85.9,0.00,Saidpur
25.791,-80.316,75.6,0.00,Miami Intl Ap
25.85,114.95,65.1,0.42,Ganzhou
25.914,-97.423,79.6,0.00,Brownsville/S Padre Island Intl Ap
25.967,108.533,63.5,0.59,Rongjiang
25.967,117.35,68.2,1.04,Yong'An
26.083,119.283,64.5,0.69,Fuzhou
26.133,34.25,78.3,0.00,Kosseir
26.166,-97.346,83.8,0.00,Port Isabel Cameron County Ap
26.196,127.646,75.0,0.00,Naha
26.228,-97.654,82.4,0.00,Valley International Arpt
26.233,111.617,54.6,1.34,Lingling
26.251,73.049,88.0,0.00,Jodhpur
26.265,50.152,81.5,0.00,King Abdulaziz Ab
26.267,50.617,80.9,0.00,Bahrain/Muharraq
26.267,127.75,72.9,0.00,Futenma
26.293,78.228,86.5,0.00,Gwalior
26.35,127.767,73.6,0.00,Kadena Ab
26.356,127.768,73.6,0.00,Kadena Ab
26.539,106.801,55.9,0.05,Longdongbao
26.617,-78.367,75.4,0.00,Gold Rock Creek
26.633,118.15,69.0,0.63,Nanping
26.65,102.25,67.0,0.00,Huili
26.685,-80.099,74.0,0.00,West Palm Beach Intl Arpt
26.74,83.45,87.4,0.00,Gorakhpur
26.824,75.812,83.4,0.00,Jaipur
26.833,100.217,62.0,0.02,Lijing
26.85,116.333,63.5,0.24,Guangchang
26.933,112.583,54.5,0.63,Hengyang
26.933,120.067,57.5,0.16,Songcheng Northeast
27.047,31.012,83.8,0.00,Asyut Intl
27.05,27.983,84.2,0.00,Farafra
27.117,114.967,59.0,0.20,Ji'An
27.183,111.45,54.0,1.73,Shaoyang
27.3,105.233,50.7,0.09,Bijie
27.3,112.7,40.4,1.18,Nanyue
27.333,103.75,47.3,0.02,Zhaotong
27.333,120.2,62.4,0.16,Fuding
27.45,109.683,56.4,1.85,Zhijiang
27.5,-97.817,79.7,0.00,Kingsville
27.544,-99.461,82.8,0.00,Laredo Air Force Base
27.583,116.65,61.5,0.38,Nancheng
27.683,-97.283,75.7,0.00,Corpus Christi Nas
27.7,106.883,56.0,0.20,Zunyi
27.733,89.083,36.5,0.00,Pagri
27.774,-97.512,78.6,0.00,Corpus Christi International Airport
27.8,114.383,54.1,0.16,Yichun
27.85,-82.517,72.1,0.00,Mac Dill Afb Airport
27.9,102.267,62.6,0.00,Xichang
27.917,118.533,64.2,0.22,Pucheng
27.932,-15.387,67.6,0.00,Gran Canaria
27.95,117.833,51.6,0.87,Qixian Shan
27.962,-82.54,73.0,0.00,Tampa Intl Arpt
28.0,73.3,82.6,0.00,Bikaner
28.017,120.667,60.0,0.39,Wenzhou
28.2,-177.383,65.7,0.00,Henderson Field Airport
28.2,113.083,54.0,0.47,Changsha/Datuopu
28.209,33.646,76.2,0.00,El Tor
28.233,-80.6,71.6,0.00,Patrick Afb Airport
28.333,28.867,82.8,0.00,Baharia
28.367,-97.667,77.3,0.00,Beeville Chase Naas
28.394,129.553,70.9,2.20,Naze/Funchatoge
28.422,79.451,83.2,0.00,Bareilly
28.434,-81.325,74.9,0.00,Orlando International Airport
28.45,98.883,42.3,0.07,Deqen
28.45,119.917,65.0,0.08,Lishui
28.45,121.883,54.2,0.16,Dachen Dao
28.467,110.4,56.3,0.25,Yuanling
28.483,-80.567,71.9,0.00,Cocoa Beach Cape Kennedy Afs
28.545,-81.333,76.2,0.00,Orlando Municipal Arpt
28.585,77.206,82.4,0.00,Safdarjung
28.617,121.417,57.8,0.28,Hongjia
28.783,-97.083,77.7,0.00,Victoria
28.8,104.6,63.0,0.02,Yibin
28.817,120.917,48.5,0.39,Kuocang Shan
28.833,108.767,57.6,0.36,Youyang
28.865,115.9,58.5,0.31,Changbei Intl
28.883,105.433,61.5,0.39,Luzhou
28.95,107.15,40.7,0.20,Jinfo Shan (Mount)
28.967,-89.383,73.1,0.00,Burrwood Wb
28.967,118.867,60.7,0.31,Qu Xian
29.0,101.5,55.4,0.02,Jiulong
29.033,21.567,74.3,0.00,Jalo
29.033,114.583,54.1,0.30,Xiushui
29.05,111.683,56.0,0.20,Changde
29.117,15.95,68.7,0.00,Hon
29.167,-82.217,75.2,0.00,Ocala Intl J Taylor
29.179,75.755,83.2,0.00,Hisar
29.183,-81.048,72.6,0.00,Daytona Beach Regional Arpt
29.2,25.483,84.0,0.00,Siwa
29.267,-100.283,71.6,0.00,Del Rio(Nexrad)
29.273,-94.859,73.6,0.00,Galveston Scholes Field
29.3,117.2,60.1,1.14,Jingdezhen
29.317,47.667,83.7,0.00,Jahra
29.367,-100.783,83.1,0.00,Laughlin Afb Airport
29.369,-10.18,65.0,0.00,Sidi Ifni
29.383,-98.583,77.3,0.00,Lackland Air Force Base (Kelly Field Annex)
29.383,113.083,54.0,0.56,Yueyang
29.517,103.333,27.7,0.26,Emei Shan
29.517,106.483,58.5,0.35,Chong-Qing
29.533,-98.262,77.1,0.00,Randolph Afb Airport
29.544,-98.484,78.3,0.00,San Antonio International Airport
29.567,94.467,50.4,0.15,Nyingchi
29.583,105.05,62.3,0.00,Neijiang
29.583,115.983,46.2,0.28,Lu Shan
29.617,-95.167,75.9,0.00,Ellington Field Airport
29.633,-95.267,77.8,0.00,William P Hobby
29.667,91.133,56.0,0.00,Lhasa / Gonggar
29.75,24.533,76.6,0.00,Gighbub
29.75,115.917,57.3,0.20,Fenlu Southeast
29.8,47.767,85.3,0.00,Umm Al-Aish
29.817,-90.017,71.7,0.00,New Orleans Alvin Callender F
29.917,73.917,81.8,0.00,Ganganagar
29.951,-94.021,74.9,0.00,Port Arthur Jefferson County
29.997,-90.278,75.3,0.00,Louis Armstrong New Orleans Intl Ap
30.0,99.1,63.2,0.05,Batang
30.0,100.267,44.6,0.22,Litang
30.033,-91.883,74.4,0.00,New Iberia Naas
30.033,122.117,55.5,1.23,Dinghai
30.067,-85.583,71.8,0.00,Tyndall Afb Airport
30.122,31.406,87.8,0.00,Cairo Intl
30.125,-93.228,73.4,0.00,Lake Charles Regional Airport
30.133,118.15,42.0,0.55,Huang Shan
30.183,-97.68,79.4,0.00,Austin-Bergstrom Intl Airport
30.2,-97.683,79.8,0.00,Bergstrom Afb/Austi
30.203,71.419,83.4,0.00,Multan Intl
30.21,-93.143,73.1,0.00,Lake Charles Wb Airp
30.228,120.432,55.8,0.12,Xiaoshan
30.233,-81.667,75.3,0.00,Jacksonville Nas
30.283,109.467,60.0,1.02,Enshi
30.317,78.033,80.0,0.00,Dehradun
30.321,-97.76,78.6,0.00,Austin Mueller Municipal Ap
30.35,-87.317,73.0,0.00,Pensacola Forest Sherman Nas
30.35,119.417,43.2,0.47,Tianmu Shan (Mtns)
30.383,76.767,82.8,0.00,Ambala
30.386,130.659,64.5,0.16,Yakushima
30.393,-84.353,71.4,0.00,Tallahassee Dale Mabry Field
30.4,-81.417,74.1,0.00,Mayport Ns
30.417,-88.917,75.3,0.00,Keesler Air Force Base
30.417,-86.683,71.1,0.00,Hurlburt Field Airport
30.483,-87.35,73.4,0.00,Pensacola Saufley Nas
30.483,-86.517,72.8,0.00,Eglin Afb Airport
30.495,-81.694,76.0,0.00,Jacksonville International Airport
30.511,-99.766,78.4,0.00,Junction
30.533,-87.2,76.2,0.00,Pensacola Ellyson Fld Naas
30.537,-91.147,73.9,0.00,Baton Rouge Ryan Arpt
30.567,32.1,83.3,0.00,Abu Suwayr
30.579,103.947,58.9,0.09,Shuangliu
30.617,116.967,56.0,0.91,Anqing
30.626,-88.068,72.4,0.00,Mobile Downtown Airport
30.65,-86.517,77.6,0.00,Duke Fld
30.683,107.8,57.4,0.06,Liangping
30.688,-88.246,73.4,0.00,Mobile Regional Ap
30.717,-87.017,71.9,0.00,Whiting Field Nas
30.717,20.167,66.1,0.00,Agedabia
30.717,130.983,64.3,0.24,Tanegashima
30.733,111.367,57.6,0.28,Yichang
30.733,122.45,55.6,0.42,Shengsi
30.75,106.133,60.0,0.63,Gaoping
30.784,114.208,53.4,0.32,Tianhe
30.967,-83.2,74.7,0.00,Moody Afb/Valdosta
31.017,102.367,46.3,0.00,Xiao-Jin
31.017,109.533,59.2,0.20,Fengjie
31.083,33.817,64.3,0.00,El Arish-Agrimet
31.133,-97.717,78.0,0.00,Hood Aaf Airport
31.15,97.167,50.0,0.08,Qamdo
31.167,112.633,55.3,0.06,Zhongxiang
31.184,29.949,75.7,0.00,Alexandria Intl
31.198,121.336,56.5,0.32,Hongqiao Intl
31.2,16.583,63.5,0.00,Sirte
31.2,107.5,59.9,0.39,Da Xian
31.236,-94.754,76.2,0.00,Lufkin Angelina Co
31.25,-81.467,71.9,0.00,Brunswick Glynn Co A
31.267,-85.717,72.4,0.00,Cairns Army Airfield (Fort Rucker)
31.267,32.3,75.7,0.00,Port Said
31.267,130.3,64.0,0.04,Makurazaki
31.317,-92.55,75.6,0.00,Alexandria Int
31.325,27.222,69.8,0.00,Mersa Matruh
31.333,118.35,56.0,1.18,Wu-Hu
31.352,-100.495,76.7,0.00,San Angelo Regional/Maths Field Ap
31.393,-92.296,75.1,0.00,Esler Field Aaf
31.4,116.333,53.5,1.57,Huoshan
31.417,95.6,41.1,0.12,Dengqen
31.433,119.483,62.3,0.34,Liyang
31.483,92.067,32.1,0.00,Nagqu
31.5,34.45,77.5,0.00,Ghazza
31.514,10.598,64.2,0.00,Nalut
31.533,25.183,66.7,0.00,Salloum
31.55,74.333,81.0,0.00,Lahore City
31.55,130.55,65.1,0.01,Kagoshima
31.583,131.4,63.2,0.12,Aburatsu
31.588,-110.344,54.5,0.00,Sierra Vista Municipal-Libby Aaf Airport
31.607,-8.036,75.2,0.00,Menara
31.617,100.0,41.0,0.19,Garze
31.619,-97.228,77.9,0.00,Waco Regional Airport
31.633,-97.067,77.5,0.00,Waco James Connally Afb
31.733,131.083,59.5,0.08,Miyakonojo
31.742,118.862,55.4,0.12,Lukou
31.767,119.95,56.5,0.08,Changzhou
31.78,117.298,54.7,0.24,Luogang / Xinqiao
31.811,-106.376,63.9,0.00,El Paso International Airport
31.833,-106.4,62.4,0.00,Biggs Afb
31.867,23.9,65.8,0.00,Tobruk
31.9,102.233,39.2,0.07,Barkam
31.933,131.417,60.7,0.12,Miyazaki
31.948,-102.209,69.3,0.00,Midland International Airport
32.009,-81.146,72.2,0.00,Hunter Aaf
32.033,130.2,60.8,0.08,Akune
32.067,108.033,60.4,0.14,Wanyuan
32.084,131.451,60.2,0.00,Nyutabaru
32.097,20.269,61.9,0.00,Benina Airport
32.117,-7.883,73.9,0.00,Ben Guerir Air Base
32.131,-110.955,59.2,0.00,Tucson International Ap
32.131,-81.202,72.8,0.00,Savannah/Hilton Head Intl Airport
32.133,114.05,50.6,0.31,Xinyang
32.15,112.667,51.8,0.22,Zaoyang
32.167,-110.883,59.2,0.00,Davis-Monthan Afb Airport
32.167,115.617,52.7,0.30,Gushi
32.2,130.033,63.0,0.08,Ushibuka
32.217,-101.517,69.0,0.00,Webb Afb
32.217,130.75,60.4,0.04,Hitoyoshi
32.243,15.021,62.1,0.00,Misurata
32.267,-64.85,68.7,0.00,Little Sound
32.283,-106.917,61.0,0.00,Las Cruces Intl
32.3,-86.408,72.7,0.00,Montgomery Dannelly Field
32.3,72.35,81.0,0.00,Khushab
32.321,-90.078,75.3,0.00,Jackson International Airport
32.333,-90.233,75.0,0.00,Jackson 4 Nw
32.333,103.733,50.7,0.07,Zhenjiangguan
32.335,-88.744,74.4,0.00,Meridian Key Field
32.35,-86.983,75.6,0.00,Craig Fld
32.35,-85.0,73.0,0.00,Lawson Aaf Airport
32.367,-64.683,67.2,0.00,Naval Atlantic Meterology & Oceanography Facility
32.383,-86.35,73.9,0.00,Maxwell Afb Airport
32.411,-99.682,71.0,0.00,Abilene Regional Airport
32.433,-99.85,70.4,0.00,Abilene Dyess Afb
32.433,105.8,60.8,0.00,Guang-Yuan
32.433,111.733,55.7,0.12,Laohekou
32.447,-93.824,76.1,0.00,Shreveport Regional Arpt
32.483,-80.717,72.8,0.00,Beaufort Mcas
32.5,-93.667,76.6,0.00,Barksdale Air Force Base
32.516,-84.942,76.1,0.00,Columbus Metro Airport
32.555,12.056,65.0,0.00,Zuara
32.567,-117.117,55.7,0.00,Imperial Beach Ream Field Nas
32.583,-116.983,53.3,0.00,Chula Vista Brown Field Naas
32.633,-108.167,56.1,0.00,Silver City Grant Co
32.633,-106.4,61.0,0.00,White Sands Missile Range Site No.39
32.633,-83.6,73.0,0.00,Robins Afb Airport
32.664,13.159,64.6,0.00,Tripoli Intl
32.667,-114.6,66.7,0.00,Yuma Intl Arpt
32.667,103.6,33.8,0.24,Songpan
32.685,-83.653,73.3,0.00,Macon Middle Ga Regional Ap
32.7,-117.2,57.4,0.00,North Island Nas
32.717,109.033,61.7,0.08,Ankang
32.717,133.017,62.3,0.02,Shimizu
32.733,-96.967,75.0,0.00,Dallas Hensley Field Nas
32.733,129.867,59.9,0.08,Nagasaki
32.733,130.267,53.0,0.12,Unzendake
32.734,-117.183,58.4,0.00,San Diego Lindbergh Field
32.767,-97.45,73.4,0.00,Fort Worth Naval Air Station Jrb/Carswell Field
32.767,35.7,70.2,0.00,Fiq
32.782,-98.06,73.1,0.00,Mineral Wells Airport
32.783,22.583,64.8,0.00,Derna
32.8,21.883,56.9,0.00,Shahat
32.817,130.7,61.0,0.01,Kumamoto
32.833,-114.4,65.9,0.00,Yuma Proving Ground
32.85,-106.1,58.7,0.00,Holloman Afb
32.85,117.3,53.2,0.12,Bengbu
32.85,120.283,55.3,0.04,Dongtai
32.852,-96.856,75.5,0.00,Dallas Love Field Airport
32.867,-117.133,56.9,0.00,San Diego Miramar Nas
32.867,115.733,51.0,0.30,Fuyang
32.883,131.067,46.4,0.12,Asosan
32.898,-97.019,75.1,0.00,Dallas-Fort Worth Intl Ap
32.899,-80.041,72.4,0.00,Charleston Afb/International Airport
32.9,13.283,66.2,0.00,Wheelus Fld
32.917,132.7,60.5,0.02,Sukumo
32.933,113.917,52.9,0.26,Zhumadian
33.017,96.95,39.6,0.08,Yushu
33.023,-118.588,61.9,0.00,Nalf/F. Sherman Fld Arpt
33.067,107.033,59.9,0.39,Hanzhong
33.1,112.483,56.1,0.12,Nanyang
33.117,139.783,55.6,0.08,Hachijojima
33.167,129.733,58.5,0.12,Sasebo
33.2,126.267,56.2,0.00,Mosulpo (Kor-Afb)
33.233,131.617,55.5,0.01,Oita
33.233,132.55,59.5,0.02,Uwajima
33.237,-107.268,53.1,0.00,Truth Or Consequences Muni Ap
33.25,-119.45,56.0,0.00,San Nicholas Island
33.25,134.183,57.4,0.01,Murotomisaki
33.267,130.3,58.9,0.02,Saga
33.3,-111.667,64.6,0.00,Williams Gateway Airport
33.308,-104.508,60.3,0.00,Roswell International Air Center Ap
33.317,130.933,56.5,0.01,Hita
33.364,-81.963,74.3,0.00,Augusta Bush Field
33.367,-7.59,61.8,0.00,Mohammed V
33.367,129.55,55.4,0.08,Hirado
33.4,-104.533,61.2,0.00,Roswell Muni Ap
33.4,104.917,54.5,0.00,Wudu
33.428,-112.004,61.7,0.00,Phoenix Sky Harbor Intl Ap
33.433,-112.367,63.4,0.00,Litchfield Park Naf
33.433,129.433,58.2,0.35,Ikitsukijima
33.45,135.75,59.3,0.02,Shionomisaki
33.456,-93.988,75.9,0.00,Texarkana Regional Airport-Webb Field
33.483,36.233,70.0,0.00,Damascus /Dimasho
33.483,38.667,69.5,0.00,Jabal Ettanf
33.55,-112.367,62.9,0.00,Luke Afb Airport
33.557,-7.66,62.2,0.00,Anfa
33.566,-86.745,71.9,0.00,Birmingham Municipal Ap
33.567,133.55,59.6,0.02,Kochi
33.583,130.383,57.9,0.01,Fukuoka
33.586,130.451,57.0,0.00,Fukuoka
33.6,-102.05,61.3,0.00,Reese Afb/Lubbock
33.6,119.033,52.1,0.20,Qingjiang
33.63,-84.442,69.9,0.00,Atlanta Hartsfield Intl Ap
33.65,-88.45,74.6,0.00,Columbus Afb Airport
33.65,130.7,56.1,0.02,Iizuka
33.666,-101.823,63.8,0.00,Lubbock International Airport
33.667,-117.733,55.6,0.00,El Toro Mcas
33.683,-78.933,72.5,0.00,Myrtle Beach Intl Airport
33.7,-117.833,61.0,0.00,Marine Corps Air Station
33.75,99.65,26.8,0.06,Darlag
33.75,105.75,56.0,0.43,Cheng-Xian
33.783,-118.05,58.7,0.00,Los Alamitos
33.783,114.517,51.6,0.24,Xihua
33.783,115.733,50.5,0.48,Boxian
33.812,-118.146,56.8,0.00,Long Beach / Daugherty Field / Airport
33.817,-106.667,56.1,0.00,Stallion Aaf  Nm
33.85,132.783,58.1,0.02,Matsuyama
33.85,134.1,34.1,0.00,Tsurugisan
33.879,-5.515,65.8,0.00,Bassatine
33.9,-117.25,54.3,0.00,March Air Reserve Base
33.917,-84.517,70.7,0.00,Dobbins Air Reserve Base Airport
33.921,-80.801,74.2,0.00,Mc Entire Jngb
33.938,-118.389,56.0,0.00,Los Angeles Municipal Arpt
33.942,-81.118,74.4,0.00,Columbia Metro Arpt
33.948,-83.328,70.2,0.00,Athens Municipal Arpt
33.95,130.933,56.2,0.02,Shimonoseki
33.967,-80.8,73.9,0.00,Mcentire Ang
33.967,-80.467,73.4,0.00,Shaw Air Force Base
33.979,-98.493,70.2,0.00,Sheppard Afb/Wichita Falls Muni Ap
34.017,71.583,79.2,0.00,Peshawar
34.033,36.717,63.0,0.00,Nabk
34.05,131.533,55.4,0.02,Wofu
34.067,134.567,55.4,0.00,Tokushima
34.067,136.2,58.3,0.00,Owase
34.083,111.067,55.0,0.02,Lushi
34.095,-117.235,54.9,0.00,San Bernardino International Airport
34.117,-119.117,53.3,0.00,Point Mugu Nf
34.117,139.517,54.0,0.00,Miyakejima
34.15,132.233,56.9,0.00,Iwakuni
34.185,-79.724,74.9,0.00,Florence City County Ap
34.198,129.292,54.2,0.08,Izuhara
34.201,-119.207,53.1,0.00,Oxnard Airport
34.201,-118.358,56.7,0.00,Hollywood Burbank Arpt
34.217,-119.083,52.8,0.00,Oxnard Aaf
34.233,-6.05,65.2,0.00,Sidi Slimane
34.233,135.167,57.0,0.00,Wakayama
34.268,-77.9,73.5,0.00,Wilmington
34.283,117.15,51.7,0.55,Xuzhou
34.3,-6.6,61.8,0.00,Port Lyautey
34.333,134.9,54.5,0.00,Sumoto
34.348,-85.161,72.9,0.00,Rome R B Russell Ap
34.35,107.133,59.1,0.00,Baoji
34.367,139.25,54.3,0.00,Niijima Island
34.383,-103.317,55.6,0.00,Cannon Afb Airport
34.417,40.917,73.5,0.00,Abukmal
34.417,131.4,53.6,0.02,Hagi
34.426,-119.843,59.9,0.00,Santa Barbara Municipal Ap
34.447,108.752,57.9,1.97,Xianyang
34.483,110.083,41.1,1.54,Hua Shan
34.557,38.317,71.0,0.00,Palmyra
34.583,-117.383,52.6,0.00,Southern California Logistics Airport
34.583,105.75,51.0,0.00,Tianshui
34.59,32.988,67.5,0.00,Akrotiri
34.6,138.217,58.5,0.00,Omaezaki
34.6,138.85,56.5,0.00,Irozaki
34.629,-118.084,52.9,0.00,Palmdale Airport
34.633,137.1,56.5,0.00,Irako
34.644,-86.786,72.9,0.00,Huntsville Madison County Arp
34.65,-99.267,67.9,0.00,Altus Afb Airport
34.65,-98.4,66.8,0.00,Henry Post Aaf Airport
34.652,-112.421,45.2,0.00,Prescott Municipal Ap
34.667,-120.583,50.0,0.00,Point Arguello Afwb
34.667,112.417,58.5,1.22,Luo-Yang
34.683,133.917,55.5,0.00,Okayama
34.683,135.517,56.8,0.00,Osaka
34.7,-77.383,79.6,0.00,New River Mcas
34.7,135.217,55.1,0.00,Kobe
34.7,135.833,52.5,0.00,Nara
34.717,104.883,38.8,0.00,Wu-Shan
34.727,-92.239,76.8,0.00,Little Rock Adams Field
34.733,136.517,54.6,0.00,Tsu
34.744,-118.724,43.4,0.00,Sandberg
34.75,-120.567,50.6,0.00,Vandenberg Afb
34.75,137.717,57.8,0.00,Hamamatsu
34.75,139.367,55.2,0.00,Oshima
34.767,-82.383,70.6,0.00,Greenville Donaldson Afb
34.767,136.15,50.8,0.00,Ueno
34.768,-114.619,64.0,0.00,Needles Airport
34.787,-1.924,65.8,0.00,Angads
34.833,134.667,54.0,0.00,Himeji
34.846,-82.346,72.1,0.00,Greenville Downtown Arpt
34.85,119.133,51.1,0.35,Ganyu
34.85,136.467,52.5,0.00,Seki
34.854,-116.786,57.8,0.00,Barstow-Daggett Airport
34.899,-120.449,50.6,0.00,Santa Maria Public Arpt
34.9,-117.867,53.4,0.00,Edwards Air Force Base
34.9,-76.883,73.6,0.00,Cherry Point Mcas
34.9,132.067,53.8,0.02,Hamada
34.917,-92.15,77.9,0.00,Little Rock Afb Airport
34.917,-81.95,70.9,0.00,Spartanburg
34.917,98.217,23.2,0.05,Madoi
34.917,139.833,55.3,0.00,Tokisaki
34.983,-89.783,74.8,0.00,Olive Branch
34.983,138.4,58.0,0.00,Shizuoka
35.0,102.9,30.3,0.04,Hezuo
35.017,135.733,54.5,0.00,Kyoto
35.028,-110.721,44.3,0.00,Winslow Municipal Ap
35.031,-85.201,72.6,0.00,Chattanooga Lovell Field Ap
35.042,-106.616,48.1,0.00,Albuquerque Intl Sunport Airport
35.05,139.1,55.6,0.00,Ajiro
35.056,-89.987,74.5,0.00,Memphis Municipal Arpt
35.067,-108.833,40.9,0.00,Zuni
35.067,134.017,53.3,0.00,Tsuyama
35.083,33.9,64.8,0.00,Ayios Nicolaos
35.083,128.067,53.6,0.00,Sacheon Ab
35.117,36.75,72.0,0.00,Hama
35.117,111.067,55.7,0.02,Yuncheng
35.117,138.933,56.0,0.00,Mishima
35.144,-111.666,33.8,0.00,Flagstaff Pulliam Arpt
35.15,33.283,65.0,0.00,Nicosia Airfield
35.15,140.317,52.2,0.00,Katsuura
35.167,109.05,50.9,0.02,Tongchuan
35.167,129.133,53.1,0.00,Pusan Ast - Rok K-9
35.167,136.967,54.8,0.00,Nagoya
35.174,-79.009,78.1,0.00,Pope Afb Airport
35.18,128.938,50.4,0.00,Gimhae Intl
35.182,-103.603,54.5,0.00,Tucumcari Municipal Arpt
35.224,-80.955,70.3,0.00,Charlotte Douglas Municipal A
35.23,-101.704,56.4,0.00,Amarillo Rick Husband Intl Airport
35.233,-75.622,66.1,0.00,Hatteras Billy Mitchell Ap
35.233,-33.717,70.3,0.00,Gecitkale
35.25,113.95,56.9,0.04,Guguzhai Nw
35.25,115.433,53.5,0.22,Heze/Caozhou
35.267,100.65,31.7,0.07,Tongde
35.283,62.35,70.3,0.00,Gyshgy
35.283,136.25,50.2,0.00,Hikone
35.283,139.667,54.7,0.00,Yokosuka
35.285,40.176,73.5,0.00,Deir Zzor
35.333,-99.2,64.1,0.00,Clinton-Sherman
35.333,-94.363,74.4,0.00,Fort Smith Regional Airport
35.344,-77.965,77.8,0.00,Seymour-Johnson Afb Airport
35.367,138.733,12.9,0.00,Fujisan
35.383,105.0,38.2,0.00,Huajialing
35.389,-97.601,65.5,0.00,Will Rogers World Airport
35.4,136.767,55.2,0.00,Gifu
35.417,-97.383,67.3,0.00,Tinker Afb Airport
35.417,136.417,39.8,0.00,Ibukiyama Mtn (Aut)
35.432,-82.538,68.7,0.00,Asheville Airport
35.433,133.333,50.5,0.00,Yonago
35.434,-119.054,56.8,0.00,Bakersfield Kern County Arpt
35.45,133.067,53.2,0.02,Matsue
35.45,135.317,51.0,0.00,Maizuru
35.45,139.45,55.4,0.08,Atsugi Nas
35.483,134.233,51.0,0.00,Tottori
35.5,138.767,46.2,0.00,Kawaguchiko
35.514,139.394,60.5,0.00,Kastner Aaf / Camp Zama Japan
35.517,139.4,60.2,0.00,Kastner Aaf
35.533,35.767,66.5,0.00,Lattakia
35.533,134.817,50.2,0.00,Toyooka
35.55,106.667,52.7,0.00,Pingliang
35.55,133.233,53.3,0.00,Sakai
35.567,116.85,50.2,0.30,Yanzhou
35.65,136.067,51.1,0.00,Tsuruga
35.654,-105.142,43.4,0.00,Las Vegas Municipal Arpt
35.667,138.55,55.3,0.00,Kofu
35.67,-120.628,52.9,0.00,Paso Robles Municipal Arpt
35.683,139.767,55.8,0.00,Tokyo
35.688,-117.693,54.9,0.00,China Lake Naf
35.7,139.4,52.5,0.00,Tachikawa (Jasdf)
35.733,107.633,49.5,0.00,Xifengzhen
35.733,140.85,52.8,0.00,Choshi
35.748,139.348,52.0,0.00,Yokota Ab
35.75,139.35,52.0,0.00,Fussa
35.818,-83.986,69.5,0.00,Mc Ghee Tyson Airport
35.857,14.478,61.7,0.02,Luqa
35.892,-78.782,75.3,0.00,Raleigh-Durham International Ap
35.894,128.659,55.0,0.00,Daegu Ab
35.917,126.617,56.2,0.00,Kunsan Ab
35.933,39.017,72.0,0.00,Raqqa
35.95,62.917,71.8,0.00,Tagtabazar
35.967,-89.95,74.2,0.00,Arkansas International Airport
35.983,139.067,48.6,0.00,Chichibu
36.0,-86.517,72.1,0.00,Smyrna
36.05,103.883,48.9,0.00,Lanzhou
36.072,-115.163,57.1,0.00,Las Vegas Mccarran Intl Ap
36.083,129.567,54.2,0.00,Changgai Gap
36.097,-79.943,73.0,0.00,Piedmont Triad International Airport
36.119,-86.689,72.5,0.00,Nashville Berry Field
36.125,-90.924,74.9,0.00,Walnut Ridge Municipal Arpt
36.134,-80.222,73.3,0.00,Winston-Salem Reynolds Ap
36.15,111.45,55.2,0.02,Canyu Northeast
36.15,139.383,51.0,0.00,Kumagaya
36.151,-5.35,65.8,0.00,Gibraltar
36.181,37.224,67.2,0.00,Aleppo Intl
36.199,-95.887,67.4,0.00,Tulsa International Airport
36.2,113.117,50.0,0.02,Chang-Zhi
36.2,133.333,52.5,0.00,Saigo
36.217,140.1,46.0,0.00,Tsuksbasan (Mount)
36.25,117.1,35.1,0.28,Tai Shan
36.261,-76.175,77.3,0.00,Monroe Co
36.266,120.374,48.0,0.31,Liuting / Qingdao Intl
36.297,-99.769,57.4,0.00,Gage/Shattuck
36.3,98.1,34.6,0.02,Doulan
36.333,-97.917,58.0,0.00,Vance Afb
36.35,100.783,36.0,0.04,Gonghe
36.383,140.467,51.2,0.00,Mito
36.4,139.067,50.2,0.00,Maebashi
36.417,94.9,39.2,0.00,Golmud
36.45,127.433,55.8,0.00,Taejon Rok K-5
36.473,-82.404,68.0,0.00,Bristol Tri City Airport
36.517,126.317,56.2,0.00,Anmyeondo
36.533,61.217,73.6,0.00,Saragt
36.583,104.683,50.9,0.00,Jingyuan
36.6,-121.867,51.5,0.00,Monterey Naf
36.6,109.5,54.5,0.02,Yan An
36.617,101.767,44.0,0.00,Xining / Caojiapu
36.65,-6.35,61.7,0.00,Rota Nas
36.664,-121.608,53.0,0.00,Salinas Municipal Ap
36.667,-87.483,73.5,0.00,Campbell Aaf Airport
36.683,-121.767,50.1,0.00,Fritzsche Aaf
36.683,116.983,53.9,0.02,Jinan/Tsinan
36.733,139.5,35.6,0.00,Nikko
36.741,-104.502,46.6,0.00,Raton Municipal Crews Field A
36.744,-108.229,41.5,0.00,Farmington Municipal Ap
36.767,119.183,49.6,0.24,Weifang
36.78,-119.719,55.5,0.00,Fresno Yosemite International Airport
36.8,-116.267,54.1,0.00,Jackass Flats
36.817,-76.033,78.4,0.00,Oceana Nas
36.867,81.7,60.6,0.00,Yutian/Keriya
36.883,122.417,50.0,0.16,Shidao
36.903,-76.192,77.8,0.00,Norfolk Regional Arpt
36.95,-76.3,78.4,0.00,Norfolk Fleet Wf Nas
36.95,-76.283,78.2,0.00,Norfolk Nas
37.021,41.191,67.2,0.00,Kamishly
37.033,111.917,52.1,0.00,Jiexiu
37.056,-88.774,71.9,0.00,Paducah Barkley Field
37.083,-76.36,76.9,0.00,Langley Afb Airport
37.087,-84.077,70.5,0.00,London-Corbin Ap
37.091,127.03,56.5,0.00,Osan Ab
37.133,-76.6,79.0,0.00,Felker Army Airfield
37.133,79.933,61.4,0.00,Hotan
37.175,-5.616,62.6,0.00,Moron Ab
37.2,102.867,34.0,0.00,Wushaoling
37.239,127.007,56.0,0.00,Suwon
37.24,-93.39,63.0,0.00,Springfield Municipal Arpt
37.262,-104.338,43.0,0.00,Trinidad Las Animas County Ap
37.287,67.31,77.3,0.00,Termez
37.317,-79.974,73.2,0.00,Roanoke Woodrum Arpt
37.321,-79.207,78.0,0.00,Lynchburg Municipal Arpt
37.367,97.367,37.3,0.08,Delingha
37.371,-118.358,54.3,0.00,Bishop Airport
37.383,-120.567,57.9,0.00,Castle Afb
37.4,14.917,63.2,0.00,Sigonella
37.406,-122.048,52.3,0.00,Mountain View Moffett Fld Nas
37.433,116.317,56.1,0.00,Dezhou
37.439,-105.861,35.4,0.00,Alamosa Arpt
37.467,53.967,60.0,0.00,Esenguly
37.483,105.683,53.0,0.00,Zhongning
37.5,71.5,56.8,0.00,Khorog
37.5,117.533,53.9,0.00,Huimin
37.5,129.133,56.9,0.00,Donghae Radar
37.505,-77.32,78.9,0.00,Richmond Intl Ap
37.533,74.833,19.0,0.00,Sajmak
37.55,121.367,53.2,0.07,Yantai Northeast
37.558,126.791,57.4,0.00,Gimpo
37.567,126.967,57.8,0.00,Seoul City
37.6,62.183,78.7,0.00,Bajramaly
37.617,-97.267,55.9,0.00,Mcconnell Afb Airport
37.617,54.783,60.7,0.00,Gyzyletrek
37.62,-122.365,53.3,0.00,San Francisco Intl Ap
37.648,-97.43,56.2,0.00,Wichita Municipal Arpt
37.67,-95.484,56.7,0.00,Chanute Martin Johnson Ap
37.7,72.95,33.8,0.00,Bulun-Kul
37.706,-112.146,29.2,0.00,Bryce Cnyn Faa Ap
37.709,-113.094,37.8,0.00,Cedar City Municipal Ap
37.721,-122.221,53.2,0.00,Oakland Metropolitan
37.747,112.628,49.0,0.01,Wusu
37.754,128.944,51.8,0.00,Gangneung
37.769,-99.968,49.7,0.00,Dodge City Municipal Arpt
37.783,-122.317,55.6,0.00,Naval Air Station
37.783,126.85,61.4,0.00,Yeongdongri
37.8,107.383,51.8,0.00,Yanchi
37.833,65.2,76.9,0.00,Kerki Intl
37.85,91.483,36.3,0.00,Ziliujing West
37.882,23.735,63.3,0.00,Athinai
37.884,127.718,57.2,0.00,A 306
37.9,-85.967,71.9,0.00,Godman Aaf Airport
37.917,127.05,59.4,0.00,Camp Casey/Tongduch
37.933,124.667,50.3,0.00,Baengnyeongdo Ab
37.95,128.317,56.2,0.00,Hyun Ni (Kor-Army)
37.967,126.567,53.6,0.00,Kaesong
37.987,58.361,67.3,0.00,Ashgabat
38.017,128.133,55.9,0.00,Kwandae Ri Team 840
38.033,125.7,53.5,0.00,Haeju
38.041,-84.606,69.9,0.00,Lexington Bluegrass Field
38.044,-87.521,74.0,0.00,Evansville Dress Regional Arp
38.049,-103.512,45.0,0.00,La Junta Municipal Ap
38.051,-117.09,42.0,0.00,Tonopah Airport
38.067,-122.5,50.7,0.00,Hamilton Aaf
38.067,114.35,59.8,0.20,Shijiazhuang
38.083,102.917,55.0,0.00,Caiqi Southeast
38.131,-91.768,64.8,0.00,Vichy Rolla Natl Arpt
38.139,-78.453,77.4,0.00,Charlottesville Faa
38.15,85.55,61.1,0.00,Qiemo/Qarqan
38.181,-85.739,71.9,0.00,Louisville Standiford Field
38.233,127.967,55.6,0.00,Wonju Ab
38.25,-78.05,74.7,0.00,Orange Co
38.25,140.35,44.8,0.02,Yamagata
38.267,-121.933,55.2,0.00,Travis Air Force Base
38.267,109.783,50.2,0.00,Yulin
38.289,-104.506,44.0,0.00,Pueblo Memorial Airport
38.3,-76.417,75.6,0.00,Naval Air Station
38.333,116.833,58.3,0.00,Cangzhou
38.341,-75.51,76.6,0.00,Salisbury Wicomico Co Ap
38.379,-81.59,76.7,0.00,Charleston Kanawha Arpt
38.417,-113.017,49.5,0.00,Milford Municipal Ap
38.433,56.3,55.0,0.00,Garryqala
38.433,77.267,61.8,0.00,Shache
38.45,48.883,55.8,0.00,Astara
38.483,106.217,53.5,0.00,Yinchuan / Hedong
38.5,-77.3,76.4,0.00,Quantico Mcas
38.507,-121.495,55.5,0.00,Sacramento Executive Arpt
38.517,125.767,53.6,0.00,Sariwon
38.543,68.825,70.3,0.00,Dushanbe
38.55,-89.85,66.8,0.00,Scott Air Force Base/Midamerica Airport
38.567,-121.3,55.0,0.00,Mather Field
38.667,-121.4,57.5,0.00,Sacramento Mcclellan Afb
38.683,61.2,80.0,0.00,Cheshme
38.717,-93.55,56.8,0.00,Whiteman Afb Airport
38.717,-77.183,73.9,0.00,Davison Aaf Airport
38.733,115.483,60.1,0.00,Baoding
38.75,58.467,65.3,2.95,Bokyrdak
38.75,112.7,48.5,0.06,Yuanping
38.753,-90.374,64.6,0.00,St Louis Lambert Int'L Arpt
38.762,-27.091,56.4,0.00,Lajes
38.783,-97.65,51.3,0.00,Salina Muni
38.8,101.083,51.0,0.00,Shan-Dan
38.81,-104.688,35.1,0.00,City Of Colorado Springs Municipal Ap
38.817,-76.867,77.1,0.00,Andrews Air Force Base Airport
38.817,100.4,37.6,0.00,Zhang-Ye/South
38.832,-94.89,54.8,0.00,Olathe Johnson Co Industrial
38.833,-77.017,76.8,0.00,Washington Dc Bolling Field A
38.844,-94.56,55.0,0.00,Richard Gebaur
38.847,-77.035,77.1,0.00,Ronald Reagan Washington Natl Ap
38.85,-77.033,79.5,0.00,Anacostia Nas
38.876,-98.809,49.9,0.00,Russell Municipal Ap
38.885,-79.853,66.6,0.00,Elkins Elkins-Randolph Co Arp
38.917,139.85,48.2,0.00,Sakata
38.95,-95.664,52.6,0.00,Forbes Field Airport
38.95,113.517,22.0,0.15,Wutai Shan
38.966,121.539,50.5,0.00,Zhoushuizi
38.967,-92.367,59.9,0.00,Columbia Municipal Ap
38.983,56.283,61.6,0.00,Gyzylarbat
38.991,-76.489,76.1,0.00,U.S. Naval Academy
39.0,70.3,59.0,0.00,Rasht
39.017,73.55,32.2,0.00,Karakul
39.033,88.167,65.5,0.00,Ruoqiang
39.043,-84.672,70.3,0.00,Cincinnati Greater Cincinnati
39.05,-96.767,51.6,0.00,Marshall Army Airfield
39.073,-95.626,53.2,0.00,Topeka Municipal Ap
39.083,-76.767,76.1,0.00,Tipton Airport
39.083,63.6,78.5,0.00,Chardzhev
39.1,107.983,50.6,0.00,Otog Qi
39.1,117.167,56.6,0.00,Tianjin
39.121,-94.597,54.7,0.12,Kansas City Downtown Ap
39.126,-123.201,51.4,0.00,Ukiah Municipal Ap
39.133,-121.433,53.3,0.00,Beale Air Force Base
39.133,-75.467,75.5,0.00,Dover Afb Airport
39.134,-108.54,40.7,0.00,Grand Junction Walker Field
39.173,-76.684,74.3,0.04,Baltimore-Washington Intl Airport
39.183,127.433,50.4,0.00,Wonsan
39.2,45.417,65.2,0.00,Naxcivan
39.224,125.67,56.3,0.00,Pyongyang Intl
39.277,-120.71,42.8,0.00,Blue Canyon Ap
39.283,109.75,46.1,0.02,Xinjie Nw
39.295,-114.847,32.7,0.00,Ely Yelland Field
39.317,58.6,67.5,0.00,Erbent
39.367,-101.693,40.7,0.00,Goodland Renner Field
39.367,-75.067,73.2,0.00,Millville Municipal Ap
39.367,111.217,48.2,0.05,Hequ
39.383,99.717,57.1,0.00,Gaotai West
39.402,-77.984,71.0,0.00,Martinsburg Eastern Wv Reg Ap
39.417,-118.717,45.1,0.00,Fallon Naas
39.417,-77.383,80.1,0.00,Frederick
39.431,-83.777,65.7,0.00,Airborne Airpark Airport
39.452,-74.567,73.3,0.00,Atlantic City International Airport
39.484,-119.771,38.4,0.00,Reno/Tahoe International Airport
39.543,76.02,61.5,0.00,Kashi / Laining
39.65,-106.917,32.9,0.00,Eagle County Ap
39.65,118.1,56.3,0.00,Tangshan
39.65,141.967,50.8,0.00,Miyako
39.667,-119.867,38.0,0.00,Stead Afb
39.667,76.167,52.1,0.00,Ar-Tux
39.673,-75.601,69.8,0.00,Wilmington Dupont Ap
39.683,55.567,60.8,2.95,Jasga
39.7,141.167,45.8,0.02,Morioka
39.701,66.984,72.7,0.00,Samarkand
39.717,-104.9,34.5,0.00,Denver Lowry Afb
39.717,-104.75,32.4,0.00,Buckley Air Force Base
39.717,123.067,52.0,0.00,Shishan Northeast
39.717,140.1,48.0,0.02,Akita
39.732,-86.279,64.0,0.00,Indianapolis Weir Cook Munici
39.75,-104.867,34.9,0.00,Denver Wsfo
39.767,98.483,57.4,0.00,Jiuquan/Suzhou
39.783,105.75,56.9,0.00,Jartai
39.8,78.567,64.7,0.00,Bachu
39.817,-82.933,65.7,0.00,Rickenbacker Intl Airport
39.833,-84.05,67.2,0.00,Wright-Patterson Afb Airport
39.833,114.567,47.9,0.00,Yu Xian
39.845,-89.684,56.6,0.00,Springfield Capital Ap
39.868,-75.231,67.0,0.00,Philadelphia International Ap
39.883,-75.167,76.8,0.00,Philadelphia Naas
39.906,-84.219,64.9,0.00,Dayton Municipal Arpt
39.933,127.55,46.0,0.00,Hamheung
39.991,-82.881,67.8,0.00,Columbus Municipal Arpt
40.0,119.75,54.0,0.00,Shan-Hai-Guan
40.017,-74.6,66.3,0.12,Mcguire Afb Airport
40.033,-74.35,64.0,0.00,Lakehurst Nas
40.033,52.983,53.6,0.12,Turkmenbashi
40.05,124.333,53.3,0.00,Dandong
40.068,-118.569,40.8,0.00,Lovelock Derby Field
40.08,116.585,59.9,0.00,Beijing - Capital International Airport
40.1,124.383,52.2,0.00,Sinuiju
40.15,94.683,66.2,0.00,Dunhuang
40.152,-122.254,56.3,0.00,Red Bluff Municipal Arpt
40.167,-112.933,40.7,0.00,Dugway Proving Grou
40.183,-112.933,40.7,0.00,Dugway Pg Utah/Michales Aaf
40.183,-74.067,62.4,0.00,Belmar Asc
40.183,-74.066,62.7,0.00,Belmar Nj/Sig Corps Evans Lab
40.183,58.483,63.0,0.00,Deverze
40.196,-76.772,69.2,0.00,Harrisburg Intl
40.2,-75.15,74.4,0.00,Willow Grove Nas
40.212,44.53,64.8,2.95,Yerevan-Arabkir
40.217,-76.851,69.5,0.00,Harrisburg Capital City Arpt
40.217,69.733,72.5,0.00,Khudjant
40.267,97.033,58.6,0.00,Yumenzhen
40.3,-88.15,56.0,0.00,Rantoul/Chanute Afb
40.4,99.8,57.4,0.00,Shuangchengtzu
40.417,115.5,56.6,0.00,Huailai
40.467,62.283,74.0,0.00,Darganata
40.485,-80.214,65.7,0.00,Pittsburgh International Airport
40.497,-3.446,56.8,0.00,Torrejon
40.567,109.983,49.3,0.05,Baotou
40.583,-73.883,59.2,0.00,New York Floyd Benne
40.639,-73.762,55.9,0.00,New York Fort Totten
40.65,-86.15,60.5,0.00,Grissom Arb
40.651,-75.449,64.8,0.00,Allentown Bethlehem-Easton Ar
40.667,122.2,55.4,0.00,Yingkou
40.667,129.2,50.2,0.00,Kimchaek/Songjin
40.668,-89.684,49.1,0.00,Peoria Greater Peoria Ap
40.683,-74.169,62.5,0.00,Newark International Arpt
40.705,141.372,48.9,0.00,Misawa Ab
40.717,124.783,54.1,0.00,Kuandian
40.721,-114.036,42.9,0.00,Wendover Usaf Auxiliary Field
40.767,107.4,53.1,0.00,Linhe
40.778,-111.969,41.1,0.00,Salt Lake City International Airport
40.779,-73.88,61.1,0.00,New York Laguardia Arpt
40.783,-91.125,50.6,0.00,Burlington Municipal Ap
40.783,55.333,61.2,2.95,Chagyl
40.783,114.883,50.6,0.00,Zhangjiakou
40.82,-82.518,61.0,0.00,Mansfield Lahm Ap
40.829,-115.789,38.2,0.00,Elko Municipal Arpt
40.844,-72.632,54.1,0.00,Francis S Gabreski Ap
40.85,-96.767,48.7,0.00,Lincoln Afb
40.851,-96.748,48.7,0.00,Lincoln Municipal Airport
40.851,111.824,43.8,0.00,Baita
40.869,141.378,68.2,0.00,Draughon Range
40.883,123.9,54.3,0.00,Caohekou
40.902,-117.808,41.5,0.00,Winnemucca Municipal Arpt
40.917,-81.433,64.7,0.00,Akron Akron-Canton Airport
40.917,72.95,66.7,0.00,Dzhalal-Abad
40.961,-98.314,45.6,0.00,Grand Island Arpt
40.967,107.167,55.0,0.00,Hang-Chin-Hou-Chi Nw
40.967,117.917,58.9,0.00,Chengde
40.967,126.6,51.6,0.00,Kanggye
40.971,-85.206,61.7,0.47,Fort Wayne International Airport
40.978,-124.109,45.7,0.00,Arcata Airport
41.017,-69.5,46.4,0.00,Nantucket Shoals Afs
41.033,57.767,58.2,2.95,Ekezhe
41.033,113.067,40.3,0.00,Jining
41.117,-111.967,36.3,0.00,Hill Afb Airport
41.117,-95.917,48.4,0.00,Offutt Afb Airport
41.121,-100.669,42.5,0.00,North Platte Lee Bird Field
41.133,121.117,57.1,0.00,Jinzhou
41.15,126.217,59.0,0.00,Ji'An
41.158,-104.807,34.1,0.00,Cheyenne Airport
41.158,-73.129,54.7,0.00,Bridgeport Municipal Arpt
41.243,-76.922,65.1,0.00,Williamsport-Lycoming County
41.255,-80.674,60.9,0.00,Youngstown-Warren Regional Airport
41.258,69.281,70.8,1.54,Yuzhny / Tashkent Islam Karimov Intl
41.264,-72.887,59.2,0.00,New Haven Tweed Airport
41.267,80.233,62.3,0.00,Wen-Su
41.31,-95.899,48.5,0.00,Omaha Eppley Airfield
41.328,-72.049,55.9,0.00,Groton Aaf
41.333,-122.333,52.1,0.00,Mount Shasta
41.334,-75.727,65.5,0.00,Wilkes-Barre Scranton Ap
41.4,128.167,48.0,0.00,Hyesan
41.405,-81.853,55.1,0.00,Cleveland Hopkins Intl Ap
41.433,76.0,57.5,0.00,Naryn
41.465,-90.523,48.2,0.00,Moline Quad City Arpt
41.5,-74.1,59.4,0.00,Stewart International Airport
41.534,-93.653,49.2,0.00,Des Moines Municipal Arpt
41.55,23.267,53.4,0.75,Sandanski
41.55,120.45,56.9,0.00,Chaoyang
41.567,60.633,63.4,0.00,Urgench
41.567,108.517,48.5,0.00,Haliut
41.583,-71.417,54.6,0.00,Quonset Point Nas
41.589,-83.801,49.9,0.00,Toledo Express Airport
41.594,-109.053,32.7,0.00,Rock Springs Arpt
41.6,41.633,62.7,0.00,Batumi
41.667,-1.05,60.8,0.00,Zaragoza (Usafb)
41.667,24.683,44.1,0.79,Snejanka (Top/Sommet)
41.667,46.65,58.5,0.00,Zakatala
41.683,-67.783,49.2,0.00,Georges Shoals Afs
41.7,110.433,43.9,0.05,Bailing-Miao
41.707,-86.316,48.2,0.00,South Bend St Joseph Co Arpt
41.717,82.95,65.6,0.00,Kuqa
41.722,-71.433,55.2,0.00,Providence T F Green Arpt
41.733,64.617,64.2,0.00,Tamdy-Bulak
41.733,123.517,58.4,0.00,Shenyang
41.75,59.817,60.8,0.00,Dashkhovuz
41.75,62.467,71.5,0.00,Buzaubaj
41.781,-122.472,43.4,0.00,Montague Siskiyou County Ap
41.783,95.133,55.3,0.02,Xing-Xing-Xia
41.783,126.883,45.4,0.00,Chunggang
41.783,129.817,53.4,0.00,Chongjin
41.786,-87.752,42.2,0.00,Chicago Midway Ap
41.8,-107.2,31.2,0.00,Rawlins Municipal Ap
41.8,-78.633,58.2,0.00,Bradford Regional Ap
41.867,-71.017,54.6,0.00,Taunton Muni
41.867,140.117,45.6,0.00,Esashi
41.871,-103.593,38.1,0.00,Scottsbluff W B Heilig Fiel
41.883,78.233,34.8,0.00,Tian-Shan'
41.9,114.0,40.6,0.05,Huade
41.933,117.75,50.3,0.00,Weichang
41.938,-72.683,55.7,0.00,Hartford Bradley Intl Ap
41.96,-87.932,41.7,0.12,Chicago O'Hare International Airport
41.983,21.467,50.6,0.02,Sxodje
41.986,-97.435,47.6,0.00,Norfolk Karl Stefan Mem Arpt
42.05,86.567,59.8,0.00,Yanqi
42.08,-80.183,49.6,0.00,Erie International Ap
42.083,-87.833,41.1,0.00,Naval Air Station
42.1,-83.167,47.1,0.00,Grosse Ile Nas
42.1,140.567,44.0,0.00,Mori
42.147,-121.724,38.6,0.00,Klamath Falls Airport
42.15,-70.933,57.2,0.00,South Weymouth Nas
42.167,142.783,42.0,0.00,Urakawa
42.183,116.467,42.6,0.02,Duolun
42.193,-89.093,43.7,0.00,Rockford Greater Rockford Ap
42.2,-72.533,54.7,0.00,Westover Afb/Metropolitan Airport
42.207,-75.98,55.3,0.00,Binghamton Broome County Arpt
42.231,-83.331,47.1,0.00,Detroit Metro Ap
42.233,-83.533,46.4,0.00,Detroit Willow Run Ap
42.271,-71.873,54.6,0.00,Worcester Municipal Arpt
42.3,118.833,50.5,0.00,Chifeng
42.317,130.4,49.0,0.00,Senbong
42.317,140.983,45.5,0.00,Muroran/Yakumo
42.361,-71.01,52.8,0.00,Gen E L Logan International Airport
42.367,19.25,56.5,0.47,Podgorica / Golubovci
42.381,-122.872,47.0,0.00,Medford Jackson County Arpt
42.391,-96.379,45.8,0.00,Sioux City Municipal Arpt
42.398,-90.704,44.8,0.00,Dubuque Municipal Ap
42.4,112.9,49.0,0.02,Jurh
42.409,-83.01,46.2,0.00,Detroit City Airport
42.417,-71.483,56.1,0.00,Maynard
42.417,122.533,56.1,0.00,Zhangwu
42.47,-71.289,54.9,0.16,Bedford Hanscom Field
42.517,125.633,51.4,0.00,Meihekou West
42.542,-113.766,41.4,0.00,Burley Municipal Arpt
42.554,-92.401,49.7,0.08,Waterloo Municipal Airport
42.567,-71.6,56.1,0.00,Fort Devens/Ayer
42.6,-123.364,45.0,0.00,Sexton Summit
42.608,-82.835,40.7,0.00,Selfridge Angb/Train
42.608,-82.818,44.7,0.00,Selfridge Air National Guard Base
42.617,141.55,40.2,0.00,Tomakomai
42.65,130.8,54.3,0.00,Pos'Et
42.667,26.333,54.4,0.94,Sliven
42.695,23.406,46.7,0.16,Sofia
42.733,80.133,61.4,0.00,Narynkol
42.747,-73.799,49.6,0.12,Albany International Airport
42.78,-84.579,42.7,0.00,Lansing Capital City Arpt
42.8,67.417,70.0,0.00,Kyzylkum
42.8,140.217,43.4,0.00,Suttsu
42.815,-108.726,37.8,0.00,Lander Hunt Field
42.817,93.517,64.0,0.00,Hami
42.85,71.3,63.6,0.00,Taraz
42.85,74.533,68.8,0.00,Bishkek
42.867,41.133,65.8,0.00,Suhumi
42.883,129.5,51.4,0.00,Yanji
42.898,-106.474,34.6,0.00,Natrona County International Ap
42.9,-85.667,44.4,0.00,Grand Rapids
42.9,133.9,48.1,0.00,Preobrazhenie
42.917,143.217,45.1,0.00,Obihiro
42.92,-112.571,37.1,0.00,Pocatello Municipal Arpt
42.933,-71.438,53.4,0.00,Manchester Municipal Ap
42.933,-71.433,53.7,0.00,Grenier Afb
42.94,-78.736,47.7,0.00,Buffalo Niagara International Airpor
42.95,59.817,55.8,2.95,Chimbaj
42.95,89.233,77.4,0.00,Turpan
42.955,-87.905,40.1,0.00,General Mitchell International Ap
42.967,-83.749,43.1,0.00,Flint Bishop Arpt
42.967,54.117,52.7,0.00,Akkuduk
42.983,144.4,41.9,0.00,Kushiro/Kenebetsu
43.0,47.5,47.7,0.00,Mahachkala
43.033,44.683,41.6,2.95,Vladikavkaz
43.05,-115.867,46.5,0.00,Mountain Home Afb Airport
43.067,141.333,41.9,0.00,Sapporo
43.083,-70.817,50.0,0.00,Pease Intl Tradepor
43.083,58.933,51.3,0.00,Kungrad
43.111,-76.104,48.8,0.24,Syracuse Hancock International Ap
43.117,-77.677,47.2,0.00,Rochester Monroe Co Arpt
43.117,131.933,52.8,0.00,Vladivostok
43.141,-89.345,42.1,0.02,Dane Co Regional-Truax Field Airport
43.15,64.333,58.2,0.00,Ak-Bajtal
43.154,-93.327,42.6,0.00,Mason City Municipal Arpt
43.171,-86.237,43.6,0.00,Muskegon County Arpt
43.183,124.333,55.2,0.00,Siping
43.183,141.017,46.3,0.00,Otaru
43.195,-71.501,52.3,0.00,Concord Municipal Arpt
43.217,91.733,61.4,0.00,Shisanjianfang
43.217,141.783,40.1,0.00,Iwamizawa
43.232,27.825,52.7,0.39,Varna
43.233,76.933,70.3,0.00,Almaty
43.234,-75.407,49.8,0.24,Griffiss Airpark
43.239,-123.355,52.6,0.00,Roseburg Municipal Ap
43.25,45.717,48.3,0.00,Groznyj
43.267,68.217,63.7,0.00,Turkestan
43.333,145.583,38.6,0.00,Nemuro
43.413,-124.244,46.5,0.00,North Bend Muni Airport
43.417,24.6,52.3,1.13,Pleven
43.516,-112.067,36.7,0.00,Idaho Falls Fanning Field
43.533,-84.08,42.1,0.00,Saginaw Tri City Intl Ap
43.533,16.3,58.5,0.16,Split/Kastel Stafil
43.567,-116.241,45.1,0.00,Boise Air Terminal
43.578,-96.754,42.6,0.00,Sioux Falls Foss Fld
43.583,-119.05,41.4,0.00,Burns Federal Bldg
43.583,104.417,55.1,0.00,Dalanzadgad
43.583,134.167,40.8,0.00,Bereznjaki
43.6,122.267,54.0,0.00,Tongliao
43.626,-72.305,48.6,0.00,Lebanon Awo
43.633,118.033,52.1,0.00,Linxi
43.65,-70.3,49.5,0.00,Portland Intl Jetport
43.65,112.0,52.5,0.00,Erenhot
43.677,-79.631,44.5,0.12,Lester B Pearson Intl
43.7,73.783,64.0,0.00,Tole Bi
43.717,127.15,46.3,0.00,Jiaohe South
43.733,20.683,49.0,0.98,Kraljevo
43.733,111.9,48.3,0.00,Zamyn-Uud
43.75,142.367,38.9,0.02,Asahikawa
43.783,87.617,71.0,0.00,Wu Lu Mu Qi
43.817,23.25,50.7,1.06,Lom
43.825,18.331,48.0,0.71,Sarajevo
43.85,25.95,50.5,1.26,Rousse/Ruse
43.86,51.092,52.0,0.00,Aktau
43.879,-91.253,45.0,0.12,La Crosse Municipal Airport
43.9,-69.933,49.8,0.00,Naval Air Station
43.904,-92.492,41.4,0.00,Rochester Municipal Arpt
43.917,-60.0,37.0,0.00,Sable Island  Ns
43.95,81.333,63.7,0.00,Yining
43.95,116.117,47.5,0.00,Xilin Hot
43.95,141.633,40.8,0.00,Rumoi
43.983,119.4,52.4,0.00,Lindong
43.989,-76.026,46.1,0.00,Watertown Intl Airport
43.996,125.681,54.5,0.00,Longjia
44.017,89.567,62.8,0.00,Qitai
44.017,115.0,45.0,0.00,Abag Qi
44.017,144.283,40.6,0.02,Abashiri
44.017,145.867,33.3,0.16,Juzhno-Kuril'Sk
44.067,62.9,54.2,0.00,Cirik-Rabat
44.1,39.033,60.9,0.00,Tuapse
44.117,15.233,62.6,0.43,Zadar
44.128,-123.221,51.4,0.00,Eugene Mahlon Sweet Arpt
44.15,-103.1,36.4,0.00,Ellsworth Air Force Base
44.167,66.75,58.5,0.00,Shieli
44.167,80.067,69.2,0.00,Zharkent
44.217,28.65,50.7,0.39,Constanta
44.25,123.967,53.3,0.00,Changling
44.256,-121.139,37.4,0.00,Redmond Roberts Field
44.3,86.033,66.9,0.00,Shihezi
44.317,54.6,55.0,0.00,Duken
44.367,141.7,41.0,0.00,Haboro
44.381,-100.286,41.3,0.00,Pierre Regional Ap
44.383,131.15,50.0,0.00,Suifenhe
44.398,-98.223,41.8,0.00,Huron Municipal Arpt
44.433,84.967,68.4,0.00,Kuytun
44.45,-83.4,39.0,0.00,Oscoda-Wurtsmith Airport
44.467,78.667,62.7,0.00,Kugali
44.468,-73.15,44.5,0.01,Burlington International Airport
44.479,-88.137,40.0,0.00,Austin Straubel International Ap
44.483,34.167,54.6,0.08,Yalta
44.5,129.667,51.4,0.00,Mudanjiang
44.503,26.102,47.3,1.34,Baneasa Aurel Vlaicu
44.533,56.767,46.3,0.00,Beleuli
44.55,19.233,51.5,0.28,Loznica Tugoslavia
44.567,82.817,69.1,0.00,Jinghe
44.567,120.9,54.7,0.00,Jarud Qi
44.583,117.6,45.1,0.00,Xi Ujimqin Qi
44.583,142.967,45.0,0.00,Omu
44.633,22.633,49.8,0.67,Drobeta Turnu Severin
44.633,41.967,46.4,0.00,Nevinnomyssk
44.64,-63.499,37.0,0.01,Shearwater
44.651,-73.468,47.1,0.00,Plattsburgh Intl
44.683,34.133,55.3,0.04,Simferopol'
44.717,37.767,61.2,0.00,Novorossijsk
44.717,132.067,52.6,0.00,Astrahanka
44.741,-85.583,44.1,0.00,Traverse City Cherry Capital
44.769,-106.969,35.9,0.00,Sheridan County Arpt
44.783,44.133,49.4,0.00,Budennovsk
44.798,-68.819,47.4,0.04,Bangor Airport
44.8,-68.817,47.1,0.00,Dow Afb
44.8,20.467,51.7,0.39,Beograd
44.8,69.117,61.7,0.00,Tasty
44.8,71.067,65.5,0.00,Ulanbel'
44.843,-117.809,43.2,0.00,Baker Municipal Ap
44.867,-91.488,40.6,0.00,Eau Claire Municipal Ap
44.867,13.85,59.9,0.35,Pula
44.883,-93.229,40.6,0.00,Minneapolis-St Paul International Ap
44.883,-93.217,42.1,0.00,Minneapolis Nas
44.883,-63.517,36.5,0.00,Halifax Intl Arpt &
44.9,110.117,54.0,0.00,Sainshand
44.905,-123.001,46.3,0.00,Salem Mcnary Field
44.929,-89.628,39.0,0.00,Wausau Municipal Arpt
44.933,142.583,45.4,0.00,Kitamiesashi
44.936,-74.846,46.7,0.00,Massena Ap
44.941,17.298,52.0,0.51,Banja Luka
44.95,-68.667,44.7,0.00,Old Town Faa Airport
44.983,-64.917,41.8,0.00,Greenwood (Can-Mil)
45.0,136.6,51.8,0.00,Ternej
45.033,35.383,52.3,0.04,Feodosiia
45.033,39.15,54.6,0.02,Krasnodar
45.072,-83.564,42.8,0.00,Alpena Phelps Collins Field
45.083,58.067,42.0,0.00,Chiyla Bulak West
45.083,124.867,55.1,0.00,Qian Gorlos
45.1,24.367,48.8,0.43,Ramnicu Valcea
45.167,29.733,49.4,0.20,Sulina
45.217,127.967,49.1,0.00,Shangzhi
45.258,-112.554,38.1,0.00,Dillon
45.3,130.917,55.5,0.00,Jixi
45.323,-75.669,46.5,0.00,Ottawa Macdonald Cartier Intl
45.4,56.117,48.6,0.00,Sam
45.417,141.683,44.6,0.00,Wakkanai
45.45,25.45,26.1,0.79,Varfu Omu
45.467,10.933,64.1,0.00,Verona
45.483,28.033,46.8,1.02,Galati
45.511,-118.425,45.3,0.00,Meachum Emergency Ap
45.517,-73.417,47.6,0.00,St Hubert
45.517,116.967,50.1,0.00,Uliastai
45.533,18.733,53.2,0.28,Bogus Yugoslavian
45.543,-94.051,37.8,0.00,St Cloud Municipal Arpt
45.596,-122.609,50.1,0.00,Portland International Airport
45.619,-121.166,51.2,0.00,The Dalles Municipal Arpt
45.633,122.85,56.1,0.00,Baicheng Northeast
45.648,-68.693,42.4,0.00,Millinocket Municipal Ap
45.667,28.617,48.0,0.31,Bolgrad
45.683,59.917,44.5,0.00,Barsakelmes Island
45.698,-118.855,50.0,0.00,Pendleton Municipal Arpt
45.767,62.117,50.0,0.00,Kazaly
45.767,106.283,53.0,0.00,Mandalgobi
45.807,-108.542,35.4,0.00,Billings Municipal Arpt
45.865,-84.637,36.6,0.00,Mackinack Island
45.867,22.9,50.2,0.16,Deva
45.867,133.733,52.1,0.00,Dal'Nerechensk
45.9,15.967,55.7,0.30,Puntijarka (Mount)
45.933,126.567,56.5,0.00,Harbin
45.967,128.733,53.4,0.00,Tonghe
46.0,70.0,57.6,0.00,Betpak-Dala Steppe
46.017,12.617,60.8,0.01,Aviano (Usaf)
46.033,38.15,53.1,0.00,Primorsko-Ahtarsk
46.095,-118.287,51.5,0.00,Walla Walla Regional Arpt
46.157,-123.883,48.0,0.00,Astoria Clatsop County Arpt
46.167,-60.05,35.4,0.02,Sydney A
46.167,80.933,72.2,0.00,Uc-Aral
46.17,8.88,55.4,0.02,Magadino-Cadenazzo
46.177,21.262,55.4,0.05,Arad
46.183,45.35,47.5,0.00,Yashkul'
46.2,150.5,31.0,0.00,Urup
46.217,122.05,56.1,0.00,Qarsan Southeast
46.22,7.327,53.7,0.00,Sion
46.233,14.483,54.9,0.05,Ljubljana /Brnik
46.238,6.109,48.3,0.02,Geneva Cointrin
46.25,-84.467,37.1,0.00,Kincheloe Afb
46.267,102.783,52.9,0.00,Arvaiheer
46.283,47.983,46.2,0.00,Astrahan'
46.364,-79.423,36.1,0.20,North Bay
46.375,-117.016,51.1,0.00,Lewiston Nez Perce County Arp
46.383,125.317,58.0,0.00,Anda
46.4,96.25,50.7,0.00,Altai
46.427,-105.883,38.9,0.00,Miles City Municipal Arpt
46.427,30.676,49.2,0.00,Odesa Intl
46.45,108.217,50.8,0.00,Choir
46.479,-84.357,37.5,0.00,Sault Ste Marie
46.517,136.95,43.8,0.00,Ulunga-In-Primor
46.522,26.91,45.6,0.98,George Enescu Bacau Intl
46.533,138.333,45.7,0.00,Sosunovo
46.55,41.05,48.4,0.00,Celina
46.567,43.667,47.6,0.00,Remontnoe
46.568,-120.543,51.4,0.00,Yakima Air Terminal
46.583,68.617,48.6,0.00,Jeti-Konur
46.606,-111.964,40.9,0.00,Helena Arpt
46.633,-60.933,13.6,0.00,Cheticamp Cs
46.633,32.567,50.4,0.02,Kherson
46.65,8.617,28.7,0.04,Guetsch Ob Andermatt
46.65,14.333,53.0,0.08,Klagenfurt(Civ/Mil)
46.65,82.75,69.2,0.00,Bahty
46.683,113.283,48.8,0.00,Baruun-Urt
46.7,100.133,42.6,0.00,Galuut
46.75,36.783,50.5,0.00,Berdyansk
46.783,-100.757,39.3,0.00,Bismarck Municipal Arpt
46.783,61.667,47.3,0.00,Aralsk
46.785,23.686,50.2,0.10,Cluj Napoca / Avram Iancu
46.799,-102.797,36.9,0.00,Dickinson Municipal Ap
46.8,53.917,49.2,0.00,Kulsary
46.8,75.083,55.3,0.00,Balhash
46.8,134.267,51.8,0.00,Bikin
46.817,85.75,57.2,0.00,Hoboksar
46.817,130.333,58.1,0.00,Chia-Mu-Ssu /Chiamueze
46.837,-92.183,33.1,0.12,Duluth International Airport
46.85,1.717,53.9,0.00,Chateauroux
46.85,151.867,31.8,0.71,Simusir
46.871,-68.017,38.4,0.00,Caribou Municipal Arpt
46.883,64.667,48.8,0.00,Kara-Kum
46.9,102.767,51.6,0.00,Hujirt
46.921,-114.093,41.0,0.00,Missoula Johnson-Bell Fld
46.925,-96.811,42.6,0.00,Hector International Airport
46.95,-67.883,37.8,0.00,Loring Afb/Limeston
46.973,-122.903,49.3,0.00,Olympia Municipal Arpt
46.983,89.517,54.6,0.00,Fuyun
46.991,15.44,57.1,0.04,Graz
47.0,-65.45,37.4,0.04,Miramichi A
47.017,28.983,48.1,0.16,Chisinau
47.049,-109.458,35.1,0.00,Lewistown Municipal Arpt
47.05,12.95,24.0,0.00,Sonnblick
47.083,-122.583,50.4,0.00,Gray Aaf
47.117,51.917,48.5,0.00,Atyrau
47.15,-122.483,50.0,0.00,Mcchord Afb Airport
47.167,119.933,46.7,0.00,Arxan
47.169,-88.489,35.5,0.00,Hancock Houghton Co Ap
47.2,73.35,49.4,0.00,Mointy
47.208,-119.319,53.3,0.00,Grant County Intl Airport
47.233,131.983,55.4,0.00,Fujin
47.24,123.918,57.9,0.00,Sanjiazi
47.25,9.35,31.2,0.01,Saentis
47.25,39.817,50.2,0.00,Rostov-Na-Donu
47.26,11.344,56.0,0.02,Innsbruck
47.277,-121.337,34.0,0.00,Stampede Pass
47.3,-53.983,34.7,0.00,Argentia (Aut)
47.3,107.483,47.0,0.00,Maanti
47.317,110.633,52.7,0.00,Underkhaan
47.333,142.8,41.0,0.01,Dolinsk
47.417,10.983,23.7,0.01,Zugspitze Mountain
47.444,-122.314,47.9,0.00,Seattle-Tacoma International Airport
47.45,101.467,52.7,0.00,Tsetserleg
47.45,126.867,52.8,0.00,Hailun
47.465,8.549,49.6,0.08,Zurich
47.473,-111.382,39.8,0.00,Great Falls Intl Arpt
47.517,-111.183,40.7,0.75,Malmstrom Afhp Heliport
47.53,-122.301,50.8,0.00,Boeing Fld/King Co Intl Ap
47.567,7.683,38.4,0.01,St. Chrischona
47.622,-117.528,45.1,0.00,Spokane International Airport
47.633,-117.65,44.9,0.00,Fairchild Air Force Base
47.633,43.15,48.2,0.00,Kotel'Nikovo
47.65,9.483,53.4,0.08,Friedrichshafen
47.683,-122.267,49.8,0.00,Seattle Nas
47.683,8.617,49.4,0.02,Schaffhausen
47.703,22.886,55.6,0.00,Satu Mare
47.733,26.65,45.4,0.24,Botosani
47.733,88.083,64.6,0.00,Altay
47.733,130.967,59.9,0.00,Ekaterino-Nikol'Skoe
47.75,96.85,48.2,0.00,Uliastai
47.793,13.004,52.9,0.12,Salzburg
47.8,67.717,44.4,0.00,Zhezkazgan
47.833,66.75,45.2,0.00,Karsakpaj
47.843,106.767,49.0,0.00,Chinggis Khaan Intl / Buyant Ukhaa Intl
47.85,59.617,43.0,0.00,Celkar
47.867,35.316,52.2,0.00,Zaporizhzhia Intl
47.867,105.25,47.8,0.00,Lung
47.9,-122.283,47.1,0.00,Snohomish Co
47.9,48.8,52.3,0.00,Novyj Ushtogan
47.933,1.883,58.9,0.00,Orleans
47.95,132.617,51.0,0.00,Leninskoe
47.967,-97.4,46.0,0.00,Grand Forks Afb Airport
47.967,80.45,57.5,0.00,Ajaguz
47.967,139.533,42.9,0.00,Grossevichi
47.983,142.2,37.5,0.00,Ilyinskiy
48.0,7.85,53.4,0.01,Freiburg (Civ/Fafb)
48.0,122.733,54.9,0.00,Zalantun
48.017,91.567,55.3,0.00,Hovd
48.053,-77.783,33.4,0.00,Val D Or
48.067,37.767,49.6,0.00,Donets'K
48.067,153.217,32.5,0.59,Matua
48.083,114.55,55.2,0.00,Choibalsan
48.1,5.05,51.4,0.00,Chaumont
48.11,16.57,55.9,0.00,Wien Schwechat
48.15,-103.617,38.7,0.00,Williston
48.167,78.417,50.0,0.00,Barshatas
48.17,17.213,56.8,0.02,M R Stefanik
48.183,15.617,58.0,0.02,St. Poelten
48.214,-106.621,39.3,0.00,Glasgow Intl Arpt
48.217,46.733,45.2,0.00,Verhnij Baskunchak
48.217,57.117,42.7,0.00,Kozasaj
48.233,14.188,53.9,0.00,Linz
48.255,-101.273,40.3,0.00,Minot Faa Ap
48.304,-114.264,43.9,0.00,Kalispell Glacier Pk Int'L Ar
48.331,-70.996,41.0,0.02,Bagotville
48.35,-122.667,54.6,0.00,Whidbey Island Nas
48.354,11.786,50.6,0.04,Munchen
48.367,-89.333,37.2,0.08,Thunder Bay A
48.367,25.9,45.0,0.12,Chernivtsi
48.383,-124.733,48.1,0.00,Tatoosh Island
48.417,-106.533,36.4,0.00,St Marie
48.417,-101.35,40.5,0.00,Minot Afb Airport
48.425,10.932,50.1,0.04,Augsburg
48.517,32.2,50.8,0.00,Kirovohrad
48.528,135.188,53.1,0.00,Khabarovsk Novy
48.533,-58.55,37.9,0.00,Stephenville Dymond
48.543,-109.763,42.1,0.00,Havre City-County Ap
48.561,-93.398,40.9,0.00,International Falls Intl Ap
48.583,13.467,50.6,0.00,Passau
48.6,45.75,47.8,0.00,Kapustin Jar
48.603,-112.375,38.8,0.00,Cut Bank Muni Ap
48.617,61.267,43.2,0.00,Irgiz
48.617,110.6,54.2,0.00,Binder
48.633,22.267,57.1,0.00,Uzhhorod
48.65,19.15,57.4,0.00,Sliac
48.667,21.217,53.6,0.00,Kosice
48.69,9.222,49.6,0.04,Stuttgart
48.75,82.367,59.0,0.00,Kokpekty
48.767,5.983,52.1,0.00,Toul Rosiere
48.767,30.233,47.7,0.12,Uman'
48.767,121.917,52.7,0.00,Bugt
48.783,44.346,45.0,0.00,Gumrak
48.794,-122.537,50.0,0.00,Bellingham Intl Airport
48.8,103.55,58.0,0.00,Bulgan
48.817,7.2,54.4,0.00,Phalsbourg
48.917,106.067,45.9,0.00,Baruunharaa
48.933,89.933,52.0,0.00,Ulgi
48.95,14.433,53.4,0.00,Ceske Budejovice
48.967,24.4,44.8,0.02,Ivano-Frankivs'K
49.0,131.083,49.1,0.00,Obluc'E
49.017,-122.367,49.9,0.00,Abbotsford Airport
49.017,1.233,51.4,0.00,Evreux
49.033,5.867,61.6,0.00,Chambley Ab
49.033,8.367,55.8,0.00,Karlsruhe (Usa-Af)
49.05,12.1,51.4,0.02,Regensburg/Oberhub
49.05,51.867,44.8,0.00,Taipak
49.083,-125.767,46.9,0.00,Tofino Airport
49.15,57.117,46.2,0.00,Temir
49.151,16.694,50.7,0.00,Turany
49.167,125.233,55.1,0.00,Nenjiang
49.215,7.11,49.2,0.02,Saarbrucken
49.217,7.4,49.7,0.00,Zweibruecken
49.217,143.1,36.1,0.00,Poronajsk
49.233,5.683,55.7,0.00,Etain
49.25,119.7,52.7,0.00,Hailar
49.283,87.917,45.8,0.00,Argamji
49.4,8.65,52.9,0.00,Heidelberg Aaf
49.433,26.983,48.6,2.95,Khmel'Nyts'Kyi
49.433,127.35,56.1,0.00,Sunwu
49.437,7.6,49.1,0.00,Ramstein Ab
49.45,136.567,49.8,0.00,Troickoe
49.474,10.388,54.8,0.00,Illesheim Ahp
49.499,11.078,53.9,0.42,Nurnberg
49.5,7.867,48.6,0.00,Sembach (Usafb)
49.564,8.463,54.0,0.00,Coleman Aaf / Coleman Barracks Germany
49.567,42.75,46.6,0.00,Serafimovic
49.583,15.767,52.8,0.00,Pribyslav
49.6,34.55,51.6,0.00,Poltava
49.617,128.65,58.5,0.00,Pojarkovo
49.633,3.55,52.9,0.00,Laon
49.633,100.167,55.8,0.00,Muren
49.635,63.482,47.5,0.00,Torgai
49.671,73.334,36.2,2.95,Karaganda
49.675,13.275,54.3,0.02,Plzen Line
49.696,18.111,47.2,0.00,Mosnov
49.699,11.94,56.8,0.00,Grafenwohr Aaf
49.711,-124.887,51.7,0.00,Comox
49.733,117.267,55.0,0.00,Matsiyevskaya
49.75,6.667,49.0,0.02,Trier/Petrisberg
49.75,10.2,57.1,0.00,Kitzingen
49.767,9.967,52.1,0.02,Wurzburg (Usa-Af)
49.8,22.767,48.1,0.00,Przemysl
49.8,92.083,51.5,0.00,Ulaangom
49.813,23.956,46.6,0.00,Lviv Intl
49.85,7.883,53.7,0.00,Bad Kreuznach Aaf
49.883,69.517,38.0,2.95,Berlik
49.9,115.75,51.6,0.00,Solov'Evsk
49.903,-98.274,41.4,0.00,Southport
49.91,-97.24,41.9,0.00,Winnipeg Intl / James Armstrong Richardson Intl
49.925,36.29,51.3,0.00,Osnova Intl
49.933,40.567,47.3,0.00,Bogucar
49.933,134.633,48.0,0.00,Kur
49.949,7.264,46.6,0.00,Frankfurt Hahn
49.95,6.567,48.5,0.00,Bitburg(Us Army)
49.973,6.693,48.3,0.00,Spangdahlem Ab
50.0,33.017,51.3,0.00,Lubny
50.0,155.383,32.0,0.31,Cape Vasileva
50.0,163.917,25.5,0.00,Ostrov Karaginskiy
50.017,111.183,45.7,0.00,Grjazi
50.026,8.543,51.5,0.00,Frankfurt Main
50.033,20.983,49.1,0.00,Tarnow
50.05,8.325,52.4,0.00,Wiesbaden Aaf
50.05,142.167,35.0,0.00,Pil'Vo
50.067,45.367,49.6,0.00,Kamysin
50.067,132.133,49.4,0.00,Sutur
50.101,14.26,52.1,0.00,Ruzyne
50.133,65.233,40.7,0.00,Amangeldy
50.15,48.55,44.0,0.00,Aleksandrov-Gaj
50.169,8.962,54.9,0.00,Hanau Aaf
50.217,38.1,51.3,0.00,Valujki
50.233,19.033,46.9,0.00,Katowice
50.233,28.733,49.3,2.95,Zhytomyr
50.246,57.207,45.2,0.00,Aktyubinsk / Aktobe
50.25,15.85,49.3,0.00,Hradec Kralove
50.25,95.167,52.2,0.00,Erzin
50.267,113.267,48.6,0.00,Aksa
50.283,127.483,57.7,0.00,Blagovescensk
50.289,11.855,51.8,0.04,Hof Plauen
50.33,-105.559,35.1,0.04,Moose Jaw Air Vice Marshal C M Mcewen
50.333,119.067,53.6,0.00,Priargunsk
50.367,108.75,44.1,0.00,Krasnyj Chikoj
50.4,116.517,51.6,0.00,Borzya
50.402,30.451,50.4,0.01,Zhuliany Intl
50.417,80.3,45.7,0.00,Semipalatinsk
50.433,12.95,46.4,0.05,Fichtelberg Mtn
50.517,104.833,40.6,0.00,Torej
50.55,9.65,54.6,0.00,Fulda(Usa\Af)
50.6,97.517,41.4,0.00,Kungur-Tuk
50.617,-97.033,39.0,0.00,Gimli Industrial
50.633,10.15,50.3,0.00,Kaltennordheim(Aut)
50.65,-128.0,40.3,0.00,Holberg
50.7,21.717,49.7,0.00,Sandomierz
50.7,23.25,49.7,0.00,Zamosc
50.733,15.733,38.9,0.00,Sniezka
50.733,102.833,39.9,0.00,Sanaga
50.75,86.133,52.0,0.00,Ongudaj
50.817,20.7,47.9,0.00,Kielce-Sukow
50.866,7.143,51.9,0.04,Koln Bonn
50.867,156.683,32.0,0.12,Mys Lopatka
50.967,54.467,46.8,0.00,Burannoye
51.022,71.467,35.6,0.04,Astana Intl
51.114,-114.02,36.1,0.00,Calgary Intl
51.117,16.883,49.4,0.00,Wroclaw I
51.133,13.767,51.8,0.00,Dresden
51.133,142.667,35.6,0.00,Ado-Tymovo
51.167,14.95,48.6,0.00,Goerlitz
51.183,8.483,43.9,0.10,Kahler Asten(Mount)
51.2,136.8,43.0,0.00,Gorin
51.217,22.4,49.5,0.00,Lublin Radawiec
51.233,33.2,48.2,0.00,Konotop
51.283,0.417,51.1,0.00,West Malling
51.283,26.617,52.1,0.00,Sarny
51.283,91.667,47.0,0.00,Cadan
51.3,9.45,54.7,0.02,Kassel
51.35,130.433,58.5,0.00,Verhnjaja Tom
51.35,139.1,49.6,0.00,Suhanovka
51.367,48.3,51.2,0.00,Ershov
51.383,-1.283,47.3,0.00,Greenham
51.4,6.967,51.7,0.12,Essen/Mulheim
51.4,12.417,53.3,0.04,Leipzig /Mockau
51.467,31.25,49.3,0.00,Chernihiv
51.483,156.483,34.5,2.95,Ozernaja
51.533,59.983,40.8,0.00,Adamovka
51.55,43.15,49.6,0.00,Balashov
51.565,46.047,52.9,0.00,Tsentralny
51.583,126.75,63.3,0.00,Kumara
51.633,133.267,43.4,0.00,Ust'-Umal'Ta
51.682,-1.79,48.1,0.00,Fairford
51.683,100.983,27.7,0.00,Mondy
51.733,19.4,48.3,0.00,Lodz
51.733,126.633,56.6,0.00,Huma
51.75,-1.584,47.4,0.43,Brize Norton
51.767,36.167,43.7,0.00,Kursk
51.783,18.083,49.6,0.00,Kalisz
51.783,28.333,47.4,0.00,Leloiov
51.796,55.457,46.6,0.00,Orenburg
51.8,10.617,43.5,0.10,Brocken (Peak)
51.808,107.438,39.0,0.00,Mukhino
51.814,39.23,47.1,0.00,Chertovitskoye
51.817,68.367,41.5,0.00,Atbasar
51.833,41.483,45.7,0.00,Zerdevka
51.867,58.183,44.2,0.00,Ak'Jar
51.883,-176.65,40.5,0.00,Adak Nas
51.933,-131.017,44.2,0.00,Cape Saint James  &
51.933,1.25,48.2,0.35,Upper Heyford Raf
51.933,15.533,49.2,0.00,Zielona Gora
51.967,0.5,51.9,0.00,Wethersfield(Raf)
51.967,7.6,54.1,0.02,Munster/Telgte
52.026,113.306,44.5,0.00,Kadala
52.033,48.833,50.9,0.00,Pugacev
52.083,1.4,52.8,0.00,Woodbridge Raf
52.108,23.898,50.6,0.00,Brest
52.117,11.583,56.1,0.00,Magdeburg
52.127,5.276,53.6,0.00,Soesterberg
52.133,1.433,52.4,0.00,Bentwaters Raf
52.15,93.917,40.2,0.00,Turan
52.166,20.967,49.4,0.00,Okecie / Warsaw Chopin
52.167,-106.7,31.1,0.16,Saskatoon John G Diefenbaker Intl
52.167,109.783,35.1,0.00,Horinsk
52.183,-122.067,50.6,0.00,Williams Lake Arpt
52.195,77.074,33.0,0.94,Pavlodar
52.217,57.452,36.5,0.00,Zilair
52.217,141.633,33.8,0.00,Pogibi
52.233,117.7,49.0,0.00,Sretensk
52.25,87.117,44.0,0.00,Turocak
52.268,104.389,35.9,0.00,Irkutsk
52.3,0.533,49.2,0.00,Chelveston
52.367,-0.217,50.8,0.00,Alconbury Raf     &
52.367,0.217,50.5,0.00,Huntington
52.367,0.483,50.6,0.00,Mildenhall Raf    &
52.383,140.467,44.1,0.00,Bogorodskoe
52.4,0.567,50.5,0.00,Lakenheath Raf
52.421,16.826,51.2,0.00,Lawica
52.45,130.867,58.1,0.00,Byssa
52.461,9.685,54.0,0.01,Hannover
52.467,-1.117,48.5,0.00,Bruntingthorpe
52.467,96.1,37.8,0.00,Toora-Hem
52.473,13.404,53.0,0.00,Tempelhof
52.483,80.167,36.2,0.08,Rodino
52.5,99.817,40.0,0.00,Orlik (Mtn Stn)
52.633,38.517,47.0,0.00,Elec
52.667,156.233,33.2,0.00,Oktiabr'Skaya
52.7,137.533,44.4,0.00,Guga
52.717,174.1,38.0,0.00,Eareckson As
52.75,15.283,50.8,0.00,Gorzow Wlkp
52.783,126.0,57.9,0.00,Chernjaevo
52.8,89.917,34.5,0.22,Tastyp
52.8,93.233,35.7,2.95,Olen' Ya Rechka
52.817,52.217,47.8,0.00,Buzuluk
52.85,0.767,51.8,0.00,Sculthorpe (Af Met)
52.933,36.0,46.3,0.00,Orel
52.95,-168.85,35.3,0.00,Nikolski
52.967,78.65,32.4,0.35,Slavgorod
52.967,101.983,35.0,0.00,Inga
53.0,128.65,53.5,0.00,Oktjabr'Skij Priisk
53.033,11.8,54.0,0.00,Weisen B Wittenberge
53.048,8.787,53.8,0.00,Bremen
53.05,18.583,49.5,0.00,Torun
53.05,136.033,45.1,0.00,Burukan
53.067,132.933,42.6,0.00,Ekimcan
53.1,20.35,48.1,0.00,Mlawa
53.1,23.167,51.3,0.00,Bialystok
53.1,160.033,30.8,0.04,Cape Shipunskiy
53.117,26.0,49.3,0.00,Baranovichi
53.133,45.017,47.7,0.00,Penza
53.168,158.454,33.0,0.00,Yelizovo
53.183,111.717,32.1,0.00,Ust-Zaza
53.214,34.176,45.8,0.00,Bryansk
53.217,63.617,41.7,0.00,Kostanay
53.317,-60.417,37.5,0.00,Goose Bay Ua
53.333,7.2,55.0,0.04,Emden/Hafen
53.35,59.083,38.4,0.00,Magnitogorsk
53.35,75.45,35.4,2.95,Ertis
53.364,83.539,34.7,0.00,Barnaul / Mikhaylovka
53.4,14.617,50.9,0.00,Szczecin
53.45,16.5,51.0,0.00,Nadarzyce
53.467,122.4,48.6,0.00,Ignasino
53.483,42.633,50.4,0.00,Zametchino
53.505,50.164,47.4,0.00,Kurumoch
53.533,8.583,52.8,0.00,Bremerhaven
53.533,115.617,40.5,0.00,Tungokocen
53.567,139.65,47.0,0.00,Kulci
53.583,55.934,38.9,0.00,Sterlitamak
53.6,24.05,50.9,0.00,Grodno
53.617,52.45,43.5,0.00,Buguruslan
53.617,109.633,38.8,0.00,Barguzin
53.63,9.988,56.5,0.04,Hamburg
53.667,-113.467,35.9,0.00,Edmonton/Namao(Mil)
53.7,127.3,51.0,0.00,Zeja
53.717,17.55,49.9,0.00,Chojnice
53.733,87.183,38.8,0.00,Novokuznetsk / Spichenkovo
53.75,14.067,52.4,0.00,Ueckermuende (Aut)
53.75,91.4,36.6,0.00,Abakan
53.75,119.733,40.5,0.01,Mogocha
53.817,81.267,32.0,0.20,Kamen'-Na-Obi
53.833,69.783,40.5,0.00,Krasnoarmejsk
53.864,27.54,49.7,0.00,Minsk 1
53.889,-122.679,50.5,0.00,Prince George
53.95,30.067,48.5,0.00,Mogilev
53.967,-166.85,31.3,0.00,Driftwood Bay
53.967,-101.1,36.1,0.04,The Pas Airport
53.967,105.9,35.0,0.00,Kacug
54.067,21.367,52.6,0.00,Ketrzyn
54.167,6.35,49.0,0.12,Ufs Tw/Ems (Aut)
54.167,103.017,36.6,0.00,Ust-Uda
54.183,12.083,55.0,0.00,Warnemuende
54.2,16.15,53.3,0.00,Koszalin
54.2,72.967,38.2,0.00,Odesskoe
54.217,96.967,34.5,0.00,Verhnjaja Gutara
54.25,-133.05,46.4,0.00,Langara
54.267,63.95,37.1,2.95,Ust-Ujskoje
54.283,139.783,41.3,0.00,Aleksandra
54.3,155.933,30.6,0.04,Sobolevo
54.317,48.333,40.8,0.00,Ulyanovsk
54.367,66.967,36.2,0.00,Blagoveshchenka
54.367,93.433,38.6,0.04,Artemovsk
54.378,18.466,52.2,0.00,Lecha Walesy
54.405,-110.279,32.7,0.00,Cold Lake / Group Captain R W Mcnair
54.417,-110.283,32.7,0.00,Cold Lake (Can-Mil)
54.417,142.717,44.6,0.00,Cape Yelizaveti
54.533,9.55,53.3,0.02,Schleswig
54.55,17.75,53.4,0.00,Lebork
54.55,36.367,49.3,0.00,Kaluga
54.558,55.874,38.9,0.00,Ufa
54.617,39.717,49.7,0.00,Rjazan'
54.617,52.8,37.3,5.91,Bugul'Ma
54.617,161.2,34.0,0.00,Kronoki
54.667,86.183,31.5,0.16,Kolchugino
54.733,130.45,45.4,0.00,Loksak
54.75,32.067,48.0,0.00,Smolensk
54.833,69.15,35.6,0.00,Petropavlovsk
54.833,137.533,38.6,0.00,Bol'Shoj Shantar
54.85,111.15,33.7,0.00,Tassa
54.883,23.833,53.9,0.00,Kaunas
54.883,99.033,38.0,0.02,Nizne-Udinsk
54.89,20.593,52.7,0.00,Khrabrovo
54.967,73.311,38.2,0.00,Omsk Tsentralny
55.0,15.083,47.6,0.00,Dueodde (Cape)
55.0,57.983,33.3,0.04,Kropacevo
55.013,82.651,34.6,0.00,Tolmachevo
55.033,44.5,42.5,0.00,Lukojanov
55.033,126.8,49.4,0.00,Unaha
55.039,-131.579,46.6,0.00,Annette Island Airport
55.117,116.767,35.7,0.00,Kalakan
55.117,159.067,34.0,0.00,Dolinovka
55.167,34.4,52.4,0.00,Vjaz'Ma
55.183,124.667,43.1,0.00,Tynda
55.2,76.019,38.0,0.00,Tatarsk
55.2,165.983,33.7,5.91,Ostrov Beringa
55.221,-162.733,35.4,0.00,Cold Bay Arpt
55.306,61.503,34.3,0.00,Balandino
55.333,78.308,37.0,0.00,Barabinsk
55.383,101.033,37.2,0.00,Tanguj
55.433,120.667,38.4,0.39,Srednjaja Olekma
55.467,65.4,34.7,0.00,Kurgan
55.467,113.617,26.9,0.00,Uakit
55.509,-4.587,51.1,0.02,Prestwick
55.583,155.583,26.3,0.00,Ica
55.606,49.279,38.5,0.00,Kazan
55.618,12.656,51.7,0.00,Kastrup
55.75,88.317,35.0,0.02,Tisul'
55.767,52.067,36.1,0.00,Elabuga
55.783,90.133,33.8,0.00,Krutoyarskiy
55.783,109.55,32.7,0.00,Nizhneangarsk
55.833,37.617,51.0,0.00,Moskva Vdnh (Dolgoprudnyj)
55.867,26.617,50.2,0.00,Daugavpils
55.867,72.2,37.2,0.00,Tjukalinsk
55.933,158.667,24.8,0.00,Esso
55.95,98.0,36.7,0.00,Tajshet
55.983,82.7,36.2,0.00,Pihtovka
56.0,-160.517,27.5,0.00,Port Moller
56.0,92.883,38.1,0.00,Krasnojarsk
56.05,105.833,33.7,0.01,Orlinga
56.067,63.65,34.0,0.02,Sadrinsk
56.1,69.433,33.5,0.04,Ishim
56.117,40.35,46.1,0.00,Vladimir
56.167,163.317,30.9,0.00,Cape Afrika
56.267,34.317,52.6,0.00,Rzev
56.283,131.133,43.2,0.00,Toko
56.317,28.9,51.4,0.00,Idrica
56.317,160.833,31.4,0.00,Kljuchi
56.333,46.583,40.3,0.00,Koz'Modem'Jansk
56.35,78.35,38.0,0.00,Severnoe
56.371,101.698,33.4,0.00,Bratsk
56.45,138.15,36.3,0.00,Ayan
56.5,84.917,36.0,0.00,Tomsk
56.65,-111.217,27.7,0.00,Fort Mcmurray Awos Arpt
56.65,57.783,31.4,0.12,Krasnoufimsk
56.65,136.35,41.8,0.00,Batomga
56.743,60.803,30.4,0.00,Koltsovo
56.833,124.867,34.8,0.00,Culman/Neriugri
56.867,105.7,28.3,0.01,Ust'-Kut
56.9,74.383,35.0,0.00,Tara
56.9,118.267,33.8,0.00,Chara
56.917,23.967,49.7,0.00,Riga
56.933,72.667,33.8,0.28,Bol'Sie Uki
57.048,-135.365,44.9,0.00,Sitka Japonski Ap
57.067,86.217,38.0,0.00,Pervomajskoe
57.083,54.75,30.7,0.00,Nozovka
57.083,156.7,25.6,0.00,Ust'- Hajrjuzovo
57.117,65.433,31.8,0.04,Tyumen'
57.15,31.183,50.9,0.00,Holm
57.155,-170.222,32.8,0.00,St Paul Island Airport
57.2,39.417,43.0,0.00,Rostov
57.217,94.917,36.6,0.00,Taseyevo          &
57.333,43.117,39.9,0.00,Jur'Evec
57.367,89.317,38.6,0.00,Chindat-In-Krasnoy
57.533,79.431,36.3,0.00,Pudino
57.55,49.95,30.7,0.00,Nolinsk
57.65,99.533,32.6,0.00,Chervyanka
57.667,46.633,35.2,0.00,Sakun'Ja
57.683,71.183,34.8,0.04,Ust'-Isim
57.751,-152.486,40.6,0.00,Kodiak Airport
57.767,108.067,30.5,2.95,Kirensk
57.767,130.9,45.6,0.00,Cjul'Bju
57.767,140.183,30.6,0.00,Enkan
57.784,28.396,54.0,0.00,Pskov
57.8,36.7,46.9,0.00,Bezeck
57.8,127.883,32.3,0.00,Svetlyy West
57.833,117.667,27.0,2.95,Nicatka
57.9,34.03,51.0,0.00,Bologoe
57.915,56.021,25.6,0.20,Bolshoe Savino
57.967,33.233,49.5,0.00,Valdaj
58.05,63.683,25.9,0.00,Turinsk
58.133,52.583,25.5,0.04,Glazov
58.15,68.25,30.2,0.02,Tobol'Sk
58.2,102.75,29.4,0.00,Ust-Ilimsk
58.307,26.69,55.4,0.00,Tartu
58.317,82.95,35.2,0.00,Kolpasevo
58.317,125.35,29.0,0.04,Usmun
58.357,-134.564,44.7,0.00,Juneau Municipal Arpt
58.383,97.45,32.7,0.00,Bogucany
58.411,-135.709,42.9,0.00,Gustavus
58.417,24.467,48.8,0.00,Pjarnu-Sauga
58.45,92.15,34.2,0.00,Jenisejsk
58.483,41.533,38.5,0.00,Buj
58.55,109.767,28.0,0.17,Ichera
58.583,76.517,39.0,0.00,Novyj Vasyugan
58.617,125.367,29.6,0.16,Aldan
58.633,86.733,36.0,0.00,Stepanovka
58.65,-162.067,31.0,0.00,Cape Newenham Afs
58.65,49.617,29.1,0.00,Kirov
58.683,-156.656,32.4,0.00,King Salmon Airport
58.733,-94.05,20.3,0.08,Churchill A Ua  Man
58.817,141.85,25.7,0.00,Ul' Ya
58.833,-122.6,41.7,0.00,Fort Nelson Ua
58.983,54.65,28.7,0.00,Kudymkar
59.017,121.767,33.7,0.01,Dzhikimda
59.033,57.567,24.0,0.08,Kizel
59.05,80.833,36.4,0.00,Kargasok
59.117,159.967,23.5,0.04,Palana
59.183,135.15,43.9,0.04,Ust'-Judoma
59.25,163.033,19.3,0.31,Ossora
59.267,38.017,38.3,0.00,Cherepovec
59.283,106.167,23.3,0.09,Ika
59.367,28.6,52.0,0.00,Kingisepp
59.367,143.2,26.0,0.00,Ohotsk
59.413,24.833,51.2,0.00,Lennart Meri Tallinn
59.45,-146.317,41.5,0.00,Middleton Island Aut
59.45,112.583,29.6,0.01,Vitim
59.5,90.928,35.5,0.00,Nazimovo
59.512,-139.671,41.5,0.00,Yakutat State Ap
59.533,45.467,32.7,0.00,Nikol'Sk
59.533,70.417,25.3,1.22,Limkoyevskiye
59.6,60.533,27.7,0.00,Serov
59.617,65.717,27.6,0.04,Leusi
59.642,-151.491,40.7,0.00,Homer Municipal Arpt
59.65,33.55,50.0,0.00,Tihvin
59.667,127.05,34.9,0.04,Bujaga
59.749,-154.909,35.0,0.00,Iliamna Arpt
59.767,22.95,48.0,0.00,Hanko Russaro
59.8,30.263,48.6,0.00,Pulkovo
59.911,150.72,23.8,0.08,Sokol
59.933,117.6,32.4,0.00,Macha
59.967,42.767,30.6,0.00,Totma
60.02,-111.962,19.0,0.00,Fort Smith Ua - Nt
60.122,19.898,48.4,0.00,Mariehamn
60.167,-132.733,20.5,0.00,Teslin (Aut)  Yt
60.317,24.963,55.4,0.00,Helsinki Vantaa
60.333,51.55,27.7,0.00,Kazim
60.333,102.267,25.0,2.95,Vanavara
60.35,84.083,31.4,0.00,Vanzil'-Kynak
60.383,26.967,45.3,0.00,Kotka Rankki
60.4,56.517,23.9,0.00,Cherdyn'
60.4,120.417,28.5,0.01,Olekminsk
60.433,77.867,34.2,0.00,Aleksandrovskoe
60.433,169.667,25.4,0.00,Apuka
60.467,40.2,34.7,0.00,Vozega
60.489,-145.451,41.4,0.00,M.K.(Mudhole) Smith Arpt
60.5,74.017,33.5,0.02,Ugut
60.514,22.263,52.4,0.00,Turku
60.55,171.083,24.0,0.00,Topata-Olyutorskaya
60.58,-151.239,39.1,0.00,Kenai Municipal Ap
60.683,60.45,26.0,0.00,Ivdel'
60.683,160.4,26.7,0.01,Tajgonos
60.71,-135.067,47.3,0.00,Whitehorse Intl / Erik Nielsen Intl
60.717,28.733,42.4,0.00,Vyborg
60.717,114.883,30.6,0.13,Lensk
60.717,142.783,24.7,0.02,Uega
60.733,163.017,25.1,0.16,Chemurnaut
60.785,-161.829,29.1,0.00,Bethel Airport
60.817,125.317,31.4,2.95,Isit'
60.85,151.767,20.1,0.01,Atka
60.9,131.983,33.6,0.08,Amga
61.017,36.45,37.0,2.95,Vytegra
61.028,69.086,24.5,0.08,Khanty Mansiysk
61.1,-155.567,28.6,0.00,Sparrevohn Afs
61.1,80.25,36.0,0.00,Lar' Yak
61.117,149.633,23.4,0.01,Ust' Omchug
61.133,137.983,31.6,0.02,Allah-Jun
61.169,-150.028,42.7,0.00,Anchorage Intl Ap
61.233,46.717,27.9,0.00,Kotlas
61.25,-149.8,42.7,0.00,Anchorage/Elmendorf
61.267,108.017,21.1,0.01,Erbogacen
61.333,100.483,25.5,0.00,Mutoraj
61.344,73.402,25.8,0.47,Surgut
61.35,166.0,23.0,0.00,Korf
61.462,21.8,51.9,0.00,Pori
61.483,129.15,33.4,0.04,Pokrovsk
61.533,156.7,19.7,0.00,Pestraya Dresva
61.572,-149.54,41.8,0.00,Yakataga Ap
61.583,-159.533,33.1,0.00,Aniak Airport
61.6,90.017,29.5,0.00,Bor
61.617,114.617,22.6,0.08,Dorozhnyj
61.647,50.845,28.7,0.00,Syktyvkar
61.683,53.683,24.0,0.00,Ust'-Kulom
61.717,30.717,37.4,0.00,Sortavala
61.76,-121.237,28.8,0.00,Fort Simpson
61.783,-166.033,27.1,0.00,Cape Romanzoff Afs
61.817,34.267,38.4,0.00,Petrozavodsk
61.867,135.5,32.0,0.08,Ohotskijperevoz
61.917,124.55,27.0,0.00,Tongulah
61.917,158.983,17.4,0.01,Najahan
62.017,129.717,32.5,0.12,Jakutsk
62.033,132.6,31.0,0.08,Curapca
62.05,66.4,28.8,0.00,Mys Sosnoviy
62.05,175.283,15.3,0.00,Hatyrka
62.093,129.771,-0.5,2.95,Yakutsk
62.1,42.9,30.7,0.00,Shenkursk
62.15,117.65,24.6,0.01,Suntar
62.159,-145.459,45.6,0.00,Gulkana Airport
62.233,45.017,25.2,0.00,Verhnjaja Tojma
62.317,92.117,25.5,0.00,Kuz' Movka
62.32,-150.095,40.0,0.00,Talkeetna State Arpt
62.399,25.678,53.1,0.00,Jyvaskyla
62.417,179.133,12.3,0.08,Buhta Gavriila
62.433,60.867,25.6,0.00,Njaksimvol'
62.433,166.083,22.2,0.08,Kamenskoe
62.45,66.05,26.3,0.00,Oktjabr'Skoe
62.483,86.283,30.0,0.00,Kellog
62.517,-153.883,34.0,0.00,Farewell Faa Ap
62.6,140.7,11.6,0.24,Muskhaya
62.663,29.608,41.2,0.00,Joensuu
62.7,56.2,24.4,0.00,Troicko-Pecherskoe
62.717,101.117,23.5,0.00,Kerbo
62.717,150.017,23.9,0.00,Khatinnakh
62.783,148.167,26.5,0.01,Susuman
62.883,-155.967,33.1,0.00,Tatalina Lrrs
62.883,108.433,21.7,0.00,Nakanno
62.917,152.417,29.3,0.00,Sejmchan
62.957,-155.61,34.5,0.00,Mcgrath Arpt
62.962,-141.988,42.3,0.00,Northway Airport
62.983,50.9,19.6,0.00,Vesljana
63.007,27.798,45.3,0.00,Kuopio
63.033,112.483,22.6,0.00,Chernishevskij
63.05,137.95,28.2,0.33,Zapadnaya-In-Yakut
63.051,21.762,52.2,0.00,Vaasa
63.15,87.95,29.7,2.95,Verhneimbatsk
63.2,64.483,28.8,0.00,Igrim
63.217,113.633,18.4,0.00,Syuldyukar
63.25,143.15,24.6,0.02,Ojmjakon
63.283,118.333,21.1,0.00,Njurba
63.317,-168.967,22.0,0.00,Northeast Cape
63.317,132.017,25.4,0.47,Verhojansk Perevoz
63.331,-149.127,36.5,0.00,Summit Airport
63.417,172.717,18.2,0.00,Berezovo
63.5,71.333,18.4,2.95,Numto
63.517,129.483,24.9,0.24,Batamaj
63.55,53.817,21.8,0.00,Uhta
63.583,45.633,22.7,0.00,Sura
63.721,23.143,47.6,0.00,Kruunupyy / Kokkola Pietarsaari
63.767,34.283,34.5,0.00,Segeza
63.767,121.617,22.3,2.95,Viljujsk
63.833,30.817,32.2,0.00,Reboly
63.833,96.65,26.0,0.00,Ucami
63.833,145.6,15.5,0.04,Delyankir
63.883,-160.8,30.9,0.00,Unalakleet Field
63.886,-152.302,41.5,0.00,Minchumina
63.9,38.117,26.9,0.00,Onega
63.933,65.05,23.6,0.00,Berezovo
63.95,124.833,24.9,0.20,Hatyayk-Homo
63.967,-22.6,45.2,0.00,Keflavik Naval Air Station
63.994,-145.721,50.7,0.00,Allen Army Airfield
64.0,154.167,27.1,0.00,Balygycan River
64.0,158.917,13.2,0.00,Kedon
64.167,148.033,23.8,0.01,Darpir
64.217,164.233,9.2,0.00,Verhnee Penzino
64.233,87.567,26.5,0.08,Vereshchagino
64.233,116.917,21.5,0.06,Chumpuruk
64.267,100.233,17.0,0.00,Tura
64.283,60.883,26.1,0.00,Saran-Paul'
64.285,27.692,45.3,0.00,Kajaani
64.299,-96.078,13.5,0.00,Baker Lake
64.378,-173.243,18.1,0.67,Provideniya Bay
64.5,140.667,15.2,0.20,Razvedchik
64.511,-165.44,22.3,0.00,Nome Municipal Arpt
64.55,-149.072,43.2,0.00,Nenana Municipal Ap
64.6,40.717,26.5,0.00,Talagi
64.65,-147.067,46.5,0.00,Fairbanks/Eielson A
64.683,170.417,5.7,0.00,Markovo
64.7,-162.05,26.8,0.00,Moses Point
64.7,43.383,24.3,0.00,Pinega
64.733,-156.933,36.1,0.00,Galena A.
64.735,177.741,5.1,0.00,Ugolny
64.75,47.65,25.8,0.00,Kojnas
64.75,153.967,26.7,0.00,Korkodon
64.804,-147.876,46.2,0.00,Fairbanks International
64.867,174.417,4.7,0.00,Tanyurer
64.9,45.767,22.6,0.00,Lesukonskoe
64.917,77.817,8.9,0.00,Tarko-Sale
64.93,25.355,42.7,0.00,Oulu
65.0,130.683,15.8,0.01,Syuryun-Kyuyel'
65.175,-152.107,39.3,0.00,Tanana Ralph M Calhoun Mem Ap
65.183,176.767,-0.7,0.00,Kanchalan
65.2,36.817,26.9,0.00,Zizgin
65.217,31.167,31.6,0.00,Kalevala
65.25,143.167,24.0,0.08,Berezkin
65.283,-126.8,33.8,0.00,Norman Wells Arpt
65.3,127.117,17.5,0.28,Bestyahskaya Zveroferma
65.3,135.8,17.0,0.02,Iema
65.433,52.267,25.4,0.00,Ust'-Cil'Ma
65.467,72.667,22.7,0.00,Nadym
65.483,64.717,23.6,0.02,Muzhi
65.567,-167.917,23.0,0.00,Tin City Afs
65.733,150.9,24.2,0.00,Zyryanka
65.782,24.599,36.3,0.00,Kemi Tornio
65.783,-169.083,19.5,0.02,Ratmanova Island
65.783,87.989,17.1,0.01,Turuhansk
65.867,44.217,26.4,0.00,Mezen'
65.9,34.767,27.9,0.00,Gridino
65.95,78.4,17.0,0.00,Urengoj
65.967,56.917,22.4,0.02,Ust'-Usa
65.988,29.239,31.3,0.00,Kuusamo
66.0,-153.7,36.3,0.00,Indian Mountain Afs
66.15,-169.833,17.7,0.43,Mys Uelen
66.183,39.533,24.2,0.00,Pjalica
66.25,114.283,16.6,0.13,Shelagontsy
66.35,-179.117,6.0,2.95,Egvekinot
66.383,93.117,23.8,0.00,Kochundek
66.383,173.333,-2.2,0.00,En' Muveem
66.45,143.233,15.5,0.00,Ust'-Moma
66.533,66.667,22.5,0.00,Salehard
66.54,-151.31,37.5,0.00,Bettles Field
66.55,159.417,12.1,0.00,Ust'-Oloj
66.567,-145.267,48.7,0.00,Fort Yukon
66.633,72.933,18.3,2.95,Nyda
66.767,123.4,15.3,0.08,Zhigansk
66.767,131.6,12.4,0.01,Ekyuchchyu
66.8,136.683,18.3,0.29,Ust'-Charki
66.833,-174.5,5.8,0.00,Koljucinskaja Bay
66.867,-162.633,26.4,0.00,Kotzebue Ralph Wein Memorial
66.883,93.467,10.0,0.04,Agata
67.017,-50.689,21.2,0.00,Sondre Stromfjord / Kangerlussuaq
67.033,59.4,21.5,0.12,Hoseda-Hard
67.117,126.117,10.1,0.31,Sobopol-In-Yakut
67.133,108.533,13.8,0.08,Yarol'In
67.15,32.35,24.6,0.00,Kandalaksha
67.25,167.967,-3.7,0.00,Ilirnej
67.35,37.05,26.3,0.00,Krasnoscel'E
67.395,26.619,35.3,0.00,Sodankyla
67.45,153.717,11.7,0.00,Crednekolymsk
67.467,86.567,10.8,0.04,Igarka
67.483,64.017,16.7,0.12,Vorkuta
67.567,133.4,12.5,0.02,Verhojansk
67.633,53.033,20.0,0.02,Nar'Jan-Mar
67.683,48.683,24.4,0.01,Indiga
67.8,46.667,22.8,0.00,Mys Mikulkin
67.867,-178.75,0.4,0.14,Iultin-In-Chukot
68.117,164.167,5.2,0.00,Ostrovnoe
68.233,145.3,18.0,2.95,Druzina
68.304,-133.483,34.5,0.00,Inuvik Mike Zubko
68.5,73.583,15.8,0.00,Cape Kamennyj
68.607,27.405,31.5,0.00,Ivalo
68.617,118.333,11.7,0.01,Suhana
68.65,43.3,26.1,0.04,Kanin Nos
68.733,124.0,10.6,0.00,Dzardzan
68.75,161.283,5.7,0.00,Cherskij
68.782,32.751,31.4,0.00,Murmansk
68.85,127.367,11.0,0.01,Verkhoyansk Range
68.883,-166.133,21.6,0.00,Cape Lisburne Afs
68.883,170.783,-11.1,0.00,Chaun
68.9,-179.633,-0.8,0.31,Mys Shmidta
68.967,28.783,31.5,0.00,Yaniskoski
69.4,86.167,11.0,0.00,Dudinka
69.617,162.3,-2.0,0.00,Buhta Ambarcik
69.717,66.8,11.2,0.01,Maresale
69.733,-163.017,28.5,0.00,Point Lay Liz 2
69.75,61.7,10.4,0.04,Amaderma
69.883,175.767,-2.9,0.00,Mys Billingsa
70.083,170.933,-5.8,0.00,Val' Karkay
70.133,113.967,9.5,0.02,Dzalinda
70.134,-143.577,14.3,0.00,Barter Island Airport
70.167,-124.7,3.7,0.01,Cape Parry
70.167,72.517,9.7,0.65,Seyaha
70.45,59.083,9.2,0.43,Im E K Fedorova
70.5,-149.883,15.8,0.00,Oliktok Pow 2
70.5,-117.633,3.2,0.00,Holman Island
70.55,154.25,-11.0,0.00,Alazeja River
70.617,-159.85,28.2,0.00,Wainwright Liz 3
70.617,147.883,-3.0,0.00,Chokurdah
70.633,162.483,-6.7,0.00,Ostrov Chetyrehstolbovoy
70.767,136.217,6.4,0.00,Jubilejnaja
70.85,89.883,8.2,0.00,Kresti
70.917,-153.25,20.5,0.00,Lonely
70.967,94.5,8.2,0.00,Volochanka
70.983,-178.65,6.4,0.20,Ostrov Vrangelya
71.283,-156.782,19.0,0.00,W Post-Will Rogers Memorial Airport
71.4,67.633,9.0,0.00,Cape Kharasovoy
71.698,128.903,-0.2,0.00,Tiksi
71.883,82.7,6.3,0.00,Sopochnaya Karga
71.917,123.567,1.4,0.00,Tyumyati
71.95,-124.733,3.1,0.00,Sachs Harbour
71.967,114.083,8.5,0.08,Saskylah
71.983,102.467,2.0,0.00,Hatanga
72.333,79.5,4.0,0.00,Leskino
72.367,52.7,9.0,0.08,Malye Karmakuly
72.4,126.35,-0.3,0.00,Im Yu A Habarova
72.6,121.85,3.4,0.01,Tajmyrlyr
72.667,70.833,4.0,0.00,Dronyanaya
72.75,140.75,-1.0,0.01,Cape Svatoj
73.183,143.233,-5.7,0.00,Mys Shalaurova
73.25,90.917,-1.8,0.00,Tareya (Stream)
73.333,70.05,0.3,0.00,Im. M.V. Popova
73.336,139.867,-7.7,0.02,Kigilyah
73.5,76.0,-3.2,0.04,Vilkickogo Island
73.5,80.4,8.0,0.00,Ostrov Dikson
73.667,109.75,5.2,0.02,Cape Kasisty
74.3,-20.217,1.2,0.00,Daneborg (Aut)
74.5,102.5,3.4,0.00,Lake Tajmyr
74.667,112.933,3.2,0.01,Ostrov Preobrazenij
74.667,138.9,-8.5,0.00,Sannikova
74.717,-94.969,-2.9,0.00,Resolute Bay
75.417,88.9,2.0,0.00,Mys Sterlegova
75.533,113.517,1.0,0.02,B. Pronchishchevoy
75.75,137.583,-9.0,0.00,Tempa Bay
75.95,82.95,5.6,0.00,Izvestij Tsik
76.0,137.867,-5.3,0.00,Ostrov Kotel'Nyj
76.15,152.833,-5.6,0.00,Zohova Island
76.183,63.567,5.0,0.02,Russkaya Gavan'
76.233,-119.333,-6.6,0.00,Mould Bay Airport
76.283,94.733,1.0,0.00,Pravdy Island
76.417,-68.317,16.2,0.00,Camp Tuto Icecap Sta
76.517,-68.833,9.9,0.00,Thule Op Site
76.531,-68.703,10.3,0.00,Pituffik Space Base
76.8,110.833,1.6,0.02,Andreya Island
76.95,68.55,4.0,0.00,Mys Zhelaniya
77.167,-61.133,2.9,0.00,Camp Century
77.183,96.583,9.0,0.00,Russkiy Island
77.283,89.667,1.2,0.00,Isachenko Island
77.5,82.2,4.4,0.00,Ostrov Uedinenija
77.617,101.483,-1.4,0.01,Geyberga Island
77.717,104.3,-1.8,0.00,Gmo Im.E.K. Fedorova
78.133,107.2,-5.0,0.00,Malyy Taymir Island
78.617,98.7,0.4,0.00,Krasnoflotskiye Isl
78.783,-103.533,0.0,0.00,Isachsen (Maps)
79.483,76.983,0.6,0.00,Ostrov Vize
79.55,90.567,1.0,0.00,Mgms Im. G.F. Ushakova
79.983,-85.933,6.8,0.00,Eureka
80.0,-113.0,22.6,0.00,Ice Skate B
80.367,52.917,-2.0,0.00,Tikhaya Bay
80.617,58.05,-0.3,0.00,Polargmo Im. E.T. Krenkelja
82.5,-62.333,6.4,0.00,Alert
