lat,lon,temp,precip,name
-77.883,166.733,4.9,0.00,Mcmurdo Sound Naf
-42.883,147.333,51.0,0.00,Hobart (Ellerslie Road)
-42.836,147.51,51.3,0.00,Hobart
-41.545,147.214,50.8,0.00,Launceston
-40.117,148.017,58.0,0.00,Whitemark
-38.099,147.149,55.7,0.00,East Sale
-37.867,144.75,56.9,0.00,Laverton Raaf
-37.817,144.967,56.7,0.00,Melbourne Regional Office
-37.733,140.783,50.5,0.00,Mount Gambier Aero
-37.733,144.9,54.7,0.00,Essendon Airport
-36.9,149.9,59.5,0.00,Merimbula Airport
-36.317,141.633,51.7,0.00,Nhill Aerodrome
-35.307,149.195,53.0,0.00,Canberra
-35.165,147.466,55.1,0.00,Wagga Wagga
-34.95,138.533,60.2,0.00,Adelaide
-34.949,150.537,59.7,0.00,Nowra
-34.941,117.802,59.8,0.00,Albany Airport
-34.93,138.58,59.7,0.00,Adelaide (West Terrace)
-33.95,151.2,63.7,0.00,Sydney Intl Airport
-33.924,150.988,63.5,0.00,Sydney Bankstown
-33.9,148.7,58.2,0.00,Cowra Post Office
-33.85,148.65,58.2,0.00,Cowra Airport Comparison
-33.85,151.2,66.2,0.00,Sydney (Observatory Hill)
-33.833,121.893,55.9,0.00,Esperance
-33.601,150.781,61.8,0.00,Richmond
-33.383,149.117,50.2,0.00,Orange Airport Comparison
-32.795,151.834,65.8,0.00,Williamtown
-32.133,133.7,57.7,0.00,Ceduna Amo
-31.97,141.45,57.9,0.00,Brokenhillp.O. (Rly Station
-31.933,115.967,55.0,0.00,Perth Intl/Belmont
-31.917,115.867,57.9,0.00,Perth Metro
-31.483,145.833,60.5,0.00,Cobar Mo
-31.391,-54.112,80.4,0.00,Comandante Gustavo Kraemer
-31.144,136.817,59.1,0.00,Woomera
-31.08,150.85,58.4,0.00,Tamworthamo/Mo.From1966
-30.833,128.1,55.5,0.00,Forrest Airport
-30.789,121.462,55.6,0.00,Kalgoorlie Boulder
-30.47,138.42,60.2,0.00,Leigh Creek Aero
-30.321,153.116,64.1,0.00,Coffs Harbour
-29.467,149.85,61.0,0.00,Moree
-28.796,114.708,66.7,0.00,Geraldton
-28.705,121.891,56.5,0.00,Murrin Murrin
-27.55,135.45,60.3,0.00,Oodnadatta Airport
-27.483,153.033,67.9,0.00,Brisbane
-27.383,153.117,65.9,0.00,Brisbane Intl Arpt
-26.614,118.537,64.5,0.00,Meekatharra Airport
-26.413,146.263,61.3,0.00,Charleville
-25.528,-49.176,65.1,0.00,Afonso Pena
-25.033,128.3,63.4,0.00,Giles Meteorological Office
-24.9,152.317,70.4,0.00,Bundaberg Aero
-24.9,152.32,71.0,0.00,Bundabergaero
-24.888,113.67,75.3,0.00,Carnarvon Airport
-23.85,151.267,69.6,0.00,Gladstone Radar
-23.8,133.917,61.7,0.00,Alice Springs Arpt
-23.43,144.28,66.2,0.00,Longreachamo.
-23.382,150.475,70.7,0.00,Rockhampton
-23.007,-47.135,74.7,0.00,Viracopos
-21.67,115.12,75.4,0.00,Onslowamo
-21.117,149.217,77.8,0.00,Mackay Mo
-20.667,140.5,71.4,0.00,Cloncurry Airport
-20.378,118.626,81.4,0.00,Port Hedland Intl
-19.851,-43.951,68.9,0.00,Pampulha Carlos Drummond De Andrade
-19.633,134.183,70.3,0.00,Tennant Creek Airport
-19.25,146.767,79.1,0.00,Townsville(Civ/Mil)
-18.233,127.667,82.3,0.00,Halls Creek Airport
-17.945,122.232,84.2,0.00,Broome Intl
-17.652,-39.253,75.5,0.00,Caravelas
-16.883,145.767,78.1,0.00,Cairns Airport
-16.27,133.38,77.4,0.00,Dalywatersamo
-15.863,-47.913,69.1,0.00,Presidente Juscelino Kubitschek
-14.331,-170.714,81.7,0.00,Pago Pago Wso Ap
-13.75,143.117,77.2,0.00,Coen Airport
-13.267,-43.417,77.6,0.00,Bom Jesus Da Lapa Aeroporto
-12.47,130.83,81.6,0.00,Darwin University Office
-12.415,130.877,81.9,0.00,Darwin Intl
-10.951,142.459,62.9,0.00,Bamaga Injinoo
-10.567,142.217,80.9,0.00,Thursday Island
-9.334,-54.965,76.6,0.00,Cachimbo / Campo De Provas Brigadeiro Veloso
-4.193,-69.943,81.0,0.91,Alfredo Vasquez Cobo
-1.379,-48.476,80.0,0.00,Val De Cans Julio Cezar Ribeiro Intl
1.6,-75.533,73.8,0.00,Florencia/Capitolio
1.817,-78.75,79.2,0.00,Tumaco/La Florida
2.454,-76.609,67.2,0.16,Guillermo Leon Valencia
2.95,-75.294,81.6,0.00,Benito Salas
3.543,-76.382,73.0,0.00,Alfonso Bonilla Aragon Intl
3.82,-76.99,81.8,0.00,Gerardo Tobar Lopez
4.1,-76.233,74.6,0.00,Tulua/Farfan
4.168,-73.614,80.4,0.00,Vanguardia
4.283,-74.8,80.7,0.00,Girardot/Santiago Villa
4.453,-75.766,74.5,0.00,El Eden
4.517,-75.517,49.0,0.00,El Paso/La Linea
4.702,-74.147,56.6,0.00,El Dorado Intl
4.813,-75.74,71.0,0.00,Matecana
5.03,-75.465,62.0,0.00,La Nubia
5.691,-76.641,81.4,1.85,El Carano
6.22,-75.591,72.2,0.00,Olaya Herrera
6.822,79.886,82.8,0.00,Colombo Ratmalana
6.967,158.217,81.1,0.00,Weather Service Building
7.01,-74.715,74.4,0.00,Otu Remedios
7.024,-73.807,83.7,0.00,Yariguies
7.065,171.272,81.9,0.00,Weather Service Office Building
7.069,-70.737,82.8,0.00,Santiago Perez
7.1,-72.8,76.2,0.00,Bucarahalga
7.181,79.866,84.2,0.01,Bandaranaike Intl Colombo
7.333,134.483,83.6,0.00,Koror Wso
7.45,151.833,80.3,0.00,Chuuk Wso Ap
7.928,-72.512,84.2,0.00,Camilo Daza
8.117,-76.733,84.5,0.00,Turbo/Gonzalo Mejia
8.539,81.182,85.8,0.00,China Bay
8.733,167.733,83.4,0.00,Kwajalein Missle Ran
8.824,-75.826,87.4,0.00,Los Garzones
8.917,-79.6,79.5,0.00,Howard
8.967,-79.55,86.2,0.00,Albrook Afb/Balboa
9.067,-73.983,89.2,0.00,El Banco/Las Flores
9.333,-75.283,87.3,0.00,Corozal/Las Brujas
9.483,138.083,83.6,0.00,Yap Island Wso Ap
9.6,105.967,84.4,0.00,Ba-Xuyen/Soc Trang
9.65,-74.833,85.2,0.00,San Marc S
9.8,80.067,85.2,0.00,Kankasanturai
10.083,105.717,87.0,0.00,Can Tho
10.25,105.95,85.7,0.00,Vinh Long
10.367,107.1,86.4,0.00,Vungtau
10.442,-75.513,83.2,0.00,Rafael Nunez
10.55,106.4,90.0,0.00,Tan An
10.819,106.652,86.8,0.00,Tan Son Nhat Intl
10.833,106.967,86.1,0.00,Long Thanh (North)
10.89,-74.781,82.6,0.00,Ernesto Cortissoz
10.9,106.75,88.8,0.00,Dian
10.933,108.1,86.4,0.00,Phan Thiet
10.967,106.817,88.1,0.00,Saigon/Bien/Hoa
10.983,106.517,87.6,0.00,Cu Chi
11.0,106.7,89.3,0.00,Phu Loi
11.12,-74.231,87.5,0.00,Simon Bolivar
11.3,106.8,87.3,0.00,Phuoc-Vinh
11.317,106.067,89.9,0.00,Tay Ninh West
11.633,108.95,86.1,0.00,Phan Rang
11.667,106.667,86.3,0.00,Quan Loi
11.817,106.967,86.4,0.00,Phuoc Long/Song Be
11.95,108.417,72.7,0.00,Dalat/Cam Ly
12.0,109.217,83.9,0.00,Cam Ranh Bay
12.584,-81.711,83.4,0.00,Gustavo Rojas Pinilla
12.683,101.0,85.2,0.00,U-Taphao Intl(Navy)
13.083,109.283,85.5,0.00,Tuy-Hoa
13.483,144.8,80.8,0.00,Agana
13.567,144.917,81.0,0.00,Andersen Afb
13.767,109.217,82.9,0.00,Quy Nhon
13.913,100.607,85.2,0.00,Bangkok Intl / Don Mueang Intl
13.95,109.05,86.7,0.00,Phu Cat
13.967,108.667,81.6,0.00,An Khe
13.983,108.65,81.0,0.00,Camp Radcliff/Ankhe
14.005,108.017,77.3,0.00,Pleiku
14.467,109.033,84.1,0.00,L.Z. English
14.5,120.9,87.0,0.00,Sangley Point
14.8,120.267,87.0,0.00,Cubi Point Nf
14.817,108.967,81.7,0.00,Duc Pho
14.935,102.079,82.9,0.00,Khorat
15.117,105.767,85.6,0.00,Pakse
15.133,108.783,85.2,0.00,Quang Ngai
15.186,120.56,86.2,0.00,Clark Intl / Diosdado Macapagal Intl
15.233,100.283,85.3,0.00,Ta Khli  Thailand Ab
15.251,104.87,83.5,0.00,Ubon Ratchathani
15.417,108.7,82.1,0.00,Chu Lai
15.783,108.083,84.2,0.00,An Hoa
16.033,108.25,82.1,0.00,Marble Mountain
16.044,108.199,79.8,0.00,Danang Intl
16.4,107.633,84.3,0.00,Camp Eagle
16.402,107.703,82.4,0.00,Phubai
16.55,107.383,84.3,0.00,Camp Evans
16.557,104.76,85.1,0.00,Savannakhet
16.733,-169.517,77.1,0.00,Johnston Is Wso Ap
16.733,107.183,82.4,0.00,Quang Tri
17.386,102.788,83.9,0.00,Udon Thani
17.417,104.783,83.8,0.00,Nakhon Phanom
17.988,102.563,81.4,0.00,Wattay Intl
18.255,-65.641,79.1,0.00,Roosevelt Roads
18.433,-66.011,80.0,0.00,San Juan L M Marin Intl Ap
18.5,-67.133,78.8,0.00,Aquadilla/Borinquen
19.283,166.65,82.2,0.00,Wake Island
19.3,-81.367,81.6,0.00,Roberts
19.719,-155.053,69.1,0.00,Hilo International Ap
19.897,102.161,81.0,0.00,Luang Phabang Intl
19.9,-75.15,79.8,0.00,Guantanamo Bay Naval Air Station
20.25,100.433,85.7,0.00,Ban Houay-Xay
20.9,-156.429,73.1,0.00,Kahului Airport
21.317,-158.067,73.6,0.00,Barbers Point
21.324,-157.929,76.9,0.00,Honolulu International Airport
21.45,-157.783,72.3,0.00,Kaneohe Bay Mcas
21.487,-158.028,71.0,0.00,Wheeler Army Airfield
21.984,-159.341,73.2,0.00,Lihue Airport
22.033,-159.783,76.9,0.00,Barking Sands Pacific Missile Range Fac Arpt
24.265,120.621,67.9,0.00,Taichung Intl / Ching Chuang Kang Ab
24.555,-81.752,79.9,0.00,Key West Intl Arpt
24.583,-81.683,79.8,0.00,Key West Nas
25.483,-80.383,76.9,0.00,Homestead Afb Airport
25.791,-80.316,80.0,0.00,Miami Intl Ap
25.914,-97.423,79.0,0.00,Brownsville/S Padre Island Intl Ap
26.267,127.75,66.4,0.00,Futenma
26.3,127.767,68.6,0.00,Hamby Aaf/Buckner
26.356,127.768,65.7,0.00,Kadena Ab
26.585,-81.861,75.8,0.00,Fort Myers Page Field
26.685,-80.099,78.3,0.00,West Palm Beach Intl Arpt
27.5,-97.817,77.2,0.00,Kingsville
27.55,-99.467,83.6,0.00,Laredo Intl Airport
27.683,-97.283,74.9,0.00,Corpus Christi Nas
27.774,-97.512,78.3,0.00,Corpus Christi International Airport
27.85,-82.517,74.1,0.00,Mac Dill Afb Airport
27.962,-82.54,74.7,0.00,Tampa Intl Arpt
28.2,-177.383,71.7,0.00,Henderson Field Airport
28.233,-80.6,76.1,0.00,Patrick Afb Airport
28.367,-97.667,77.3,0.00,Beeville Chase Naas
28.434,-81.325,76.5,0.00,Orlando International Airport
28.483,-80.567,75.2,0.00,Cocoa Beach Cape Kennedy Afs
28.545,-81.333,78.5,0.00,Orlando Municipal Arpt
28.861,-96.93,76.1,0.00,Victoria Regional Airport
29.167,-82.217,76.8,0.00,Ocala Intl J Taylor
29.183,-81.048,76.8,0.00,Daytona Beach Regional Arpt
29.267,-100.283,64.3,0.00,Del Rio(Nexrad)
29.367,-100.783,75.2,0.00,Laughlin Afb Airport
29.378,-100.927,74.4,0.00,Del Rio International Airport
29.383,-98.583,76.8,0.00,Lackland Air Force Base (Kelly Field Annex)
29.533,-98.262,77.1,0.00,Randolph Afb Airport
29.544,-98.484,77.0,0.00,San Antonio International Airport
29.617,-95.167,75.6,0.00,Ellington Field Airport
29.817,-90.017,78.2,0.00,New Orleans Alvin Callender F
29.951,-94.021,76.6,0.00,Port Arthur Jefferson County
29.98,-95.36,75.9,0.00,Houston Intercontinental Ap
29.997,-90.278,76.3,0.00,Louis Armstrong New Orleans Intl Ap
30.067,-85.583,75.8,0.00,Tyndall Afb Airport
30.125,-93.228,75.7,0.00,Lake Charles Regional Arpt
30.183,-97.68,75.6,0.00,Austin-Bergstrom Intl Airport
30.2,-97.683,76.0,0.00,Bergstrom Afb/Austi
30.233,-81.667,76.5,0.00,Jacksonville Nas
30.321,-97.76,75.8,0.00,Austin Mueller Municipal Ap
30.35,-87.317,75.0,0.00,Pensacola Forest Sherman Nas
30.393,-84.353,74.0,0.00,Tallahassee Dale Mabry Field
30.4,-81.417,74.6,0.00,Mayport Ns
30.417,-88.917,78.3,0.00,Keesler Air Force Base
30.417,-86.683,74.8,0.00,Hurlburt Field Airport
30.478,-87.187,76.0,0.00,Pensacola Regional Ap
30.483,-87.35,77.2,0.00,Pensacola Saufley Nas
30.483,-86.517,75.0,0.00,Eglin Afb Airport
30.495,-81.694,76.2,0.00,Jacksonville Imeson
30.533,-87.2,80.8,0.00,Pensacola Ellyson Fld Naas
30.537,-91.147,75.4,0.00,Baton Rouge Ryan Arpt
30.688,-88.246,75.9,0.00,Mobile Regional Ap
30.717,-87.017,78.0,0.00,Whiting Field Nas
30.967,-83.2,77.5,0.00,Moody Afb/Valdosta
31.067,-97.833,68.8,0.00,Robert Gray Aff Airport
31.133,-97.717,74.8,0.00,Hood Aaf Airport
31.236,-94.754,78.1,0.00,Lufkin Angelina Co
31.25,-81.467,74.0,0.00,Brunswick Glynn Co A
31.267,-85.717,71.1,0.04,Cairns Army Airfield (Fort Rucker)
31.317,-92.55,76.3,0.00,Alexandria Int
31.352,-100.495,72.9,0.00,San Angelo Regional/Maths Field Ap
31.393,-92.296,74.5,0.00,Esler Field Aaf
31.588,-110.344,60.6,0.00,Sierra Vista Municipal-Libby Aaf Airport
31.619,-97.228,72.9,0.00,Waco Rich Field
31.811,-106.376,71.6,0.00,El Paso Municipal Arpt
31.883,-81.567,71.5,0.00,Ft Stewart/Wright
31.948,-102.209,71.9,0.00,Midland International Airport
32.009,-81.146,69.7,0.00,Hunter Aaf
32.13,-81.21,73.1,0.00,Savannah Intl Ap
32.131,-110.955,65.0,0.00,Tucson International Ap
32.167,-110.883,64.4,0.00,Davis-Monthan Afb Airport
32.217,-101.517,72.3,0.00,Webb Afb
32.3,-86.408,68.9,0.00,Montgomery Dannelly Field
32.321,-90.078,71.5,0.00,Jackson International Ap
32.335,-88.744,70.5,0.00,Meridian Key Field
32.35,-86.983,71.4,0.00,Craig Fld
32.35,-85.0,67.7,0.00,Lawson Aaf Airport
32.367,-64.683,68.7,0.00,Naval Atlantic Meterology & Oceanography Facility
32.383,-86.35,69.2,0.00,Maxwell Afb Airport
32.411,-99.682,68.9,0.00,Abilene Regional Airport
32.433,-99.85,69.5,0.00,Abilene Dyess Afb
32.447,-93.824,72.0,0.00,Shreveport Regional Arpt
32.483,-80.717,72.7,0.00,Beaufort Mcas
32.5,-93.667,71.5,0.00,Barksdale Air Force Base
32.516,-84.942,67.6,0.00,Columbus Muscogee County Arpt
32.55,-88.567,71.9,0.00,Meridian Naas
32.567,-117.117,59.5,0.00,Imperial Beach Ream Field Nas
32.633,-83.6,66.9,0.00,Robins Afb Airport
32.667,-114.6,69.6,0.00,Yuma Intl Arpt
32.685,-83.653,66.2,0.00,Macon Middle Ga Regional Ap
32.7,-117.2,61.9,0.00,North Island Nas
32.733,-96.967,67.1,0.00,Dallas Hensley Field Nas
32.734,-117.183,61.6,0.00,San Diego Lindbergh Field
32.767,-97.45,67.5,0.00,Fort Worth Naval Air Station Jrb/Carswell Field
32.85,-106.1,66.6,0.00,Holloman Afb
32.852,-96.856,67.5,0.00,Dallas Love Field Airport
32.867,-117.133,61.1,0.00,San Diego Miramar Nas
32.898,-97.019,66.5,0.00,Dallas-Fort Worth Intl Ap
32.899,-80.041,71.5,0.00,Charleston Afb/International Airport
32.9,13.283,67.9,0.00,Wheelus Fld
33.023,-118.588,58.6,0.00,Nalf/F. Sherman Fld Arpt
33.2,126.267,55.5,0.00,Mosulpo (Kor-Afb)
33.237,-107.268,62.5,0.00,Truth Or Consequences Muni Ap
33.25,-119.45,59.0,0.00,San Nicholas Island
33.3,-117.35,62.2,0.00,Camp Pendleton Mcas
33.3,-111.667,72.1,0.00,Williams Gateway Airport
33.364,-81.963,66.1,0.00,Augusta Bush Field
33.428,-112.004,67.3,0.00,Phoenix Sky Harbor Intl Ap
33.55,-112.367,66.9,0.00,Luke Afb Airport
33.566,-86.745,64.8,0.00,Birmingham Municipal Ap
33.586,130.451,56.9,0.00,Fukuoka
33.6,-102.05,71.0,0.00,Reese Afb/Lubbock
33.619,-114.714,70.1,0.00,Blythe Riverside Co
33.63,-84.442,61.4,0.00,Atlanta Hartsfield Intl Ap
33.65,-88.45,65.9,0.00,Columbus Afb Airport
33.666,-101.823,63.1,0.00,Lubbock West Texas Air Termina
33.667,-117.733,60.8,0.00,El Toro Mcas
33.68,-117.866,63.2,0.00,Santa Ana
33.683,-78.933,70.8,0.00,Myrtle Beach Intl Airport
33.7,-117.833,60.5,0.00,Marine Corps Air Station
33.783,-118.05,62.9,0.00,Los Alamitos
33.812,-118.146,61.5,0.00,Long Beach / Daugherty Field / Airport
33.9,-117.25,58.0,0.00,March Air Reserve Base
33.917,-84.517,62.8,0.00,Dobbins Air Reserve Base Airport
33.921,-80.801,69.5,0.00,Mc Entire Jngb
33.938,-118.389,60.5,0.00,Los Angeles Municipal Arpt
33.942,-81.118,70.4,0.00,Columbia Metro Arpt
33.948,-83.328,62.2,0.00,Athens Municipal Arpt
33.967,-80.8,69.1,0.00,Mcentire Ang
33.967,-80.467,72.3,0.00,Shaw Air Force Base
33.979,-98.493,64.6,0.00,Wichita Falls Municipal Arpt
34.056,-117.6,60.6,0.00,Ontario International Arpt
34.095,-117.235,60.8,0.00,San Bernardino International Airport
34.117,-119.117,55.4,0.00,Point Mugu Nf
34.15,132.233,57.6,0.00,Iwakuni
34.268,-77.9,69.8,0.00,Wilmington
34.3,-103.8,65.2,0.00,Melrose Gunnery Ran
34.3,-6.6,62.8,0.00,Port Lyautey
34.383,-103.317,61.8,0.00,Cannon Afb Airport
34.583,-117.383,60.7,0.00,Southern California Logistics Airport
34.644,-86.786,66.0,0.00,Huntsville Madison County Arp
34.65,-99.267,62.8,0.00,Altus Afb Airport
34.65,-98.4,63.7,0.00,Henry Post Aaf Airport
34.652,-112.421,53.8,0.00,Prescott Municipal Ap
34.7,-77.383,69.4,0.00,New River Mcas
34.727,-92.239,63.5,0.00,Little Rock Adams Field
34.744,-118.724,49.4,0.00,Sandberg
34.75,-120.567,51.1,0.00,Vandenberg Afb
34.854,-116.786,65.9,0.00,Daggett Barstow-Daggett Ap
34.884,-82.221,61.5,0.00,Greenville-Spartanburg Intl Airport
34.899,-120.449,57.0,0.00,Santa Maria Public Arpt
34.9,-117.867,61.4,0.00,Edwards Air Force Base
34.9,-76.883,70.1,0.00,Cherry Point Mcas
34.917,-92.15,64.1,0.00,Little Rock Afb Airport
34.983,-89.783,72.9,0.00,Olive Branch
35.0,25.733,68.0,0.00,Ierapetra
35.028,-110.721,53.2,0.00,Winslow Municipal Ap
35.031,-85.201,62.3,0.00,Chattanooga Lovell Field Ap
35.042,-106.616,58.2,0.00,Albuquerque Intl Sunport Airport
35.056,-89.987,65.1,0.00,Memphis Municipal Arpt
35.066,24.75,66.3,0.00,Tymbakion (Airport)
35.067,-108.833,47.7,0.00,Zuni
35.083,128.067,56.9,0.00,Sacheon Ab
35.126,126.809,56.1,0.00,Gwangju
35.133,-78.933,72.0,0.00,Simmons Aaf Airport
35.133,128.7,58.0,0.00,Chinhae (Kor-Army)
35.144,-111.666,45.4,0.00,Flagstaff Pulliam Arpt
35.167,136.967,55.3,0.00,Nagoya
35.174,-79.009,68.3,0.00,Pope Afb Airport
35.18,128.938,56.5,0.00,Gimhae Intl
35.182,-103.603,62.1,0.00,Tucumcari Faa Ap
35.2,26.1,63.5,0.00,Sitia
35.224,-80.955,62.8,0.00,Charlotte Douglas Municipal A
35.23,-101.704,60.6,0.00,Amarillo Rick Husband Intl Airport
35.233,-75.622,64.1,0.00,Hatteras Billy Mitchell Ap
35.255,136.924,56.0,0.00,Nagoya
35.283,62.35,54.0,0.04,Gyshgy
35.283,139.667,54.0,0.00,Yokosuka
35.333,-94.363,64.6,0.00,Fort Smith Regional Airport
35.34,25.18,64.2,0.00,Nikos Kazantzakis
35.344,-77.965,71.9,0.00,Seymour-Johnson Afb Airport
35.35,-89.867,63.3,0.00,Memphis Nas
35.35,24.517,68.0,0.00,Rethymnon
35.389,-97.601,64.1,0.00,Oklahoma City Will Rogers Fie
35.417,-97.383,64.8,0.00,Tinker Afb Airport
35.432,-82.538,60.6,0.00,Asheville Airport
35.434,-119.054,63.6,0.00,Bakersfield Kern County Arpt
35.45,139.45,54.3,0.04,Atsugi Nas
35.498,12.618,61.5,0.00,Lampedusa
35.514,139.394,54.9,0.00,Kastner Aaf / Camp Zama Japan
35.517,139.4,54.5,0.00,Kastner Aaf
35.532,24.15,65.6,0.00,Souda
35.552,139.78,56.4,0.00,Tokyo Intl
35.683,139.767,56.4,0.00,Tokyo
35.688,-117.693,69.5,0.00,China Lake Naf
35.748,139.348,53.3,0.00,Yokota Ab
35.818,-83.986,61.5,0.00,Knoxville Mcghee Tyson Ap
35.857,14.478,65.9,0.00,Luqa
35.892,-78.782,65.7,0.00,Raleigh-Durham International Ap
35.894,128.659,56.1,0.00,Daegu Ab
35.917,126.617,54.2,0.04,Kunsan Ab
35.967,-89.95,60.4,0.00,Arkansas International Airport
36.0,-121.233,55.9,0.00,Jolon Hunter Liggett Mil Res
36.072,-115.163,65.9,0.00,Las Vegas Mccarran Intl Ap
36.083,129.567,52.5,0.00,Changgai Gap
36.097,-79.943,65.9,0.00,Greensboro Greensboro-High Po
36.119,-86.689,60.1,0.00,Nashville Berry Field
36.199,-95.887,62.5,0.00,Tulsa International Airport
36.261,-76.175,68.8,0.00,Monroe Co
36.274,23.017,67.8,0.00,Kithira / Alexandros Aristotelous Onassis
36.333,-119.95,58.5,0.00,Naval Air Station
36.333,-97.917,65.7,0.00,Vance Afb
36.405,28.086,65.3,0.00,Diagoras
36.473,-82.404,61.7,0.00,Bristol Tri City Airport
36.517,126.317,57.8,0.00,Anmyeondo
36.533,61.217,59.3,0.00,Saragt
36.6,-121.867,52.3,0.00,Monterey Naf
36.65,-6.35,62.8,0.00,Rota Nas
36.667,-87.483,58.7,0.00,Campbell Aaf Airport
36.683,-121.767,53.5,0.00,Fritzsche Aaf
36.683,15.133,64.9,0.00,Cozzo Spadaro
36.744,-108.229,47.4,0.00,Farmington Municipal Ap
36.78,-119.719,61.7,0.00,Fresno Yosemite Intl Ap
36.8,27.1,67.7,0.00,Kos Island
36.817,-76.033,64.6,0.00,Oceana Nas
36.817,11.969,60.8,0.00,Pantelleria
36.833,21.7,64.5,0.00,Methoni
36.903,-76.192,68.9,0.00,Norfolk Regional Arpt
36.933,126.45,55.0,0.00,Mangilsan (Kor-Afb)
36.95,-116.05,54.0,0.00,Yucca Flats Test S T
36.95,-76.283,66.8,0.00,Norfolk Nas
36.967,127.033,63.4,0.00,A 511 / Desiderio Aaf-Pyeongtaek / Camp Humphreys Rok
37.033,22.1,67.1,0.00,Kalamata
37.083,-76.36,66.1,0.00,Langley Afb Airport
37.083,14.217,61.6,0.00,Gela
37.091,127.03,57.7,0.00,Osan Ab
37.1,25.367,66.4,0.00,Naxos
37.133,-76.6,70.1,0.00,Felker Army Airfield
37.239,127.007,57.5,0.00,Suwon
37.24,-93.39,58.7,0.00,Springfield Municipal Arpt
37.287,67.31,69.0,0.00,Termez
37.317,-79.974,63.6,0.00,Roanoke Woodrum Arpt
37.321,-79.207,66.4,0.00,Lynchburg Municipal Arpt
37.359,-121.924,56.6,0.00,San Jose Municipal Ap
37.371,-118.358,56.6,0.00,Bishop Airport
37.383,-120.567,61.9,0.00,Castle Afb
37.4,14.917,63.9,0.00,Sigonella
37.406,-122.048,54.6,0.00,Mountain View Moffett Fld Nas
37.439,-105.861,40.5,0.00,Alamosa Arpt
37.45,24.95,67.2,0.00,Siros Island
37.467,15.066,62.5,0.00,Catania Fontanarossa
37.467,53.967,58.2,0.02,Esenguly
37.467,126.433,64.4,0.00,Incheon Int'L Airport
37.5,129.133,61.1,0.00,Donghae Radar
37.505,-77.32,69.0,0.00,Richmond Intl Ap
37.531,22.404,61.9,0.12,Tripolis
37.558,126.791,57.5,0.00,Gimpo
37.567,126.967,60.0,0.00,Seoul City
37.6,62.183,61.6,0.01,Bajramaly
37.617,-97.267,61.3,0.00,Mcconnell Afb Airport
37.62,-122.365,53.5,0.00,San Francisco Intl Ap
37.648,-97.43,58.2,0.00,Wichita Municipal Arpt
37.706,-112.146,41.6,0.00,Bryce Cnyn Faa Ap
37.709,-113.094,50.9,0.00,Cedar City Municipal Ap
37.721,-122.221,54.4,0.00,Oakland Metropolitan
37.75,-92.15,61.0,0.00,Waynesville Regional Airport At Forney Field
37.75,26.867,67.8,0.00,Samos Island
37.754,128.944,51.8,0.00,Gangneung
37.769,-99.968,60.4,0.00,Dodge City Municipal Arpt
37.783,-122.317,54.4,0.00,Naval Air Station
37.783,20.883,65.0,0.00,Zakynthos
37.783,126.85,60.1,0.00,Yeongdongri
37.784,-81.123,54.7,0.00,Beckley Raleigh Co Mem Ap
37.833,65.2,62.0,8.86,Kerki Intl
37.882,23.735,65.8,0.00,Athinai
37.884,127.718,58.1,0.00,A 306
37.889,-121.226,59.1,0.00,Stockton Metropolitan Arpt
37.9,-85.967,57.7,0.00,Godman Aaf Airport
37.911,12.488,59.0,0.00,Trapani Birgi
37.917,127.05,65.6,0.00,Camp Casey/Tongduch
37.921,21.293,63.0,0.00,Andravida
37.933,124.667,53.9,0.00,Baengnyeongdo Ab
37.937,-75.471,62.9,0.00,Wallops Island Uau
37.95,128.317,59.2,0.00,Hyun Ni (Kor-Army)
37.967,126.567,57.0,0.00,Kaesong
37.983,23.567,66.8,0.00,Piraeus
37.987,58.361,55.6,0.12,Ashgabat
38.033,125.7,57.8,0.00,Haeju
38.041,-84.606,57.6,0.00,Lexington Bluegrass Field
38.044,-87.521,59.6,0.00,Evansville Dress Regional Arp
38.05,23.667,67.0,0.00,Athinai (Filadelfia)
38.051,-117.09,51.6,0.00,Tonopah Airport
38.064,23.556,68.3,0.00,Elefsis
38.067,-122.5,54.3,0.00,Hamilton Aaf
38.109,23.784,69.0,0.00,Tatoi / Dekelia
38.12,20.5,65.1,0.00,Kefallinia
38.151,21.426,64.6,0.00,Araxos
38.176,13.091,63.5,0.00,Palermo
38.181,-85.739,59.1,0.00,Louisville Standiford Field
38.2,15.55,66.5,0.00,Messina
38.233,127.967,58.2,0.00,Wonju Ab
38.25,-78.05,77.5,0.00,Orange Co
38.267,-121.933,56.8,0.00,Travis Air Force Base
38.289,-104.506,56.9,0.00,Pueblo Memorial Airport
38.3,-76.417,63.3,0.00,Naval Air Station
38.34,23.565,62.9,0.00,Tanagra
38.341,-75.51,65.4,0.00,Salisbury Wicomico Co Ap
38.365,-82.555,56.5,0.00,Huntington Tri-State Arpt
38.367,26.15,68.0,0.00,Chios Dodecanese Is
38.379,-81.59,57.3,0.00,Charleston Kanawha Arpt
38.417,-113.017,53.1,0.00,Milford Municipal Ap
38.467,70.883,58.5,0.59,Darvaz
38.5,-77.3,64.5,0.00,Quantico Mcas
38.507,-121.495,57.6,0.00,Sacramento Executive Arpt
38.517,125.767,56.0,0.00,Sariwon
38.543,68.825,62.5,0.71,Dushanbe
38.55,-89.85,59.9,0.00,Scott Air Force Base/Midamerica Airport
38.567,-121.3,61.7,0.00,Mather Field
38.633,24.1,65.0,0.00,Kimi
38.65,-97.8,66.7,0.00,Smoky Hill Af
38.65,66.933,45.5,0.16,Minchukur
38.667,-121.4,59.8,0.00,Sacramento Mcclellan Afb
38.678,-104.757,59.4,0.00,Butts Aaf Airport
38.683,61.2,60.3,0.00,Cheshme
38.7,13.183,59.7,0.02,Ustica Island
38.717,-93.55,61.9,0.00,Whiteman Afb Airport
38.717,-77.183,64.1,0.00,Davison Aaf Airport
38.733,48.833,55.2,0.00,Lankaran
38.753,-90.374,62.1,0.00,St Louis Lambert Int'L Arpt
38.762,-27.091,60.3,0.00,Lajes
38.81,-104.688,52.6,0.00,Colorado Springs Peterson Fie
38.817,-92.218,60.4,0.00,Columbia Regional Airport
38.817,-76.867,63.7,0.00,Andrews Air Force Base Airport
38.833,20.717,64.2,0.00,Lefkas
38.844,-94.56,60.9,0.00,Richard Gebaur
38.848,-77.034,64.9,0.00,Washington D C Washngtn-Hoove
38.876,-98.809,59.7,0.00,Russell Municipal Ap
38.885,-79.853,54.9,0.00,Elkins Elkins-Randolph Co Arp
38.941,-77.464,62.0,0.00,Washington Dulles International Ap
38.95,-95.664,60.7,0.00,Forbes Field Airport
38.967,-104.817,60.4,0.00,Usaf Academy Airstrip Airport
38.968,24.487,66.8,0.00,Skiros
38.983,56.283,56.0,0.05,Gyzylarbat
38.997,17.08,67.3,0.00,Crotone
39.017,73.55,31.0,0.01,Karakul
39.043,-84.672,57.5,0.00,Cincinnati Greater Cincinnati
39.05,-96.767,61.6,0.00,Marshall Army Airfield
39.057,26.598,66.9,0.00,Mitilini
39.073,-95.626,61.4,0.00,Topeka Municipal Ap
39.083,-76.767,68.5,0.00,Tipton Airport
39.083,63.6,66.2,0.00,Chardzhev
39.121,-94.597,67.1,0.00,Kansas City Municipal Ap
39.133,-121.433,60.6,0.00,Beale Air Force Base
39.133,-75.467,61.0,0.00,Dover Afb Airport
39.134,-108.54,51.5,0.00,Grand Junction Walker Field
39.167,-76.683,62.5,0.00,Baltimore Blt-Washng
39.183,127.433,49.3,0.00,Wonsan
39.22,22.794,60.6,0.00,Nea Anchialos
39.224,125.67,57.5,0.00,Pyongyang Intl
39.251,9.054,63.3,0.00,Elmas
39.295,-114.847,46.7,0.00,Ely Yelland Field
39.317,58.6,57.6,0.01,Erbent
39.367,-101.693,55.4,0.00,Goodland Renner Field
39.367,-94.917,63.4,0.00,Sherman Aaf
39.417,-118.717,56.2,0.00,Fallon Naas
39.431,-83.777,62.4,0.00,Airborne Airpark Airport
39.449,-74.567,60.2,0.00,Atlantic City Intl A
39.484,-119.771,54.4,0.00,Reno Wbo
39.551,-97.651,60.9,0.00,Concordia Blosser Muni Ap
39.583,15.883,57.7,0.00,Bonifati (Cape)
39.602,19.912,63.3,0.00,Ioannis Kapodistrias Intl
39.65,-106.917,40.7,0.00,Eagle County Ap
39.65,22.466,64.9,0.00,Larisa
39.673,-75.601,60.4,0.00,Wilmington Dupont Ap
39.7,20.817,65.4,0.00,Ioannina (Airport)
39.701,66.984,60.2,0.02,Samarkand
39.717,-104.75,54.0,0.00,Buckley Air Force Base
39.732,-86.279,59.5,0.00,Indianapolis Weir Cook Munici
39.75,8.467,58.9,0.00,Cape Frasca
39.767,-104.883,53.5,0.00,Denver Stapleton Airfield
39.774,-94.923,62.6,0.00,St Joseph Wbo
39.817,-82.933,55.0,0.00,Rickenbacker Intl Airport
39.817,18.35,63.6,0.00,Santa Maria Di Leuc
39.833,-84.05,58.7,0.00,Wright-Patterson Afb Airport
39.845,-89.684,61.0,0.00,Springfield Capital Ap
39.85,-83.833,64.5,0.00,Springfield Af
39.868,-75.231,59.5,0.00,Philadelphia International Ap
39.906,-84.219,57.6,0.00,Dayton Municipal Arpt
39.933,9.717,65.3,0.00,Cape Bellavista
39.933,25.25,66.3,0.00,Limnos Island Arpt
39.933,127.55,51.3,0.00,Hamheung
39.991,-82.881,56.0,0.00,Columbus Municipal Arpt
40.017,-74.6,60.1,0.00,Mcguire Afb Airport
40.017,15.283,60.5,0.00,Cape Palinuro
40.033,-74.35,59.5,0.00,Lakehurst Nas
40.033,52.983,56.2,0.00,Turkmenbashi
40.068,-118.569,53.1,0.00,Lovelock Derby Field
40.1,124.383,56.6,0.00,Sinuiju
40.152,-122.254,60.0,0.00,Red Bluff Municipal Arpt
40.183,-74.067,59.4,0.00,Belmar Asc
40.2,-75.15,57.2,0.00,Willow Grove Nas
40.212,44.53,62.0,0.00,Yerevan-Arabkir
40.217,-76.851,58.8,0.00,Harrisburg State Arpt
40.217,69.733,63.0,0.00,Khudjant
40.286,21.841,71.0,0.00,Filippos
40.3,-88.15,62.9,0.00,Rantoul/Chanute Afb
40.317,73.55,55.8,0.00,Gulca
40.367,71.75,62.2,0.00,Fergana Airport
40.433,16.883,63.0,0.00,Marina Di Ginosa
40.467,62.283,65.4,0.02,Darganata
40.485,-80.214,55.0,0.00,Pittsburgh International Airport
40.497,-3.446,61.1,0.00,Torrejon
40.52,22.971,63.9,0.00,Makedonia
40.583,-73.883,55.7,0.00,New York Floyd Benne
40.632,8.291,59.1,0.00,Alghero
40.633,15.8,56.0,0.00,Potenza
40.639,-73.762,59.8,0.00,New York Fort Totten
40.65,-86.15,59.2,0.00,Grissom Arb
40.651,-75.449,54.7,0.00,Allentown Bethlehem-Easton Ar
40.658,17.947,60.1,0.00,Casale / Brindisi
40.667,129.2,48.0,0.00,Kimchaek/Songjin
40.668,-89.684,59.8,0.00,Peoria Greater Peoria Ap
40.683,-74.169,59.8,0.00,Newark International Arpt
40.705,141.372,48.4,0.00,Misawa Ab
40.721,-114.036,58.0,0.00,Wendover Usaf Auxiliary Field
40.778,-111.969,55.3,0.00,Salt Lake City International Airport
40.779,-73.969,58.8,0.00,New York Central Park
40.779,-73.88,56.9,0.00,New York Laguardia Arpt
40.783,-91.125,62.3,0.00,Burlington Municipal Ap
40.783,21.4,68.0,0.00,Florina
40.783,55.333,58.5,0.00,Chagyl
40.82,-82.518,62.2,0.00,Mansfield Lahm Ap
40.829,-115.789,49.8,0.00,Elko Municipal Arpt
40.85,14.3,61.7,0.00,Napoli/Capodichino
40.856,25.956,65.1,0.00,Dimokritos
40.899,9.518,67.0,0.00,Olbia Costa Smeralda
40.902,-117.808,49.1,0.00,Winnemucca Municipal Arpt
40.917,-81.433,53.6,0.00,Akron Akron-Canton Airport
40.917,12.95,61.0,0.00,Ponza Island
40.917,72.95,61.2,0.00,Dzhalal-Abad
40.933,24.383,69.0,0.00,Kavala/Amigdhaleon
40.961,-98.314,63.0,0.00,Grand Island Arpt
40.967,126.6,56.3,0.00,Kanggye
40.971,-85.206,57.7,0.00,Fort Wayne City
40.978,-124.109,47.2,0.00,Arcata Airport
41.033,57.767,57.8,0.00,Ekezhe
41.067,-73.708,56.3,0.00,White Plains Westchester Co A
41.117,-111.967,52.4,0.00,Hill Afb Airport
41.117,-95.917,61.9,0.00,Offutt Afb Airport
41.117,25.4,65.3,0.00,Komotini
41.121,-100.669,51.6,0.00,North Platte Lee Bird Field
41.133,16.767,66.5,0.00,Bari
41.158,-104.807,49.0,0.00,Cheyenne Airport
41.158,-73.129,56.4,0.00,Bridgeport Municipal Arpt
41.243,-76.922,53.7,0.00,Williamsport-Lycoming County
41.254,-80.674,52.0,0.00,Youngstown Municipal Arpt
41.258,69.281,67.8,0.00,Yuzhny / Tashkent Islam Karimov Intl
41.31,-95.899,64.1,0.00,Omaha Eppley Airfield
41.333,-122.333,41.7,0.00,Mount Shasta
41.334,-75.727,51.8,0.00,Wilkes-Barre Scranton Ap
41.383,-79.867,60.5,0.00,Franklin
41.4,128.167,50.9,0.00,Hyesan
41.405,-81.853,55.8,0.00,Cleveland Hopkins Intl Ap
41.433,76.0,49.5,0.00,Naryn
41.465,-90.523,63.5,0.00,Moline Quad City Arpt
41.534,-93.653,61.9,0.00,Des Moines Municipal Arpt
41.541,15.718,66.4,0.01,Amendola
41.567,14.65,59.1,0.00,Campobasso
41.583,-71.417,56.6,0.00,Quonset Point Nas
41.589,-83.801,58.8,0.00,Toledo Express Airport
41.594,-109.053,42.7,0.00,Rock Springs Arpt
41.667,-1.05,66.7,0.00,Zaragoza (Usafb)
41.667,46.65,59.9,0.00,Zakatala
41.707,-86.316,59.0,0.00,South Bend St Joseph Co Arpt
41.722,-71.433,58.3,0.00,Providence T F Green Arpt
41.733,64.617,66.0,0.00,Tamdy-Bulak
41.75,44.767,59.2,0.00,Tbilisi / Lochini Airport
41.75,59.817,67.0,0.00,Dashkhovuz
41.75,62.467,65.8,0.02,Buzaubaj
41.783,126.883,53.1,0.00,Chunggang
41.783,129.817,48.7,0.00,Chongjin
41.786,-87.752,63.4,0.00,Chicago Midway Ap
41.8,-78.633,46.9,0.00,Bradford Regional Ap
41.804,12.251,60.8,0.00,Fiumicino
41.817,78.733,34.7,0.02,Ak-Syjrak
41.817,140.75,50.6,0.00,Hakodate
41.833,72.867,61.0,0.00,Toktogul
41.867,-87.617,66.5,0.00,Chicago Meigs Field
41.867,-71.017,54.1,0.00,Taunton Muni
41.871,-103.593,54.0,0.00,Scottsbluff W B Heilig Fiel
41.883,78.233,28.8,0.00,Tian-Shan'
41.938,-72.683,57.4,0.00,Hartford Bradley Intl Ap
41.986,-97.435,66.2,0.00,Norfolk Karl Stefan Mem Arpt
41.995,-87.934,63.6,0.00,Chicago Ohare Intl Ap
42.033,43.483,50.8,0.00,Mta-Sabueti
42.08,-80.183,48.9,0.00,Erie International Ap
42.083,-87.833,63.2,0.00,Naval Air Station
42.147,-121.724,39.2,0.00,Klamath Falls Airport
42.15,-70.933,57.3,0.00,South Weymouth Nas
42.193,-89.093,58.5,0.00,Rockford Greater Rockford Ap
42.2,-72.533,55.3,0.00,Westover Afb/Metropolitan Airport
42.207,-75.98,48.9,0.00,Binghamton Broome County Arpt
42.231,-83.331,57.9,0.00,Detroit Metro Ap
42.267,42.633,62.5,0.00,Kutaisi
42.271,-71.873,52.2,0.00,Worcester Municipal Arpt
42.317,130.4,47.5,0.00,Senbong
42.361,-71.01,57.5,0.00,Gen E L Logan International Airport
42.381,-122.872,46.6,0.00,Medford Jackson County Arpt
42.391,-96.379,64.0,0.00,Sioux City Municipal Arpt
42.398,-90.704,58.3,0.00,Dubuque Municipal Ap
42.409,-83.01,59.9,0.00,Detroit City Airport
42.417,-71.483,58.7,0.00,Maynard
42.432,14.181,61.9,0.00,Pescara
42.467,12.983,42.7,0.00,Terminillo Mountain
42.47,-71.289,58.6,0.00,Bedford Hanscom Field
42.554,-92.401,60.1,0.00,Waterloo Municipal Airport
42.583,10.1,61.7,0.00,Pianosa Island
42.6,-123.364,32.0,0.00,Sexton Summit
42.608,-82.818,57.9,0.00,Selfridge Air National Guard Base
42.65,130.8,46.7,0.00,Pos'Et
42.743,-73.809,56.5,0.00,Albany County Ap
42.76,11.072,59.2,0.00,Grosseto
42.78,-84.579,57.3,0.00,Lansing Capital City Arpt
42.815,-108.726,47.7,0.00,Lander Hunt Field
42.85,71.3,65.4,0.02,Taraz
42.85,74.533,61.2,0.00,Bishkek
42.867,41.133,53.6,0.00,Suhumi
42.883,-85.524,57.2,0.00,Grand Rapids Kent County Arpt
42.898,-106.474,48.5,0.00,Casper Natrona Co Intl Ap
42.9,133.9,45.6,0.00,Preobrazhenie
42.92,-112.571,44.3,0.00,Pocatello Municipal Arpt
42.94,-78.736,47.6,0.00,Buffalo Niagara International Airpor
42.95,59.817,63.2,0.00,Chimbaj
42.955,-87.904,59.7,0.00,Milwaukee Nb Side Po
42.967,-83.749,56.8,0.00,Flint Bishop Arpt
42.967,54.117,57.8,0.00,Akkuduk
43.0,47.5,54.0,0.00,Mahachkala
43.033,44.683,59.6,0.00,Vladikavkaz
43.05,-115.867,47.3,0.00,Mountain Home Afb Airport
43.067,141.333,57.5,0.00,Sapporo
43.083,-70.817,53.2,0.00,Pease Intl Tradepor
43.096,12.513,59.5,0.00,Perugia S Francesco
43.108,-78.938,51.0,0.00,Niagara Falls Intl Airport
43.109,-88.031,65.2,0.00,Milwaukee Timmerman
43.111,-76.104,51.0,0.00,Syracuse Municipl Ap
43.117,-77.677,52.2,0.00,Rochester Monroe Co Arpt
43.117,131.933,46.6,0.00,Vladivostok
43.141,-89.345,58.5,0.00,Madison Truax Field
43.15,64.333,66.5,0.00,Ak-Bajtal
43.15,133.017,53.3,0.00,Partizansk
43.154,-93.327,61.0,0.00,Mason City Municipal Arpt
43.171,-86.237,53.0,0.00,Muskegon County Arpt
43.195,-71.501,53.9,0.00,Concord Municipal Arpt
43.233,76.933,58.3,0.00,Almaty
43.234,-75.407,51.4,0.00,Griffiss Airpark
43.25,45.717,62.2,0.00,Groznyj
43.267,68.217,65.8,0.00,Turkestan
43.413,-124.244,45.7,0.00,North Bend Muni Airport
43.45,39.957,56.3,0.00,Sochi
43.513,43.637,60.9,0.00,Nalchik
43.567,-116.241,46.8,0.00,Boise Air Terminal
43.567,132.5,50.1,0.00,Novo Khatuniehi
43.578,-96.754,58.0,0.00,Sioux Falls Foss Fld
43.583,-119.05,40.8,0.00,Burns Federal Bldg
43.583,104.417,46.0,0.00,Dalanzadgad
43.617,13.533,67.0,0.00,Ancona
43.65,-70.3,50.3,0.00,Portland Intl Jetport
43.684,10.393,60.0,0.00,Pisa
43.733,44.667,64.6,0.00,Mozdok
43.733,111.9,41.9,0.00,Zamyn-Uud
43.75,146.667,47.0,0.00,Malo-Kurilskoje
43.81,11.205,61.7,0.00,Firenze
43.86,51.092,53.3,0.00,Aktau
43.879,-91.253,59.6,0.00,La Crosse Muni Ap
43.9,-69.933,52.9,0.00,Naval Air Station
43.904,-92.492,55.5,0.00,Rochester Municipal Arpt
43.933,-90.267,61.6,0.00,Volk Field Airport
43.95,8.167,58.1,0.00,Cape Mele
43.967,133.067,53.4,0.02,Anucino
43.983,134.683,53.1,0.00,Furmanovo-In-Primor
44.017,145.867,39.6,0.00,Juzhno-Kuril'Sk
44.033,131.317,55.6,0.00,Poltavka
44.067,62.9,62.4,0.00,Cirik-Rabat
44.1,39.033,56.9,0.00,Tuapse
44.128,-123.221,45.3,0.00,Eugene Mahlon Sweet Arpt
44.15,-103.1,49.3,0.00,Ellsworth Air Force Base
44.15,51.95,57.5,0.00,Tushchibek
44.15,133.867,60.9,0.00,Cuguevka
44.167,80.067,62.1,0.00,Zharkent
44.2,10.7,37.3,0.00,Cimone Mountain
44.225,43.082,59.7,0.20,Mineralnyye Vody
44.256,-121.139,37.4,0.00,Redmond Roberts Field
44.317,54.6,54.7,0.00,Duken
44.359,-84.674,50.7,0.00,Houghton Lake Roscommon Co Ar
44.367,135.85,40.3,0.00,Rudnaja Pristan'
44.381,-100.286,51.1,0.00,Pierre Regional Ap
44.398,-98.223,52.9,0.00,Huron Municipal Arpt
44.4,46.55,63.4,0.00,Kocubej
44.4,131.383,53.1,0.00,Pogranichnyj
44.412,8.842,61.1,0.00,Genova Sestri
44.417,105.317,42.0,0.00,Tsogt-Ovoo
44.45,-83.4,54.0,0.00,Oscoda-Wurtsmith Airport
44.45,12.3,63.0,0.00,Point Marina/Ravenn
44.468,-73.15,46.4,0.00,Burlngtn Etan Aln Ap
44.479,-88.137,56.5,0.00,Green Bay Austin Straubel Fie
44.483,34.167,56.6,0.00,Yalta
44.651,-73.468,50.1,0.00,Plattsburgh Intl
44.683,33.567,56.5,0.00,Sevastopol/Belbek
44.683,34.133,58.2,0.00,Simferopol'
44.717,132.067,54.6,0.00,Astrahanka
44.741,-85.583,55.1,0.00,Traverse City Cherry Capital
44.75,134.467,57.7,0.00,Zuravlevka
44.767,65.533,62.4,0.00,Kyzylorda
44.769,-106.969,50.9,0.00,Sheridan County Arpt
44.783,44.133,63.6,0.00,Budennovsk
44.798,-68.819,48.3,0.00,Bangor Airport
44.8,-68.817,48.0,0.00,Dow Afb
44.8,69.117,62.4,0.00,Tasty
44.8,71.067,64.9,0.00,Ulanbel'
44.8,77.333,67.5,0.00,Zhety-Zhol
44.817,10.283,62.5,0.00,Parma
44.867,-91.488,56.3,0.00,Eau Claire Municipal Ap
44.883,-93.229,57.5,0.00,Minneapolis-St Paul Wold-Cham
44.9,110.117,42.9,0.00,Sainshand
44.905,-123.001,42.8,0.00,Salem Mcnary Field
44.936,-74.846,47.3,0.00,Massena Ap
44.95,-68.667,47.3,0.00,Old Town Faa Airport
44.983,41.117,63.3,0.00,Armavir
45.0,136.6,37.4,0.00,Ternej
45.033,35.383,56.9,0.00,Feodosiia
45.033,39.15,62.6,0.00,Krasnodar
45.072,-83.564,48.4,0.00,Alpena Phelps Collins Field
45.1,73.967,62.1,0.00,Ciganak
45.1,133.5,57.0,0.00,Kirovskij
45.15,97.767,47.6,0.00,Erdeni
45.183,33.367,57.7,0.00,Yevpatoriia
45.201,7.65,60.2,0.00,Torino Caselle
45.217,131.983,49.7,0.00,Turij Rog
45.25,67.067,60.4,0.00,Zlikha
45.258,-112.554,43.2,0.00,Dillon
45.267,135.5,50.0,0.00,Ust-Kolumbe
45.267,147.967,42.9,0.00,Kurilsk
45.323,-75.669,47.2,0.00,Ottawa Macdonald Cartier Intl
45.35,42.85,61.5,0.00,Svetlograd
45.367,28.85,56.5,0.00,Izmail
45.396,10.889,63.6,0.00,Verona Villafranca
45.4,36.417,55.9,0.00,Kerch
45.4,56.117,59.0,0.00,Sam
45.417,134.267,61.0,0.00,Malinovo
45.443,-98.413,50.1,0.00,Aberdeen Municipal Arpt
45.445,9.277,63.6,0.00,Milano Linate
45.5,64.083,60.9,0.00,Zhosaly
45.505,12.352,59.5,0.00,Venezia Tessera
45.511,-118.425,30.9,0.00,Meachum Emergency Ap
45.517,32.7,56.8,0.00,Chornomors'Ke
45.543,-94.051,52.8,0.00,St Cloud Municipal Arpt
45.596,-122.609,43.9,0.00,Portland
45.631,8.728,60.9,0.43,Malpensa
45.633,38.933,58.6,0.00,Timasevskaja
45.633,75.117,63.0,0.00,Aul
45.65,13.75,63.1,0.00,Trieste
45.667,28.617,62.5,0.00,Bolgrad
45.683,59.917,53.7,0.00,Barsakelmes Island
45.698,-118.855,42.7,0.00,Pendleton Municipal Arpt
45.717,34.4,58.4,0.00,Dzankoj
45.733,112.367,36.7,0.00,Bayandelger
45.767,62.117,62.4,0.00,Kazaly
45.767,106.283,41.0,0.00,Mandalgobi
45.807,-108.542,46.6,0.00,Billings Municipal Arpt
45.85,40.083,63.2,0.00,Tihoreck
45.865,-84.637,47.5,0.00,Mackinack Island
45.867,133.733,56.3,0.00,Dal'Nerechensk
45.883,134.967,54.7,0.00,Vostretsovo/Karton
45.917,43.35,65.3,0.00,Divnoe
45.933,7.7,23.4,0.00,Pian Rosa (Mtn Top)
46.0,70.0,59.1,0.00,Betpak-Dala Steppe
46.017,12.617,61.4,0.00,Aviano (Usaf)
46.033,13.183,60.6,0.00,Udine/Campoformido
46.033,38.15,59.2,0.00,Primorsko-Ahtarsk
46.033,137.883,46.2,0.00,Khucin
46.117,91.467,50.5,0.00,Baitag
46.133,100.683,37.4,0.00,Bayanhongor
46.157,-123.883,42.9,0.00,Astoria Clatsop County Arpt
46.167,34.817,58.3,0.00,Heniches'K
46.167,80.933,55.7,0.00,Uc-Aral
46.183,45.35,64.0,0.00,Yashkul'
46.2,150.5,30.6,0.00,Urup
46.217,143.45,44.6,0.00,Juznoje (Lgt-H)
46.25,32.3,54.8,0.00,Bekhtery
46.267,102.783,41.7,0.00,Arvaiheer
46.283,47.983,62.5,0.00,Astrahan'
46.3,28.633,61.9,0.00,Komrat
46.375,-117.016,46.0,0.00,Lewiston Nez Perce County Arp
46.4,96.25,37.8,0.00,Altai
46.427,-105.883,50.4,0.00,Miles City Municipal Arpt
46.427,30.676,53.1,0.00,Odesa Intl
46.45,108.217,35.8,0.00,Choir
46.46,11.326,57.6,0.01,Bolzano
46.479,-84.357,47.3,0.00,Sault Ste Marie
46.5,13.583,46.8,0.03,Tarvisio
46.533,135.317,54.4,0.00,Krasnyj Jar
46.533,138.333,38.1,0.00,Sosunovo
46.55,41.05,63.1,0.00,Celina
46.55,76.867,57.0,0.00,Algazy Ostrov
46.567,43.667,61.2,0.00,Remontnoe
46.568,-120.543,43.0,0.00,Yakima Air Terminal
46.583,68.617,58.4,0.00,Jeti-Konur
46.606,-111.964,39.1,0.00,Helena Arpt
46.617,141.95,47.4,0.00,Nevelsk
46.633,32.567,58.0,0.00,Kherson
46.633,57.333,57.4,0.00,Ak-Tumsuk
46.633,142.85,47.1,0.00,Korsakov
46.683,113.283,29.5,0.00,Baruun-Urt
46.683,136.267,49.7,0.00,Gamcanza
46.7,100.133,32.1,0.00,Galuut
46.717,59.167,58.3,0.00,Ayak-Kum
46.75,10.533,44.8,0.00,S. Valentino Alla Muta
46.75,28.35,65.4,0.02,Karpineny
46.75,50.2,55.5,0.00,Zaburunye/Isatay
46.783,-100.757,49.4,0.00,Bismarck Municipal Arpt
46.783,33.367,59.4,0.00,Nova Kakhovka
46.783,61.667,61.6,0.00,Aralsk
46.8,53.917,59.6,0.00,Kulsary
46.8,75.083,55.9,0.00,Balhash
46.8,134.267,60.9,0.00,Bikin
46.837,-92.183,53.1,0.00,Duluth Williamsn-Johnsn Muni
46.85,30.083,60.0,0.00,Rozdil'Na
46.85,151.867,30.8,0.00,Simusir
46.871,-68.017,42.0,0.00,Caribou Municipal Arpt
46.883,64.667,61.1,0.00,Kara-Kum
46.889,142.718,45.0,0.00,Khomutovo
46.9,102.767,39.0,0.00,Hujirt
46.921,-114.093,38.5,0.00,Missoula Johnson-Bell Fld
46.925,-96.811,50.8,0.00,Fargo Hector Arpt
46.95,-67.883,41.2,0.00,Loring Afb/Limeston
46.973,-122.903,40.1,0.00,Olympia Municipal Arpt
47.017,28.983,60.6,0.12,Chisinau
47.017,30.75,56.3,0.00,Serbka
47.033,37.5,57.4,0.00,Mariupol'
47.049,-109.458,41.6,0.00,Lewistown Municipal Arpt
47.05,142.05,50.3,0.00,Holmsk
47.083,-122.583,40.9,0.00,Gray Aaf
47.117,51.917,58.5,0.00,Atyrau
47.117,81.617,52.7,0.00,Urzhar
47.15,-122.483,41.5,0.16,Mcchord Afb Airport
47.2,73.35,57.3,0.00,Mointy
47.25,39.817,62.5,0.00,Rostov-Na-Donu
47.277,-121.337,26.2,0.00,Stampede Pass
47.3,-53.983,43.1,0.00,Argentia (Aut)
47.3,107.483,33.2,0.00,Maanti
47.317,110.633,38.4,0.00,Underkhaan
47.317,138.983,36.9,0.00,Zolotoj
47.333,36.333,60.6,0.00,Kyrylivka
47.333,142.8,43.5,0.00,Dolinsk
47.367,135.633,57.2,0.00,Matay-In-Khabarov
47.417,10.983,25.2,0.00,Zugspitze Mountain
47.444,-122.314,40.4,0.00,Seattle Seattle-Tacoma Arpt
47.45,101.467,42.2,0.00,Tsetserleg
47.467,84.917,58.1,0.00,Zajsan
47.473,-111.382,42.4,0.00,Great Falls Intl Arpt
47.517,-111.183,41.7,0.00,Malmstrom Afhp Heliport
47.55,134.817,63.3,0.00,Vjazemskaja
47.567,31.333,59.0,0.04,Voznesens'K
47.583,34.45,60.5,0.00,Nikopol'
47.6,138.4,51.3,0.00,Agzu
47.617,37.35,57.7,0.00,Volnovakha
47.622,-117.528,40.0,0.00,Spokane
47.633,-117.65,40.3,0.00,Fairchild Air Force Base
47.633,43.15,62.6,0.00,Kotel'Nikovo
47.65,9.483,53.6,0.04,Friedrichshafen
47.667,136.183,53.0,0.00,Gvasjugi
47.683,-122.267,45.0,0.00,Seattle Nas
47.683,137.483,51.0,0.00,Sukpay
47.733,130.967,59.6,0.00,Ekaterino-Nikol'Skoe
47.75,96.85,39.2,0.00,Uliastai
47.767,11.6,54.8,0.00,Bad Tolz (Usa-Af) &
47.783,27.95,62.0,0.00,Balti
47.783,112.117,30.4,0.00,Bayan-Ovoo
47.8,67.717,59.0,0.00,Zhezkazgan
47.833,66.75,54.7,0.00,Karsakpaj
47.843,106.767,35.2,0.00,Chinggis Khaan Intl / Buyant Ukhaa Intl
47.85,30.267,59.8,0.01,Liubashivka
47.85,59.617,56.4,0.00,Celkar
47.85,72.083,56.3,0.00,Kzyl-Tau
47.867,35.316,60.4,0.04,Zaporizhzhia Intl
47.867,105.25,32.4,0.00,Lung
47.9,48.8,59.6,0.04,Novyj Ushtogan
47.938,-124.555,39.7,0.00,Quillayute Airport
47.95,132.617,58.6,0.00,Leninskoe
47.967,-97.4,52.3,0.00,Grand Forks Afb Airport
47.967,80.45,53.4,0.00,Ajaguz
47.967,139.533,34.6,0.00,Grossevichi
47.983,142.2,43.3,0.00,Ilyinskiy
48.0,7.85,55.1,0.04,Freiburg (Civ/Fafb)
48.017,91.567,48.6,0.00,Hovd
48.017,136.85,47.3,0.00,Cherinay
48.033,33.217,58.4,0.04,Kryvyi Rih
48.05,30.85,60.4,0.04,Pervomais'K
48.067,37.767,59.7,0.00,Donets'K
48.067,153.217,30.1,0.00,Matua
48.083,39.5,57.2,0.00,Dar'Ivka
48.083,114.55,32.8,0.00,Choibalsan
48.167,78.417,58.1,0.00,Barshatas
48.174,-103.637,47.1,0.00,Williston Sloulin Field Intl
48.214,-106.621,46.1,0.00,Glasgow Intl Arpt
48.217,46.733,57.4,0.06,Verhnij Baskunchak
48.217,57.117,58.6,0.00,Kozasaj
48.25,62.0,55.1,0.00,Taup
48.255,-101.273,43.4,0.00,Minot Faa Ap
48.3,40.3,58.6,0.00,Kamensk-Sahtinskij
48.3,69.65,58.4,0.00,Kzylzhar
48.3,74.967,50.6,0.00,Aktogaj
48.3,133.2,59.5,0.00,Nadezhdinskoye
48.304,-114.264,39.2,0.00,Kalispell Glacier Pk Int'L Ar
48.35,-122.667,44.8,0.00,Whidbey Island Nas
48.35,29.85,58.8,5.91,Haivoron
48.35,41.867,59.6,0.00,Morozovsk
48.35,130.8,56.4,0.00,Pompeyevka
48.354,11.786,53.5,0.04,Munchen
48.367,25.9,57.3,0.08,Chernivtsi
48.417,-101.35,41.3,0.00,Minot Afb Airport
48.417,106.717,40.0,0.00,Bata Sumber
48.425,10.932,54.6,0.08,Augsburg
48.45,27.783,58.9,1.38,Mohyliv-Podil'S'Kyi
48.45,52.917,57.8,0.02,Karabau
48.517,32.2,55.6,0.24,Kirovohrad
48.517,130.733,56.6,0.00,Dichun
48.528,135.188,61.5,0.00,Khabarovsk Novy
48.533,25.033,57.7,0.12,Kolomyia
48.543,-109.763,44.5,0.00,Havre City-County Ap
48.561,-93.398,49.2,0.00,International Falls Intl Ap
48.567,39.25,60.1,0.04,Luhans'K
48.583,13.467,52.6,0.10,Passau
48.583,67.083,53.1,0.00,Ulytau
48.6,34.967,57.0,0.04,Dnipropetrovs'K
48.6,45.75,57.7,0.02,Kapustin Jar
48.6,137.05,48.8,0.00,Tivjaku
48.603,-112.375,36.1,0.00,Cut Bank Muni Ap
48.617,61.267,55.4,0.00,Irgiz
48.617,133.833,57.7,0.00,Smidovich
48.633,22.267,62.3,0.00,Uzhhorod
48.65,138.983,49.8,0.00,Ioli
48.65,142.85,36.0,0.00,Makarov
48.65,144.733,32.2,0.00,Mys Terpeniya
48.69,9.222,54.7,0.08,Stuttgart
48.7,71.633,54.9,0.00,Atasu
48.733,98.2,31.5,0.00,Tosontsengel
48.733,132.95,58.0,0.00,Birobidzhan
48.75,82.367,50.6,0.00,Kokpekty
48.767,30.233,55.1,0.20,Uman'
48.783,44.346,59.1,0.01,Gumrak
48.8,103.55,43.1,0.00,Bulgan
48.817,135.883,63.8,0.00,Elabuga
48.85,72.867,55.4,0.00,Zharyk
48.85,111.45,34.0,0.00,Tataal
48.9,36.317,58.8,0.20,Lozova
48.917,106.067,39.1,0.00,Baruunharaa
48.933,40.383,58.2,2.01,Millerovo
48.933,89.933,46.4,0.00,Ulgi
48.967,24.4,56.8,0.08,Ivano-Frankivs'K
48.967,49.617,58.5,0.04,Novaja Kazanka
49.0,79.333,54.0,0.00,Karaul
49.0,131.083,58.2,0.00,Obluc'E
49.0,140.3,36.6,0.00,Sovetskaya Gavan
49.017,28.133,55.5,0.08,Zhmerynka
49.017,138.75,54.7,0.00,Solekul
49.033,33.433,56.6,0.87,Kremencug
49.05,12.1,54.5,0.01,Regensburg/Oberhub
49.05,51.867,58.1,0.00,Taipak
49.067,54.683,56.1,0.00,Uil
49.067,142.033,41.2,0.00,Uglegorsk
49.083,-125.767,39.6,0.00,Tofino
49.083,30.9,59.0,2.95,Zvenihorodka
49.1,134.483,54.5,0.00,Ivankovtsi
49.118,9.784,53.0,0.12,Schwabisch Hall
49.133,46.85,56.8,0.28,El'Ton
49.15,23.033,54.0,0.08,Turka
49.15,57.117,55.3,0.00,Temir
49.183,37.3,60.9,0.08,Izium
49.183,85.617,45.7,0.00,Katon-Karagaj
49.2,77.367,52.1,0.00,Kajnar
49.2,84.517,49.3,0.00,Ulken Naryn
49.215,7.11,51.1,0.12,Saarbrucken
49.217,143.1,36.9,0.00,Poronajsk
49.218,11.836,53.0,0.00,Hohenfels Aaf
49.233,28.6,57.1,0.09,Vinnytsia
49.25,59.55,54.1,0.00,Taldyk
49.283,38.917,60.8,0.02,Starobel'Sk
49.283,87.917,25.2,0.00,Argamji
49.283,135.183,61.0,0.00,Litovko
49.283,143.967,31.5,0.00,Vladi-Mirovo
49.308,10.639,53.6,0.00,Ansbach Ahp / Katterbach Germany
49.383,11.167,55.0,0.00,Feucht(Usa\Af)
49.383,35.45,54.6,0.04,Krasnohrad
49.383,40.167,58.2,0.16,Certkovo
49.383,75.517,50.0,0.00,Karkaralinsk
49.383,102.7,44.6,0.00,Hutag
49.4,8.65,54.9,0.04,Heidelberg Aaf
49.4,133.233,52.6,0.00,Urmi
49.417,130.083,57.0,0.00,Arhara
49.433,108.9,30.6,0.00,Menza
49.437,7.6,52.6,0.12,Ramstein Ab
49.45,136.567,62.2,0.00,Troickoe
49.474,10.388,54.3,0.00,Illesheim Ahp
49.483,129.483,49.2,2.95,Astasiha
49.499,11.078,54.6,0.06,Nurnberg
49.5,10.967,55.2,0.00,Furth (Usa-Hp)
49.564,8.463,56.9,0.00,Coleman Aaf / Coleman Barracks Germany
49.567,42.75,57.2,0.00,Serafimovic
49.567,111.967,34.5,0.00,Kyra
49.6,34.55,56.6,0.12,Poltava
49.617,128.65,52.0,0.00,Pojarkovo
49.633,100.167,44.8,0.00,Muren
49.635,63.482,53.6,0.00,Torgai
49.65,7.3,48.3,0.08,Baumholder Aaf
49.65,140.083,46.0,0.00,Tumnin
49.667,31.0,56.5,0.01,Myronivka
49.671,73.334,54.6,0.00,Karaganda
49.699,11.94,52.7,0.00,Grafenwohr Aaf
49.733,86.55,31.8,0.00,Katun
49.733,117.267,25.5,0.04,Matsiyevskaya
49.75,6.667,50.4,0.10,Trier/Petrisberg
49.75,9.5,52.5,0.00,Wertheim (Usa-Hp)
49.75,10.2,54.4,0.00,Kitzingen
49.75,66.15,50.5,0.00,Senber
49.767,9.967,54.1,0.08,Wurzburg (Usa-Af)
49.8,43.667,55.2,0.00,Frolovo
49.8,92.083,39.1,0.00,Ulaangom
49.833,118.383,31.7,0.00,Kajlastuj
49.85,7.883,54.8,0.00,Bad Kreuznach Aaf
49.85,35.233,58.0,0.00,Kolomak
49.867,136.767,57.2,0.00,Verhni Nergen
49.883,69.517,51.3,0.00,Berlik
49.9,115.75,29.9,0.01,Solov'Evsk
49.917,86.533,35.9,0.00,Ak-Kem
49.925,36.29,57.9,0.08,Osnova Intl
49.933,40.567,58.0,0.04,Bogucar
49.933,134.633,56.0,0.00,Kur
49.949,7.264,47.0,0.00,Frankfurt Hahn
49.95,6.567,48.2,0.43,Bitburg(Us Army)
49.95,71.583,52.6,0.00,Kazgorodok
49.967,8.15,51.0,0.00,Finthen (Usa-Af)
49.967,82.633,55.5,0.00,Ust-Kamenogorsk
49.967,136.067,56.0,0.00,Bolon
49.973,6.693,48.4,0.28,Spangdahlem Ab
50.0,155.383,30.6,0.00,Cape Vasileva
50.017,88.683,39.6,0.00,Kosh-Agach
50.017,111.183,31.8,0.00,Grjazi
50.017,133.583,56.8,0.00,Verhovje Urmi
50.026,8.543,53.1,0.00,Frankfurt Main
50.05,8.325,54.8,0.00,Wiesbaden Aaf
50.05,142.167,33.5,0.00,Pil'Vo
50.067,45.367,54.5,1.95,Kamysin
50.067,132.133,57.7,0.00,Sutur
50.1,140.683,30.5,0.00,Cape Syurkum
50.117,129.467,53.4,0.00,Zavitaja
50.133,65.233,50.5,0.00,Amangeldy
50.15,48.55,54.5,0.01,Aleksandrov-Gaj
50.169,8.962,54.3,0.12,Hanau Aaf
50.183,8.667,53.9,0.01,Maurice Rose(Usahp)
50.183,130.15,56.8,0.00,Paykan-In-Amur
50.183,139.017,51.0,0.00,Sihote
50.217,38.1,59.0,0.20,Valujki
50.217,66.833,49.6,0.00,Arkalyk
50.246,57.207,51.6,0.00,Aktyubinsk / Aktobe
50.25,52.567,54.4,0.13,Dzhambejty
50.25,95.167,46.3,0.00,Erzin
50.267,113.267,33.3,0.00,Aksa
50.283,127.483,47.5,0.00,Blagovescensk
50.289,11.855,47.9,0.10,Hof Plauen
50.333,83.55,48.3,0.00,Leninogorsk
50.333,119.067,28.9,0.00,Priargunsk
50.333,138.467,53.5,0.00,Segzema
50.367,106.45,38.3,0.00,Kjahta
50.367,108.75,33.8,0.79,Krasnyj Chikoj
50.383,90.433,39.0,0.00,Mugur-Aksy
50.4,116.517,25.4,0.00,Borzya
50.4,143.767,31.5,0.00,Pogranichnoe
50.417,41.05,56.5,0.04,Kalac
50.417,80.3,56.4,0.00,Semipalatinsk
50.417,103.617,36.4,0.00,Cakir
50.433,12.95,38.9,0.16,Fichtelberg Mtn
50.433,100.15,37.7,0.00,Hatgal
50.433,131.017,56.1,0.00,Sektagli
50.517,104.833,41.6,0.00,Torej
50.533,137.033,56.1,0.00,Komsomolsk-Na-Amure
50.55,9.65,50.4,0.04,Fulda(Usa\Af)
50.567,110.2,32.8,2.95,Ceremhovo
50.6,97.517,35.0,0.00,Kungur-Tuk
50.633,10.15,47.4,0.24,Kaltennordheim(Aut)
50.633,36.583,56.2,0.04,Belgorod
50.633,81.917,53.0,0.00,Semonaiha
50.633,87.933,40.9,0.00,Ust-Ulagan
50.633,105.317,42.8,0.00,Petropavlovka
50.683,133.95,50.0,0.00,Irumka-In-Khabarov
50.7,29.583,54.5,0.00,Teteriv
50.733,102.833,36.9,0.00,Sanaga
50.733,140.433,32.5,0.00,Sizeman
50.733,142.717,45.5,0.00,Tymovskoe
50.75,86.133,42.1,0.00,Ongudaj
50.783,127.3,46.8,2.95,Sergejevka
50.783,129.333,50.1,0.00,Bratoljubovka
50.8,42.0,55.4,0.00,Urjupinsk
50.8,75.7,53.9,0.00,Bajanaul
50.833,24.317,57.4,0.00,Volodymyr-Volyns'Kyi
50.833,44.567,53.3,0.02,Rudnya
50.85,34.667,55.5,0.00,Sumy
50.866,7.143,51.8,0.22,Koln Bonn
50.867,78.35,56.0,0.00,Semijarka
50.867,132.25,55.4,0.00,Cekunda
50.867,136.05,53.0,0.00,Verkhovye Gorina
50.867,156.683,30.0,0.00,Mys Lopatka
50.9,142.167,32.5,0.00,Aleksandrovsk-Sahalinskij
50.901,4.484,50.0,0.00,Brussels Natl
50.917,117.933,24.2,0.02,Aleksandrovskij Zavod
50.917,128.467,52.5,0.00,Belogorsk
50.933,138.2,56.1,0.00,Niznetambovskoe
50.95,84.917,45.9,0.00,Ust-Kan
50.95,115.583,25.1,0.00,Olovjannaja
51.0,39.5,56.0,0.08,Liski
51.017,90.217,49.1,0.00,Teli
51.017,93.717,43.0,0.00,Hovu-Aksy
51.022,71.467,50.5,0.00,Astana Intl
51.05,111.767,32.0,0.00,Nikolajevskoe
51.1,106.65,36.1,0.00,Novoselenginsk
51.1,114.517,28.0,0.00,Aginskoe
51.1,143.55,32.9,0.00,Kongi
51.133,13.767,54.4,0.06,Dresden
51.133,137.417,54.3,0.00,Baktor
51.133,142.667,42.8,0.00,Ado-Tymovo
51.15,82.2,53.0,0.00,Zmeinogorsk
51.151,51.543,51.3,0.12,Uralsk
51.167,14.95,53.6,0.01,Goerlitz
51.167,132.95,62.0,0.00,Cegdomyn
51.183,8.483,38.8,0.35,Kahler Asten(Mount)
51.2,113.717,30.0,0.00,Kurot-Darasua
51.2,136.8,53.2,0.00,Gorin
51.217,24.683,54.8,0.20,Kovel'
51.233,33.2,55.2,0.00,Konotop
51.267,67.233,49.2,0.00,Kazgorodok
51.283,26.617,56.8,0.12,Sarny
51.283,91.667,49.8,0.00,Cadan
51.3,9.45,50.4,0.14,Kassel
51.3,37.883,55.3,0.12,Staryj Oskol
51.317,108.867,30.5,0.00,Petrovskij Zavod
51.317,119.617,28.1,0.08,Nerchinskij Zavod
51.35,110.467,32.7,0.00,Hilok
51.35,112.467,31.8,0.00,Ulety
51.35,130.433,54.2,0.00,Verhnjaja Tom
51.35,139.1,47.0,0.00,Suhanovka
51.367,48.3,48.7,0.20,Ershov
51.4,6.967,47.6,0.43,Essen/Mulheim
51.4,12.417,53.5,0.05,Leipzig /Mockau
51.417,135.083,50.4,0.00,Hularin
51.433,86.0,54.5,0.00,Cemal
51.45,128.117,52.9,0.00,Svobodnyj
51.467,31.25,55.9,0.00,Chernihiv
51.483,23.85,53.3,0.04,Svityaz
51.483,40.417,52.9,0.14,Anna
51.483,95.583,46.1,0.00,Saryg-Sep
51.483,140.783,29.8,5.91,De-Kastri
51.483,156.483,30.0,0.00,Ozernaja
51.533,59.983,46.6,0.00,Adamovka
51.55,43.15,52.5,0.20,Balashov
51.565,46.047,51.4,0.28,Tsentralny
51.567,105.117,37.3,0.00,Tanhoj
51.576,81.217,53.0,0.00,Rubcovsk
51.583,116.633,26.5,0.04,Balej
51.583,118.467,25.6,0.02,Tajna
51.583,126.75,47.0,0.00,Kumara
51.617,69.8,48.1,0.00,Zhaltyr
51.633,73.167,49.1,0.00,Jermentau
51.633,114.317,27.3,0.00,Karymskaja
51.633,128.817,52.7,0.00,Mazanovo
51.633,133.267,56.0,0.00,Ust'-Umal'Ta
51.65,103.667,35.9,0.00,Sljudjanka
51.667,82.733,51.8,0.00,Krasno-Scekovo
51.667,84.317,51.9,0.00,Solonesnoje
51.682,-1.79,47.8,0.00,Fairford
51.683,100.983,40.2,0.00,Mondy
51.7,75.367,51.3,0.00,Ekibastuz
51.717,94.5,47.5,0.00,Kyzyl
51.717,105.85,37.5,0.00,Babuskin
51.717,135.933,52.2,0.00,Duki
51.717,140.317,43.5,0.00,Mariinskoje
51.733,102.533,42.0,0.00,Tunka
51.733,112.0,30.2,0.00,Mogzon
51.767,36.167,53.4,0.16,Kursk
51.767,87.6,50.0,0.00,Yajlju
51.783,28.333,56.8,0.00,Leloiov
51.783,158.033,30.1,0.00,Hodutka
51.796,55.457,49.4,0.00,Orenburg
51.8,10.617,36.1,0.47,Brocken (Peak)
51.808,107.438,35.2,0.00,Mukhino
51.814,39.23,52.0,0.08,Chertovitskoye
51.817,30.248,57.2,0.00,Bragin
51.817,68.367,46.1,0.00,Atbasar
51.833,41.483,54.0,0.08,Zerdevka
51.867,58.183,43.3,0.00,Ak'Jar
51.867,116.033,27.4,0.01,Shilka
51.883,-176.65,44.2,0.00,Adak Nas
51.883,66.333,40.4,0.00,Esil'
51.917,143.133,35.6,0.00,Nogliki
51.933,-131.017,40.0,0.00,Cape Saint James  &
51.933,1.25,48.3,0.43,Upper Heyford Raf
51.967,0.5,48.8,0.00,Wethersfield(Raf)
51.967,7.6,49.5,0.35,Munster/Telgte
51.967,138.183,47.8,0.00,Bichi-In-Khabarov
51.983,127.65,51.4,0.00,Simanovsk
52.0,70.95,46.7,0.00,Akkol'
52.0,116.533,28.0,0.04,Nercinsk
52.017,80.367,50.2,0.00,Volciha
52.017,85.9,57.4,0.00,Majma
52.026,113.306,28.7,0.00,Kadala
52.033,48.833,47.6,0.43,Pugacev
52.033,105.4,35.8,0.00,Bolsoje-Goloustnoj
52.036,29.167,53.8,0.04,Mozyr
52.05,92.167,44.1,0.00,Ust'-Usa
52.05,101.067,29.3,0.00,Ilcir
52.05,106.65,40.7,0.00,Kabansk
52.083,1.4,49.1,0.00,Woodbridge Raf
52.1,102.7,33.8,0.00,Dabady
52.108,23.898,53.0,0.16,Brest
52.117,11.583,50.5,0.06,Magdeburg
52.117,26.117,53.8,0.08,Pinsk
52.117,112.667,27.8,0.00,Beklemisevo
52.133,1.433,49.3,0.39,Bentwaters Raf
52.15,93.917,45.1,0.00,Turan
52.167,100.35,29.2,0.00,Khoryo-In-Buryat
52.167,109.783,31.7,0.00,Horinsk
52.167,139.067,49.5,0.00,Somnitelnij-Priisk
52.183,32.583,52.2,0.04,Semenovka
52.195,77.074,53.3,0.00,Pavlodar
52.217,27.867,54.6,0.00,Zhitckovichi
52.217,57.452,44.2,0.00,Zilair
52.217,141.633,29.8,0.00,Pogibi
52.233,117.7,26.1,0.31,Sretensk
52.25,29.833,59.0,0.00,Vasilevichi
52.25,79.183,51.8,0.00,Kljuci
52.25,87.117,48.7,0.00,Turocak
52.25,93.017,44.7,0.00,Nizhne-Usinskoe
52.267,127.217,48.0,0.04,Muhino
52.267,133.983,53.2,0.00,Sofijskij Priisk
52.268,104.389,40.0,0.00,Irkutsk
52.283,45.4,49.5,0.67,Petrovsk
52.283,135.8,52.9,0.00,Veselaja Gorka
52.3,61.317,41.7,0.00,Zabelovka
52.3,115.033,25.2,0.00,Edakuy-In-Chita
52.317,36.3,52.4,0.00,Ponyri
52.35,129.917,59.1,0.00,Norsk
52.367,-0.217,49.2,0.00,Alconbury Raf     &
52.367,0.483,50.9,0.00,Mildenhall Raf    &
52.367,143.183,33.5,0.00,Cajvo
52.367,158.567,30.4,0.00,Cape Povorotniy
52.383,140.467,50.3,0.00,Bogorodskoe
52.4,0.567,50.1,0.00,Lakenheath Raf
52.417,136.5,49.9,0.00,Im Poliny Osipenko
52.433,37.6,52.7,0.08,Livny
52.45,130.867,59.6,0.00,Byssa
52.461,9.685,49.8,0.28,Hannover
52.467,64.667,43.4,0.00,Kusmurun
52.467,96.1,38.6,0.00,Toora-Hem
52.473,13.404,52.0,0.01,Tempelhof
52.483,80.167,50.2,0.00,Rodino
52.5,99.817,36.9,0.00,Orlik (Mtn Stn)
52.517,82.767,50.5,0.00,Alejskaja
52.517,141.2,31.5,0.00,Uarki
52.527,31.017,52.9,0.00,Gomel / Homiel
52.533,68.75,42.5,0.00,Balkasino
52.533,111.55,26.7,0.00,Sosnovo-Ozerskoe
52.533,117.0,28.5,0.01,Chernyshevsk
52.567,107.133,33.6,0.00,Suhaja
52.567,129.067,58.8,0.00,Gar
52.583,33.767,51.8,0.00,Trubchevsk
52.6,24.467,55.8,0.16,Pruzany
52.633,38.517,52.4,0.00,Elec
52.65,115.167,25.6,0.00,Usugli
52.667,42.717,52.3,0.16,Kirsanov
52.667,84.917,50.0,0.00,Bijsk Zonal'Naya
52.667,156.233,28.1,0.00,Oktiabr'Skaya
52.7,118.8,29.8,2.95,Ust'-Kara
52.7,137.533,55.2,0.00,Guga
52.703,39.538,53.1,0.04,Lipetsk Arpt
52.717,174.1,35.8,0.00,Eareckson As
52.733,113.267,22.0,0.00,Telemba
52.75,26.483,57.4,0.00,Ganevici
52.75,120.033,31.3,0.00,Urjupino
52.767,32.283,53.0,0.00,Klincy
52.767,109.967,21.5,0.00,Zamakta
52.783,126.0,46.6,0.00,Chernjaevo
52.8,41.333,51.6,0.04,Tambov
52.8,89.917,47.5,0.00,Tastyp
52.8,93.233,38.7,0.00,Olen' Ya Rechka
52.8,131.717,60.3,0.00,Stojba
52.817,52.217,48.2,0.16,Buzuluk
52.817,66.967,40.0,0.00,Ruzaevka
52.817,88.45,43.5,0.00,Ust-Kabirza
52.833,80.95,47.6,0.00,Zavyalovo-In-Altay
52.833,157.167,27.7,0.00,Apaca
52.867,87.283,47.0,0.00,Kondoma
52.883,40.483,52.9,0.20,Micurinsk
52.9,30.033,54.2,0.00,Zhlobin
52.9,138.867,46.8,0.00,Udinskoje
52.917,30.9,54.6,0.00,Cecersk
52.917,55.917,48.0,0.00,Meleuz
52.933,36.0,50.4,0.00,Orel
52.95,70.217,42.8,0.00,Sucinsk
52.967,78.65,50.0,0.00,Slavgorod
52.967,101.983,45.4,0.00,Inga
52.983,108.283,31.4,0.00,Gorjacinsk
53.0,128.65,54.5,0.00,Oktjabr'Skij Priisk
53.0,158.333,31.9,0.00,Jelizovo
53.033,11.8,50.1,0.18,Weisen B Wittenberge
53.033,27.55,53.6,0.00,Slutsk
53.048,8.787,50.0,0.28,Bremen
53.05,90.917,55.9,0.00,Beja
53.05,136.033,43.6,0.00,Burukan
53.067,82.3,45.4,0.00,Rebriha
53.067,117.483,25.5,0.22,Zilovo
53.067,132.933,55.7,0.00,Ekimcan
53.1,46.6,45.3,0.08,Kuzneck
53.1,105.533,37.2,0.00,Bajandaj
53.1,106.817,33.8,0.00,Sarma
53.1,119.217,30.9,0.08,Gorbica
53.1,160.033,30.5,0.04,Cape Shipunskiy
53.117,26.0,51.6,0.00,Baranovichi
53.117,157.75,27.0,0.00,Nachiki-In-Kamchat
53.133,45.017,48.7,0.16,Penza
53.133,94.467,43.7,0.00,Verhni Amil
53.133,103.767,39.8,0.00,Bohan
53.133,133.967,45.1,0.00,Selemdza
53.15,140.7,36.5,0.00,Nikolaevsk-On-Amur
53.167,103.083,44.2,0.00,Ceremhovo
53.168,158.454,32.8,0.00,Yelizovo
53.17,24.45,55.0,0.00,Volkovysk
53.183,48.4,46.1,0.08,Syzran'
53.183,111.717,27.8,0.00,Ust-Zaza
53.2,112.783,21.4,0.00,Romanovka
53.214,34.176,50.5,0.00,Bryansk
53.217,29.127,51.4,0.00,Bobruisk
53.217,63.617,43.9,0.00,Kostanay
53.25,141.917,31.3,0.00,Rybnovsk
53.267,80.767,47.3,0.00,Baevo
53.283,69.383,43.4,0.00,Kokshetay
53.283,89.167,44.0,0.00,Neozidannij Priisk
53.3,92.417,49.7,0.00,Ermakovskoe
53.317,65.55,41.7,0.00,Sarykol
53.317,68.1,40.6,0.00,Volodarskoe
53.317,107.733,25.2,0.00,Uzur
53.333,87.167,49.7,0.00,Kuzedeevo
53.333,101.183,44.2,0.00,Saram
53.35,32.067,50.2,0.08,Kostuckovichi
53.35,59.083,41.7,0.00,Magnitogorsk
53.35,75.45,47.3,0.00,Ertis
53.35,121.55,37.3,0.00,Pokrovka
53.35,130.017,63.4,0.00,Dugda
53.364,83.539,47.1,0.00,Barnaul / Mikhaylovka
53.367,7.217,49.4,0.04,Emden/Wolthusen
53.4,82.6,45.6,0.00,Selaboliha
53.45,28.133,55.8,0.00,Mariyna Gorka
53.45,31.017,50.0,0.00,Slavgorod
53.45,36.883,49.4,0.20,Cern'
53.45,41.8,53.2,0.02,Morsansk
53.467,85.917,47.5,0.00,Togul
53.467,122.4,36.4,0.10,Ignasino
53.467,123.9,37.3,0.12,Dzalinda
53.467,125.817,46.2,0.02,Magdagaci
53.467,156.033,26.3,0.00,Kikhchik Kamchatka
53.483,42.633,54.5,0.04,Zametchino
53.5,29.333,52.8,0.31,Klichev
53.5,142.9,31.3,0.00,Oha
53.505,50.164,48.5,0.16,Kurumoch
53.517,132.917,51.2,0.00,Sevli
53.533,8.583,48.0,0.43,Bremerhaven
53.533,33.75,50.0,0.00,Zukovka
53.533,115.617,22.5,0.13,Tungokocen
53.55,118.717,27.0,0.04,Ksen'Evskaja
53.567,139.65,40.9,0.00,Kulci
53.583,55.934,46.2,0.00,Sterlitamak
53.6,24.05,50.0,0.31,Grodno
53.6,25.85,53.6,0.00,Novogrudok
53.6,102.533,42.0,0.00,Zalari
53.617,52.45,46.7,0.00,Buguruslan
53.617,109.633,32.0,0.00,Barguzin
53.62,27.08,55.2,0.00,Stolbtsy
53.63,9.988,48.2,0.31,Hamburg
53.633,98.217,43.2,0.00,Alygdzer
53.683,88.05,45.9,0.00,Mezdurecensk
53.683,94.2,47.0,0.00,Kazyr
53.7,127.3,54.3,0.00,Zeja
53.7,157.633,31.9,0.00,Ganali-In-Kamchat
53.717,90.367,47.4,0.00,Uybat
53.717,133.15,46.8,0.00,Bolodek
53.733,78.017,45.7,0.00,Karasuk
53.733,87.183,46.6,0.00,Novokuznetsk / Spichenkovo
53.75,14.067,50.2,0.01,Ueckermuende (Aut)
53.75,84.95,46.8,0.00,Sorokino
53.75,91.4,54.5,0.00,Abakan
53.75,119.733,27.5,0.02,Mogocha
53.783,39.25,49.3,0.04,Pavelets
53.783,73.883,44.1,0.00,Russkaja Poliana
53.817,81.267,47.5,0.00,Kamen'-Na-Obi
53.817,83.583,46.8,0.00,Talmenka
53.833,28.983,51.0,0.00,Berezino
53.833,69.783,41.1,0.00,Krasnoarmejsk
53.85,108.6,27.6,0.00,Bolsoj Uskan Island
53.85,136.867,35.0,0.00,Tugur
53.864,27.54,50.0,0.00,Minsk 1
53.867,120.867,31.2,0.00,Amazar
53.883,92.667,49.7,0.00,Kuragino
53.902,25.317,51.0,0.02,Lida
53.933,32.833,47.5,0.04,Roslavl'
53.933,102.05,47.4,0.01,Zima
53.95,30.067,49.1,0.02,Mogilev
53.95,98.817,44.8,1.06,Hadama
53.967,79.233,46.9,0.00,Krasnoozersk
53.967,105.9,37.2,0.00,Kacug
53.967,121.933,33.3,3.03,Erofej Pavlovic
53.967,129.067,58.5,0.00,Ogoron
54.0,103.067,38.3,0.01,Balagansk
54.0,123.967,37.9,0.16,Skovorodino
54.033,108.267,28.9,0.00,Solnethnaya
54.033,122.9,36.2,0.94,Urusa
54.05,115.017,20.3,0.16,Bugarihta
54.083,43.25,50.8,0.03,Torbeevo
54.083,61.617,44.4,0.00,Troizk
54.083,124.767,41.0,2.95,Tigan-Urkan
54.1,35.35,48.4,0.04,Suhinichi
54.117,135.7,41.3,0.00,Torom
54.117,159.983,31.2,0.00,Semyachik
54.118,45.203,49.0,0.01,Saransk Airport
54.167,6.35,44.7,0.16,Ufs Tw/Ems (Aut)
54.167,74.8,42.6,0.00,Cerlak
54.167,103.017,43.0,5.91,Ust-Uda
54.167,158.0,27.7,0.00,Pushchino
54.183,12.083,47.8,0.21,Warnemuende
54.2,72.967,41.1,0.00,Odesskoe
54.2,111.95,20.0,0.00,Karaftit
54.217,96.967,41.8,0.00,Verhnjaja Gutara
54.233,37.617,49.5,0.00,Tula
54.25,-133.05,42.8,0.00,Langara
54.267,28.5,48.6,0.02,Borisov
54.283,139.783,29.9,0.00,Aleksandra
54.3,30.933,48.6,0.00,Gorki
54.3,83.314,44.3,0.00,Posevnaja
54.3,155.933,27.8,0.00,Sobolevo
54.317,48.333,45.0,0.00,Ulyanovsk
54.317,110.317,27.5,0.00,Kurumkan
54.333,80.467,41.4,0.02,Kochki
54.333,84.217,44.7,0.00,Masljanino
54.333,89.283,40.1,0.08,Kommunar
54.333,127.633,57.2,0.00,Dambuki
54.35,109.517,22.2,0.00,Davsa
54.367,66.967,40.3,0.00,Blagoveshchenka
54.367,71.75,42.1,0.00,Poltavka
54.367,77.283,43.6,0.31,Kupino
54.367,81.883,51.0,0.00,Ordynskoe
54.367,92.133,45.6,0.00,Idrinskoe
54.367,93.433,44.0,0.00,Artemovsk
54.383,97.783,42.8,0.00,Birjusa
54.417,34.017,47.3,0.00,Spas-Demensk
54.417,142.717,29.4,0.00,Cape Yelizaveti
54.45,25.95,50.5,0.00,Osmjany
54.45,86.367,47.9,0.00,Belovo
54.45,116.517,23.3,2.80,Ust-Karenga
54.467,64.867,42.8,0.00,Zverinogolovskoe
54.483,26.9,53.0,0.00,Vileyka
54.483,107.067,32.0,0.00,Tirka
54.483,113.583,14.1,0.00,Bagdarin
54.5,30.417,47.9,0.00,Orsha
54.5,50.417,46.9,0.00,Culpanovo
54.5,89.933,47.5,0.00,Sira
54.5,134.417,41.5,0.00,Udskoe
54.533,9.55,45.4,0.24,Schleswig
54.55,36.367,47.8,0.02,Kaluga
54.558,55.874,44.0,0.00,Ufa
54.6,100.633,48.3,0.00,Tulun
54.617,39.717,50.4,0.16,Rjazan'
54.617,52.8,44.4,0.00,Bugul'Ma
54.617,161.2,31.2,0.00,Kronoki
54.633,43.233,50.4,0.28,Temnikov
54.633,72.433,40.6,0.00,Serbakul'
54.634,25.286,45.0,0.08,Vilnius Intl
54.667,75.1,41.4,0.00,Ljubimovka
54.667,81.05,43.0,0.00,Uzaniha
54.7,78.667,43.2,0.00,Zdvinsk
54.717,76.717,41.4,2.95,Cistoozernoje
54.717,128.867,54.1,0.00,Bomnak
54.717,135.317,33.4,0.00,Cumikan
54.717,158.717,33.3,0.00,Milkovo
54.733,130.45,55.5,0.00,Loksak
54.75,32.067,45.9,0.02,Smolensk
54.8,105.167,36.4,0.00,Zhigalovo
54.817,29.683,49.3,0.02,Senno
54.817,46.583,45.3,0.00,Alatyr'
54.833,38.15,49.4,0.08,Kasira
54.833,69.15,39.0,0.00,Petropavlovsk
54.833,137.533,36.9,0.00,Bol'Shoj Shantar
54.85,111.15,28.1,0.00,Tassa
54.883,23.833,46.6,0.04,Kaunas
54.883,27.75,48.5,0.00,Dokshitsy
54.883,28.7,47.1,0.04,Lepel
54.883,99.033,52.1,0.00,Nizne-Udinsk
54.89,20.593,49.5,0.00,Khrabrovo
54.9,71.25,39.0,0.00,Isil'Kul'
54.95,41.767,50.7,0.00,Elat'Ma
54.967,73.311,40.3,0.00,Omsk Tsentralny
55.0,15.083,39.2,0.02,Dueodde (Cape)
55.0,57.983,42.8,0.00,Kropacevo
55.0,86.8,44.3,0.00,Krapivino
55.013,82.651,44.6,0.00,Tolmachevo
55.017,82.233,42.3,0.00,Kocenevo
55.033,44.5,47.9,0.00,Lukojanov
55.033,74.583,41.5,0.00,Kalacinsk
55.033,126.8,54.5,0.08,Unaha
55.039,-131.579,43.4,0.00,Annette Island Airport
55.05,26.317,44.1,0.04,Lyntupy
55.083,90.85,45.9,0.00,Svetlolyubovo
55.083,93.367,43.2,0.00,Kolba
55.1,80.967,43.9,0.00,Culym
55.117,109.75,25.4,0.00,Tompa
55.117,116.767,24.8,0.63,Kalakan
55.117,159.067,35.1,0.00,Dolinovka
55.127,30.35,46.9,0.00,Vitebsk / Viciebsk
55.167,34.4,46.8,0.04,Vjaz'Ma
55.167,123.5,32.5,0.20,Srednayaya Nyukzha
55.183,53.8,44.3,0.00,Bakaly
55.183,124.667,42.3,0.00,Tynda
55.2,76.019,43.1,0.00,Tatarsk
55.2,165.983,32.6,0.00,Ostrov Beringa
55.217,87.65,40.2,5.91,Central'Nyj Rudnik
55.221,-162.733,33.0,0.00,Cold Bay Arpt
55.233,63.317,41.8,0.00,Sumiha
55.233,84.4,42.6,0.00,Toguchin
55.25,67.3,40.6,0.00,Makusino
55.25,94.883,49.4,0.00,Aginskoe
55.27,86.107,43.5,0.00,Kemerovo / Alexey Leonov
55.3,76.75,42.1,0.00,Chany
55.3,79.617,40.8,0.00,Ubinskoe
55.3,82.75,41.7,0.00,Kolyvan'
55.3,89.817,43.5,0.00,Uzur
55.3,123.167,24.5,1.38,Ust-Urkima
55.306,61.503,42.5,0.00,Balandino
55.317,50.617,44.8,0.00,Cistopol'
55.333,78.308,42.0,0.00,Barabinsk
55.367,27.467,51.5,0.00,Sharcovschina
55.367,43.783,49.4,0.02,Arzamas
55.383,101.033,47.6,0.02,Tanguj
55.417,55.533,41.0,0.00,Birsk
55.45,69.317,39.0,0.00,Ilinskoye-In-Tyumen
55.467,28.767,51.8,0.00,Polotsk
55.467,65.4,42.0,0.00,Kurgan
55.467,113.617,20.6,0.00,Uakit
55.483,105.483,30.2,0.00,Golovskoe
55.483,134.333,43.7,0.00,Jana
55.517,36.0,44.8,0.04,Mozajsk
55.533,45.5,48.0,0.08,Sergac
55.567,71.367,39.8,0.00,Nazyvoevsk
55.583,155.583,28.3,0.00,Ica
55.6,40.65,49.1,0.14,Gus'-Hrustal'Nyj
55.6,73.483,41.9,0.01,Sargatskoe
55.606,49.279,45.5,0.00,Kazan
55.618,12.656,41.5,0.08,Kastrup
55.633,95.467,47.4,0.00,Irbejskoe
55.65,136.75,36.3,0.00,Cape Ukoy
55.667,84.4,41.7,2.95,Bolotnoe
55.7,57.9,39.2,0.00,Duvan
55.717,86.3,42.1,0.00,Barzas
55.717,93.75,42.4,0.00,Shalinskoe
55.733,21.083,46.1,0.00,Klaipeda
55.75,88.317,43.9,5.91,Tisul'
55.767,52.067,44.6,0.00,Elabuga
55.783,90.133,41.6,0.00,Krutoyarskiy
55.783,109.55,26.4,0.00,Nizhneangarsk
55.8,115.433,19.8,0.08,Tilisma
55.817,27.95,46.1,0.00,Verhnedvinsk
55.817,94.3,44.2,0.00,Ujar
55.833,37.617,47.8,0.00,Moskva Vdnh (Dolgoprudnyj)
55.85,32.95,47.9,0.00,Belyj
55.85,80.033,40.0,0.00,Kreschenka
55.867,26.617,46.8,0.00,Daugavpils
55.867,72.2,40.1,0.00,Tjukalinsk
55.933,23.317,45.5,0.00,Siauliai
55.933,158.667,27.5,0.00,Esso
55.95,98.0,47.6,0.00,Tajshet
55.967,124.883,26.1,0.39,Nagornyj
55.983,82.7,39.0,0.00,Pihtovka
55.983,159.983,31.1,0.00,Kozyrevsk
56.0,92.883,47.8,0.00,Krasnojarsk
56.017,35.933,47.1,0.08,Volokolamsk
56.05,105.833,36.3,0.00,Orlinga
56.067,63.65,41.3,0.00,Sadrinsk
56.067,85.617,39.4,0.00,Tajga
56.083,60.3,37.9,0.04,Verhnij Ufalej
56.1,27.55,46.4,0.00,Dagda
56.1,69.433,39.5,0.00,Ishim
56.1,74.633,40.4,0.04,Bol'Sherech'E
56.1,91.667,42.5,0.00,Kemchug
56.117,40.35,47.3,0.28,Vladimir
56.117,86.0,38.4,0.00,Anzero-Sudzensk
56.117,97.317,47.1,0.00,Klyuchi-In-Krasnoy
56.15,21.167,47.7,0.00,Rucava
56.15,99.3,43.0,0.00,Novocunskoe
56.167,163.317,29.0,0.00,Cape Afrika
56.183,87.683,43.1,0.02,Mariinsk
56.2,95.633,45.5,0.00,Kansk
56.217,43.817,49.8,0.00,Gor'Kij
56.217,89.55,41.7,0.00,Bogotol
56.217,162.717,26.0,0.00,Ust'-Kamchatsk
56.233,51.033,45.4,0.00,Vjatskie Poljany
56.25,84.0,41.0,0.00,Kozevnikovo
56.267,32.083,46.8,0.00,Zapadnaja Dvina
56.267,34.317,48.4,0.01,Rzev
56.283,54.967,39.7,0.00,Janaul
56.283,90.517,44.0,0.00,Achinsk
56.283,131.133,38.7,0.00,Toko
56.317,28.9,44.7,0.00,Idrica
56.317,107.617,34.6,0.00,Kazachinsk
56.317,160.833,27.1,0.00,Kljuchi
56.333,46.583,47.8,0.06,Koz'Modem'Jansk
56.35,30.62,46.4,0.00,Velikie Luki
56.35,78.35,39.5,0.01,Severnoe
56.371,101.698,39.1,5.91,Bratsk
56.383,75.25,39.4,0.00,Muromcevo
56.4,24.217,45.7,0.00,Bauska
56.4,38.75,46.4,0.08,Aleksandrov
56.45,73.65,38.4,0.00,Kolosovka
56.45,138.15,31.5,0.00,Ayan
56.467,22.833,47.3,0.00,Auce
56.483,67.3,38.1,0.00,Vagaj
56.5,56.133,39.6,0.00,Cernuska
56.5,84.917,40.0,0.00,Tomsk
56.5,93.283,42.9,2.95,Suhobuzimskoe
56.517,25.917,45.5,0.00,Zilani
56.518,21.097,44.9,0.00,Liepaja Intl
56.533,27.267,43.9,0.00,Rezekne
56.533,89.317,44.1,5.91,Tjuhtet
56.6,76.567,39.9,0.00,Kystovka
56.633,47.767,44.3,0.09,Joshkar-Ola
56.65,23.733,47.8,0.00,Jelgava
56.65,25.133,44.9,0.00,Skriveri
56.65,57.783,40.6,0.12,Krasnoufimsk
56.65,136.35,43.7,0.00,Batomga
56.683,22.5,44.1,0.00,Saldus
56.683,66.35,40.4,0.00,Jalturovosk
56.733,21.733,47.4,0.00,Kazdanga
56.743,60.803,42.0,0.00,Koltsovo
56.767,96.8,44.6,0.00,Dolgiy Most
56.767,103.833,39.5,0.00,Ilimsk
56.817,70.617,39.2,0.00,Vikulovo
56.833,53.45,40.5,0.00,Izhevsk
56.833,124.867,20.9,0.08,Culman/Neriugri
56.85,62.717,40.6,0.00,Kamyslov
56.85,95.217,44.0,0.00,Dzerzhinskoe
56.867,37.383,47.4,0.02,Savelovo
56.867,105.7,37.2,0.00,Ust'-Kut
56.883,21.183,45.6,0.00,Pavilosta
56.883,35.867,46.9,0.04,Tver'
56.9,74.383,39.6,0.08,Tara
56.9,93.133,43.6,0.00,Bol'Shaja Murta
56.9,118.267,21.9,0.48,Chara
56.917,23.967,44.9,0.00,Riga
56.933,72.667,39.7,0.02,Bol'Sie Uki
56.95,40.967,43.2,0.31,Ivanovo
56.95,75.3,38.6,0.00,Sedelnikovo
56.967,90.683,44.4,0.00,Novobirilyussy
57.0,82.067,37.8,2.95,Bakchar
57.017,28.9,48.2,0.00,Puskinskie Gory
57.048,-135.365,41.0,0.00,Sitka Japonski Ap
57.067,86.217,40.5,0.00,Pervomajskoe
57.083,54.75,37.7,0.00,Nozovka
57.083,156.7,29.0,0.00,Ust'- Hajrjuzovo
57.1,27.983,49.5,0.00,Pytalovo
57.1,105.0,35.0,0.00,Maksimovo
57.117,65.433,37.5,0.00,Tyumen'
57.133,26.717,45.1,0.00,Gulbene
57.133,33.117,45.1,0.00,Ostaskov
57.133,45.167,46.3,0.13,Krasnye Baki
57.15,31.183,46.7,0.00,Holm
57.155,-170.222,32.5,0.00,St Paul Island Airport
57.167,22.5,40.6,0.01,Stende
57.167,156.6,30.3,0.00,Ptichiy Island
57.183,22.55,47.3,0.00,Stende
57.183,103.25,41.6,5.91,Nizhne-Ilimsk
57.2,39.417,46.6,0.08,Rostov
57.217,94.917,45.1,0.04,Taseyevo          &
57.283,55.433,38.2,0.01,Osa
57.317,24.417,43.7,0.00,Skulte
57.317,25.333,45.1,0.00,Priekuli
57.333,43.117,46.0,0.39,Jur'Evec
57.35,23.117,46.0,0.00,Mersrags
57.35,37.583,45.9,0.12,Kasin
57.35,58.217,38.8,0.08,Samary
57.367,74.75,39.0,0.00,Vasiss-In-Om
57.367,89.317,42.3,0.00,Chindat-In-Krasnoy
57.417,67.083,37.5,0.01,Jarkovo
57.433,27.033,44.4,0.00,Aluksne
57.45,88.467,41.0,0.00,Tutalo-Culym River
57.517,72.4,37.0,0.02,Tevriz
57.533,79.431,36.5,0.08,Pudino
57.55,34.567,46.4,0.02,Vysnij Volocek
57.55,49.95,39.2,0.63,Nolinsk
57.583,83.783,36.7,0.04,Molchanovo
57.633,39.75,45.6,0.24,Jaroslavl'
57.633,92.267,42.9,0.06,Pirovskoe
57.65,99.533,43.6,0.00,Chervyanka
57.65,125.967,25.2,2.95,Kanku
57.65,136.15,38.1,0.00,Nel' Kan
57.65,163.233,25.0,0.00,Ozernoy (Mys)
57.667,46.633,42.8,0.10,Sakun'Ja
57.683,71.183,35.8,0.01,Ust'-Isim
57.717,55.383,34.7,0.00,Ohansk
57.733,40.783,42.9,0.28,Kostroma
57.75,22.6,42.5,0.00,Kolka
57.751,-152.486,37.0,0.00,Kodiak Airport
57.767,108.067,36.3,0.00,Kirensk
57.767,130.9,39.4,0.00,Cjul'Bju
57.767,140.183,28.4,0.00,Enkan
57.783,26.033,45.4,0.00,Valga
57.784,28.396,45.1,0.00,Pskov
57.8,36.7,45.6,0.12,Bezeck
57.8,77.217,36.6,0.00,Majsk
57.8,114.083,14.8,0.00,Mamakan
57.8,158.667,30.7,0.00,Tigil
57.833,117.667,19.8,1.73,Nicatka
57.85,27.017,47.3,0.02,Voru
57.85,97.4,39.5,0.02,Gonda
57.85,114.2,27.9,0.00,Bodajbo
57.867,24.367,43.3,0.00,Ainazi
57.883,60.067,39.6,0.00,Nizhnyj Tagil
57.9,25.383,44.5,0.00,Rujiena
57.9,34.03,44.6,0.02,Bologoe
57.915,56.021,37.9,0.01,Bolshoe Savino
57.917,22.05,37.9,0.31,Sorve
57.917,69.033,36.7,0.02,Vagay River
58.017,31.317,45.6,0.00,Staraya Russa
58.05,63.683,39.6,0.00,Turinsk
58.067,123.717,21.4,0.24,Suon-Tit
58.083,54.683,36.4,0.01,Verescagino
58.083,93.0,41.6,0.02,Strelka
58.1,23.967,36.2,0.00,Kihnu
58.1,38.683,45.3,0.12,Rybinsk
58.133,52.583,36.2,0.20,Glazov
58.133,80.583,34.7,0.08,Starica
58.15,68.25,37.2,0.00,Tobol'Sk
58.2,102.75,40.7,0.00,Ust-Ilimsk
58.233,22.5,38.0,0.00,Kuressaare-Roomassaare
58.233,105.733,35.4,0.00,Tokma
58.3,47.117,41.0,0.10,Sabalino
58.307,26.69,42.0,0.00,Tartu
58.317,82.95,35.3,0.06,Kolpasevo
58.317,112.867,28.4,0.00,Mama
58.317,125.35,16.9,0.04,Usmun
58.35,43.383,41.5,0.08,Nikolo-Poloma
58.357,-134.564,38.6,0.00,Juneau Municipal Arpt
58.367,25.6,44.5,0.00,Viljandi
58.367,45.533,41.6,0.51,Sar'Ja
58.383,21.817,38.5,2.95,Vilsandi
58.383,84.6,35.6,0.05,Palocka
58.383,97.45,42.4,0.02,Bogucany
58.417,24.467,36.9,0.00,Pjarnu-Sauga
58.417,116.017,24.5,0.01,Svetly
58.45,89.467,43.2,2.95,Losinoborskoe
58.45,92.15,42.5,0.04,Jenisejsk
58.483,41.533,41.1,0.20,Buj
58.5,159.167,26.6,0.00,Ust'-Voyampolka
58.55,109.767,35.3,0.00,Ichera
58.567,23.517,38.0,0.00,Virtsu
58.567,29.8,44.4,0.08,Nikolaevskoe
58.567,35.633,44.0,0.04,Ohony
58.583,76.517,35.2,0.04,Novyj Vasyugan
58.617,125.367,18.1,0.20,Aldan
58.633,86.733,36.4,0.14,Stepanovka
58.633,98.733,40.2,0.02,Klimino-In-Krasnoy
58.633,128.5,27.8,0.00,Ugino
58.65,-162.067,25.2,0.00,Cape Newenham Afs
58.65,49.617,38.0,0.12,Kirov
58.683,-156.656,29.0,0.00,King Salmon Airport
58.683,32.7,45.0,0.08,Vereb'Ye
58.7,81.5,35.3,0.10,Parabel'
58.733,27.833,40.7,0.00,Gdov
58.817,25.417,43.5,0.00,Turi
58.817,141.85,28.1,0.00,Ul' Ya
58.85,112.9,29.2,0.00,Voroncovka
58.867,23.05,40.8,0.00,Heltermaa
58.867,26.95,46.2,0.00,Tilrikoja
58.867,60.783,39.8,0.00,Verhotur'E
58.9,34.533,44.3,0.10,Hvojnaja
58.917,22.067,37.9,0.00,Ristna
58.95,23.817,43.0,0.00,Laane-Nigula
58.967,24.733,42.7,0.00,Kuusiku
58.967,101.083,39.9,0.00,Kezma
58.967,126.267,22.0,0.12,Tommot
58.983,54.65,36.0,0.08,Kudymkar
58.991,22.831,41.9,0.00,Kardla
59.0,119.8,28.0,0.39,Tyanya
59.0,150.467,24.6,0.00,Zavyalova Island
59.017,121.767,24.3,0.16,Dzhikimda
59.033,57.567,34.3,0.04,Kizel
59.05,80.833,33.7,0.12,Kargasok
59.067,76.733,34.1,0.18,Katylga
59.1,153.333,27.0,0.01,Brat' Ev (Mys)
59.117,159.967,27.0,0.00,Palana
59.133,26.233,40.6,0.00,Valke-Maarja
59.15,68.917,32.7,0.00,Uvat
59.15,149.033,26.0,0.01,Spafar' Eva (Ostrov)
59.183,135.15,32.7,0.00,Ust'-Judoma
59.183,146.333,26.8,0.00,Uski
59.2,90.9,43.4,0.04,Makovskoye
59.217,78.233,34.2,0.04,Sredny Vasjugan
59.233,39.867,41.4,0.08,Vologda
59.25,73.967,30.0,0.04,Taylakovy
59.25,108.233,33.8,0.00,Nepa
59.25,163.033,21.9,2.95,Ossora
59.267,38.017,41.6,0.08,Cherepovec
59.283,106.167,32.8,0.00,Ika
59.333,27.383,43.7,0.04,Johvi
59.35,31.233,44.6,0.04,Ljuban'
59.35,52.25,33.9,0.17,Kirs
59.367,28.6,42.8,0.00,Kingisepp
59.367,143.2,28.9,0.00,Ohotsk
59.383,24.033,40.0,0.00,Pakri
59.383,82.833,33.9,0.24,Berezovka
59.389,28.117,44.5,0.00,Narva-Joesuu
59.4,35.9,43.4,0.12,Babaevo
59.413,24.833,39.5,0.00,Lennart Meri Tallinn
59.433,62.333,37.0,0.14,Gari
59.45,112.583,30.1,0.00,Vitim
59.483,150.5,27.0,0.08,Nagajeva Bay
59.5,90.928,41.2,0.00,Nazimovo
59.5,144.8,28.4,0.00,Inja
59.512,-139.671,38.2,0.00,Yakutat State Ap
59.517,26.55,42.4,0.00,Kunda
59.533,45.467,36.6,0.24,Nikol'Sk
59.533,70.417,30.8,0.00,Limkoyevskiye
59.6,60.533,36.0,0.08,Serov
59.6,69.283,31.8,0.06,Dem'Janskoe
59.617,65.717,35.0,0.00,Leusi
59.617,151.333,21.8,0.00,Ola
59.633,133.033,33.6,0.00,Ust'-Mil'
59.642,-151.491,35.2,0.00,Homer Municipal Arpt
59.65,33.55,43.7,0.12,Tihvin
59.65,154.267,24.3,0.02,Brohovo
59.667,67.417,32.7,0.00,Kondinskoje
59.667,127.05,21.8,0.16,Bujaga
59.717,93.433,34.0,0.20,Chirimba-In-Krasnoy
59.717,150.2,24.4,0.00,Arman
59.749,-154.909,26.2,0.00,Iliamna Arpt
59.75,103.3,36.0,0.00,Cemdalsk
59.8,30.263,42.5,0.00,Pulkovo
59.8,148.833,27.1,0.00,Talon
59.85,48.283,36.0,0.12,Oparino
59.85,81.95,31.5,0.04,Napas
59.911,150.72,26.0,0.05,Sokol
59.917,150.717,26.1,0.02,Magadan Nw
59.933,117.6,30.5,0.00,Macha
59.967,42.767,35.7,0.09,Totma
59.967,144.783,30.0,0.00,Hejdzhan
60.017,37.75,40.1,0.12,Belozersk
60.05,108.083,34.3,0.00,Preobrazhenka
60.083,142.333,32.1,0.00,Arka
60.1,151.0,23.6,0.08,Palatka
60.233,-146.65,45.2,0.00,Cape Hinchinbrook
60.25,90.233,37.8,0.20,Jarcevo
60.267,111.733,36.6,0.00,Komaka
60.283,54.35,29.2,0.04,Gajny
60.317,64.217,33.3,0.00,Saim
60.333,68.967,30.1,0.03,Altay
60.333,102.267,33.7,0.01,Vanavara
60.35,84.083,29.1,0.35,Vanzil'-Kynak
60.35,88.367,36.0,0.28,Sym
60.367,93.033,30.2,0.04,Severo-Enisejsk
60.383,134.45,30.5,0.00,Ust'-Majya
60.4,56.517,30.8,0.02,Cherdyn'
60.4,63.133,34.5,0.00,Santal
60.4,120.417,27.4,0.00,Olekminsk
60.433,77.867,29.1,0.39,Aleksandrovskoe
60.433,169.667,23.0,0.00,Apuka
60.467,40.2,35.4,0.16,Vozega
60.467,130.0,25.7,0.00,Tegyultya
60.489,-145.451,43.0,0.00,M.K.(Mudhole) Smith Arpt
60.5,74.017,28.0,0.24,Ugut
60.517,127.917,17.4,0.08,Dobrolet-In-Yakut
60.533,116.233,35.5,0.00,Njuja
60.55,171.083,26.3,0.00,Topata-Olyutorskaya
60.58,-151.239,36.5,0.00,Kenai Municipal Ap
60.6,124.033,23.6,0.04,Sani-Yakhtat
60.6,150.7,21.7,0.04,Madaun
60.633,34.783,39.3,0.18,Vinnicy
60.683,60.45,34.7,0.00,Ivdel'
60.683,160.4,25.2,0.00,Tajgonos
60.717,28.733,35.2,0.08,Vyborg
60.717,97.517,34.6,0.14,Ust'-Kamo
60.717,114.883,28.6,0.00,Lensk
60.717,142.783,33.9,0.00,Uega
60.717,155.883,22.9,0.01,Shelihova
60.733,163.017,21.8,0.00,Chemurnaut
60.785,-161.829,22.8,0.00,Bethel Airport
60.817,125.317,23.7,0.04,Isit'
60.85,151.767,25.2,0.10,Atka
60.9,131.983,26.1,0.00,Amga
60.95,78.617,26.4,0.35,Lobchinskiye
60.95,119.3,33.2,0.00,Kileer
60.983,32.983,40.0,0.08,Olonec
61.017,36.45,39.2,0.24,Vytegra
61.017,93.433,34.3,0.12,Vel'Mo
61.028,69.086,25.9,0.06,Khanty Mansiysk
61.033,89.633,35.5,0.28,Vorogovo
61.05,68.633,25.3,0.04,Became Stn 238281
61.083,42.067,34.7,0.04,Vel'Sk
61.1,-155.567,15.6,0.00,Sparrevohn Afs
61.1,80.25,24.4,0.02,Lar' Yak
61.117,149.633,27.5,0.02,Ust' Omchug
61.133,126.8,23.6,0.04,Sinskoye-In-Yakut
61.133,137.983,28.0,0.00,Allah-Jun
61.133,152.383,25.4,0.02,Talata
61.169,-150.028,38.5,0.00,Anchorage Intl Ap
61.233,46.717,34.1,0.01,Kotlas
61.233,172.383,25.4,0.00,Vatyna
61.25,-149.8,36.0,0.00,Anchorage/Elmendorf
61.267,108.017,35.1,0.00,Erbogacen
61.283,128.933,22.6,0.00,Brologyakhatat
61.3,71.3,24.0,0.06,Sytomino
61.333,100.483,32.4,0.13,Mutoraj
61.344,73.402,23.3,0.06,Surgut
61.35,166.0,18.9,0.00,Korf
61.483,129.15,21.0,0.04,Pokrovsk
61.5,38.933,34.6,0.08,Kargopol'
61.533,82.417,23.6,0.31,Korliki
61.533,156.7,22.3,0.01,Pestraya Dresva
61.6,90.017,32.4,0.31,Bor
61.617,114.617,31.0,0.00,Dorozhnyj
61.647,50.845,32.0,0.00,Syktyvkar
61.667,40.183,31.8,0.16,Njandoma
61.667,96.367,32.7,0.21,Bajkit
61.683,53.683,27.9,0.00,Ust'-Kulom
61.7,70.667,23.4,0.08,Gorskova
61.717,30.717,38.2,0.24,Sortavala
61.733,102.817,30.6,0.08,Strelka Chunya
61.783,-166.033,25.3,0.00,Cape Romanzoff Afs
61.8,36.583,34.9,0.04,Pudoz
61.8,74.083,20.5,0.08,Yermakovo
61.817,34.267,37.6,0.35,Petrozavodsk
61.867,135.5,28.7,0.00,Ohotskijperevoz
61.883,147.35,35.6,0.00,Kulu
61.883,152.4,24.7,0.02,Strelka-In-Magadan
61.917,124.55,24.2,0.00,Tongulah
61.917,158.983,21.6,0.00,Najahan
61.95,64.9,22.7,0.00,Vonegan
61.95,160.417,17.4,0.00,Chaybukha
61.967,94.667,33.8,0.08,Poligus
61.983,109.767,36.0,0.00,Markhay
62.017,129.717,21.8,0.00,Jakutsk
62.033,132.6,21.8,0.02,Curapca
62.05,66.4,22.6,0.08,Mys Sosnoviy
62.05,160.5,26.2,0.00,Giziga
62.05,175.283,20.5,0.00,Hatyrka
62.093,129.771,13.2,0.04,Yakutsk
62.1,42.9,34.7,0.04,Shenkursk
62.117,149.517,20.3,0.00,Jek-London (Lake)
62.15,117.65,29.5,0.00,Suntar
62.159,-145.459,32.6,0.00,Gulkana Airport
62.167,49.117,28.6,0.00,Jarensk
62.233,45.017,32.9,0.00,Verhnjaja Tojma
62.267,116.15,31.2,0.00,Krestyah
62.267,127.067,24.2,0.00,Berdigestyah
62.283,119.85,28.6,0.00,Chaingda
62.317,92.117,32.4,0.47,Kuz' Movka
62.32,-150.095,36.3,0.00,Talkeetna State Arpt
62.417,179.133,22.9,0.00,Buhta Gavriila
62.433,60.867,24.0,0.01,Njaksimvol'
62.433,166.083,20.5,0.00,Kamenskoe
62.45,66.05,19.0,0.02,Oktjabr'Skoe
62.45,152.317,28.4,0.04,Srednikan
62.467,89.017,29.1,0.16,Bahta
62.467,133.417,23.8,0.00,Ytyk-Kjuel
62.483,86.283,26.3,0.24,Kellog
62.517,155.8,23.2,0.02,Omsukchan
62.533,149.633,29.5,0.00,Yagodnoye
62.535,114.039,31.0,0.00,Mirny
62.667,131.133,21.3,0.00,Borogoncy
62.7,56.2,18.0,0.00,Troicko-Pecherskoe
62.717,101.117,33.7,0.16,Kerbo
62.717,150.017,28.0,0.00,Khatinnakh
62.733,129.667,23.0,0.00,Namtsy
62.783,136.85,25.5,0.02,Teply Kljuch
62.783,148.167,33.8,0.00,Susuman
62.8,150.667,29.1,0.00,El' Gen (Sovhoz)
62.817,42.783,31.3,0.00,Dvinskij Bereznik
62.817,134.433,25.3,0.00,Krest-Hal' Dzhay
62.883,-155.967,19.2,0.00,Tatalina Lrrs
62.883,108.433,32.6,0.00,Nakanno
62.917,34.433,31.1,0.20,Medvezegorsk
62.917,152.417,27.7,0.00,Sejmchan
62.957,-155.61,21.9,0.00,Mcgrath Arpt
62.962,-141.988,26.9,0.00,Northway Airport
62.983,50.9,20.3,0.00,Vesljana
63.017,179.283,24.0,0.00,Beringovskaja
63.033,112.483,28.4,0.00,Chernishevskij
63.05,137.95,27.2,0.00,Zapadnaya-In-Yakut
63.067,40.35,28.7,0.08,Emca
63.15,87.95,28.4,0.31,Verhneimbatsk
63.15,146.967,34.6,0.04,Arkagala
63.2,64.483,11.4,0.09,Igrim
63.2,167.85,19.9,0.00,Slautnoe
63.217,113.633,28.0,0.00,Syuldyukar
63.217,139.6,19.5,2.95,Vostochnaya
63.25,143.15,32.2,0.00,Ojmjakon
63.283,118.333,27.5,0.00,Njurba
63.3,158.5,19.6,0.01,Labaznaya
63.317,132.017,21.8,0.00,Verhojansk Perevoz
63.331,-149.127,18.7,0.00,Summit Airport
63.333,141.733,30.2,0.00,Agayakan
63.383,78.317,11.4,0.01,Halesovaya
63.4,151.317,21.1,0.01,Kanon-In-Magadan
63.417,172.717,4.6,0.00,Berezovo
63.45,48.9,22.2,0.00,Koslan
63.45,120.317,26.6,0.00,Verhneviljujsk
63.5,71.333,8.4,0.00,Numto
63.517,129.483,16.0,0.00,Batamaj
63.55,53.817,15.0,0.00,Uhta
63.583,45.633,26.6,0.00,Sura
63.583,103.967,29.8,0.98,Kislokan
63.65,62.1,9.4,0.10,Sosva
63.667,69.6,14.6,0.00,Yuil' Sk
63.717,66.7,17.8,0.01,Kislor West
63.767,34.283,27.7,0.20,Segeza
63.767,121.617,22.9,0.00,Viljujsk
63.833,30.817,27.3,0.20,Reboly
63.833,96.65,32.4,0.17,Ucami
63.833,145.6,26.9,0.00,Delyankir
63.85,-144.983,23.7,0.00,Gerstle River
63.883,-160.8,20.5,0.00,Unalakleet Field
63.9,38.117,28.2,0.04,Onega
63.933,65.05,10.5,0.16,Berezovo
63.95,124.833,19.2,0.00,Hatyayk-Homo
63.967,-22.6,35.5,0.00,Keflavik Naval Air Station
63.967,127.467,19.8,3.15,Sangary
63.983,82.083,16.7,0.02,Tol'Ka
63.994,-145.721,24.4,0.00,Allen Army Airfield
64.0,130.3,16.2,0.00,Segen-Kyuel'
64.0,154.167,24.1,0.00,Balygycan River
64.0,158.917,21.1,0.02,Kedon
64.05,141.883,28.8,0.04,Yurty
64.1,161.033,20.3,0.00,Krestik
64.167,148.033,23.7,0.02,Darpir
64.183,176.417,6.0,0.00,Yarangi-In-Chukot
64.2,93.783,30.0,0.28,Tutonchany
64.217,164.233,14.4,0.00,Verhnee Penzino
64.233,87.567,19.9,0.28,Vereshchagino
64.233,116.917,25.0,0.00,Chumpuruk
64.267,100.233,31.1,0.12,Tura
64.283,60.883,10.4,0.16,Saran-Paul'
64.283,126.45,19.0,0.00,Sogo-Haya
64.378,-173.243,20.6,0.00,Provideniya Bay
64.511,-165.44,13.6,0.00,Nome Municipal Arpt
64.55,-149.072,27.8,0.00,Nenana Municipal Ap
64.55,120.5,25.4,0.00,Ugulyat
64.55,144.4,31.0,0.12,Nera
64.567,34.917,25.5,0.00,Raznavolok
64.6,40.717,28.2,0.00,Talagi
64.65,-147.067,26.0,0.00,Fairbanks/Eielson A
64.683,170.417,9.7,0.00,Markovo
64.7,43.383,23.5,0.00,Pinega
64.733,-156.933,20.9,0.00,Galena A.
64.735,177.741,15.0,0.00,Ugolny
64.75,47.65,17.4,0.00,Kojnas
64.75,153.967,21.2,0.04,Korkodon
64.804,-147.876,28.5,0.00,Fairbanks International
64.867,174.417,7.1,0.00,Tanyurer
64.9,45.767,19.0,0.00,Lesukonskoe
64.917,77.817,4.1,0.00,Tarko-Sale
64.933,98.867,27.4,0.05,Tembenchi
64.95,34.65,24.6,0.02,Kem'
65.0,130.683,12.1,0.00,Syuryun-Kyuyel'
65.133,57.133,7.9,0.08,Pechora
65.167,87.917,16.1,0.00,Sukhaya Tunguska
65.175,-152.107,26.6,0.00,Tanana Ralph M Calhoun Mem Ap
65.183,176.767,8.3,0.00,Kanchalan
65.2,36.817,25.0,0.00,Zizgin
65.217,31.167,21.7,0.08,Kalevala
65.233,49.583,8.9,0.00,Barkovskaja
65.233,160.533,21.1,0.00,Omolon
65.25,143.167,25.4,0.04,Berezkin
65.267,168.667,15.0,0.00,Erepol
65.3,127.117,15.8,0.00,Bestyahskaya Zveroferma
65.3,135.8,11.4,0.00,Iema
65.433,52.267,7.6,0.00,Ust'-Cil'Ma
65.467,39.733,21.6,0.00,Zimnegorskij Majak
65.467,72.667,0.7,0.00,Nadym
65.483,64.717,1.6,0.05,Muzhi
65.483,173.3,12.9,0.00,Ust Belaya
65.55,-171.033,5.3,0.00,Lavrentija
65.567,-167.917,8.4,0.00,Tin City Afs
65.583,-37.15,24.6,0.00,Kulusuk Lufthavn
65.633,59.15,11.7,0.14,Kosju River
65.633,90.017,21.5,0.01,Bolsoj Porog
65.7,82.45,9.8,0.00,Krasnosel' Kupsk
65.733,150.9,7.4,0.12,Zyryanka
65.783,-169.083,6.8,0.00,Ratmanova Island
65.783,87.989,18.9,2.95,Turuhansk
65.833,65.933,4.3,0.08,Pitlyar
65.867,44.217,13.6,0.00,Mezen'
65.883,31.833,16.9,0.02,Kesten'Ga
65.9,34.767,16.2,0.01,Gridino
65.95,78.4,-1.7,0.00,Urengoj
65.967,56.917,3.0,0.04,Ust'-Usa
65.983,84.328,7.6,0.00,Yanov-Stan
66.0,-153.7,18.4,0.00,Indian Mountain Afs
66.15,-169.833,2.6,0.00,Mys Uelen
66.183,39.533,13.0,0.00,Pjalica
66.25,52.55,5.2,0.00,Okunev Nos
66.25,114.283,23.7,0.00,Shelagontsy
66.267,67.867,-2.2,0.00,Poluy
66.35,-179.117,17.4,0.00,Egvekinot
66.383,173.333,13.5,0.00,En' Muveem
66.417,87.2,14.6,0.00,Kurejka River
66.45,143.233,15.0,0.16,Ust'-Moma
66.5,149.783,3.2,0.04,Arga
66.51,-16.54,2.7,0.00,Iceland Site
66.533,-18.017,5.6,0.00,Grimsey
66.533,66.667,-2.6,0.01,Salehard
66.533,164.283,22.7,0.00,Baimka
66.54,-151.31,23.9,0.00,Bettles Field
66.55,159.417,20.8,0.04,Ust'-Oloj
66.6,82.5,1.3,0.00,Sidorovsk
66.633,-52.867,7.4,0.00,Dye 1 (Red River)
66.633,72.933,-7.4,0.00,Nyda
66.683,34.35,16.0,0.00,Umba
66.767,123.4,16.4,0.00,Zhigansk
66.767,131.6,15.8,0.00,Ekyuchchyu
66.8,68.883,-5.7,0.00,Jambur
66.8,136.683,5.7,0.00,Ust'-Charki
66.833,-174.5,2.1,0.00,Koljucinskaja Bay
66.833,70.833,-8.0,0.00,Jar-Sale
66.867,-162.633,16.1,0.00,Kotzebue Ralph Wein Memorial
66.883,93.467,15.4,0.01,Agata
66.9,65.667,-1.0,0.01,Ra-Iz
66.933,-171.833,-3.0,0.00,Enurmino
67.017,-50.689,25.2,0.00,Sondre Stromfjord / Kangerlussuaq
67.033,-178.917,-2.7,0.00,Amgujema
67.033,59.4,-6.5,0.00,Hoseda-Hard
67.117,126.117,17.6,0.00,Sobopol-In-Yakut
67.133,108.533,23.1,0.00,Yarol'In
67.15,32.35,18.7,0.00,Kandalaksha
67.15,43.9,6.0,0.00,Mys Konusin
67.25,167.967,13.1,0.00,Ilirnej
67.35,37.05,7.7,0.00,Krasnoscel'E
67.383,137.217,9.1,0.00,Maliy Tuostakh
67.467,78.733,-7.7,0.00,Tazovskij
67.483,64.017,0.4,0.28,Vorkuta
67.567,133.4,10.6,0.00,Verhojansk
67.633,53.033,0.0,0.00,Nar'Jan-Mar
67.65,134.683,20.3,0.00,Batagaj
67.683,48.683,2.0,0.00,Indiga
67.683,72.883,-8.3,3.94,Novyj Port
67.733,116.167,29.3,2.95,Maak-In-Yakut
67.8,46.667,8.1,0.31,Mys Mikulkin
67.8,130.383,14.5,0.00,Batagaj-Alyta
67.833,-175.833,-2.1,0.00,Mys Vankarem
67.867,-178.75,5.5,0.00,Iultin-In-Chukot
67.883,44.15,4.0,0.00,Shojna
68.0,35.033,4.5,0.00,Lovozero
68.117,164.167,23.1,0.00,Ostrovnoe
68.367,38.65,13.3,0.00,Cape Cherniy
68.467,102.367,7.2,0.00,Essej
68.5,73.583,-6.0,0.01,Cape Kamennyj
68.5,112.433,17.8,0.00,Olenek
68.6,52.333,2.0,0.00,Tobseda
68.617,118.333,18.8,0.00,Suhana
68.65,43.3,11.2,0.00,Kanin Nos
68.667,86.25,-3.5,0.00,Potapovo
68.733,124.0,16.7,0.00,Dzardzan
68.733,158.717,8.4,0.02,Kolymskaya
68.75,161.283,16.4,0.02,Cherskij
68.782,32.751,14.5,0.00,Murmansk
68.85,61.183,0.0,0.00,Korotajiha
68.883,-166.133,10.6,0.00,Cape Lisburne Afs
68.883,170.783,12.7,0.00,Chaun
68.9,-179.633,-4.8,0.00,Mys Shmidta
69.083,76.85,-6.6,0.00,Antipajuta
69.25,64.983,1.8,0.01,Ust-Kara
69.283,32.8,11.0,0.00,Ura-Guba (Bay)
69.333,87.95,-2.0,0.00,Norilsk
69.4,86.167,-8.1,0.00,Dudinka
69.45,-133.017,9.0,0.00,Tuktoyaktuk
69.483,60.333,0.6,0.00,Cape Bely
69.5,166.583,14.7,0.00,Rauchua
69.583,147.533,2.3,0.00,Vorontsovo
69.617,162.3,16.6,0.04,Buhta Ambarcik
69.617,172.033,19.1,0.00,Krasnoarmejski
69.717,66.8,-1.8,0.08,Maresale
69.733,-163.017,5.7,0.00,Point Lay Liz 2
69.75,61.7,-2.9,0.00,Amaderma
69.75,128.2,16.5,2.95,Sahanja
69.75,170.6,18.3,0.00,Apapelkhino
69.767,135.067,12.1,0.00,Jangki-In-Yakut
69.783,170.597,24.0,0.00,Pevek
69.817,60.75,-4.5,0.00,Yugorskiy Shar
69.883,175.767,2.7,0.00,Mys Billingsa
69.917,125.167,20.0,0.00,Siktjah
69.917,167.967,12.9,0.00,Ajon
70.083,83.167,-2.2,0.00,Karaul
70.083,170.933,7.3,0.00,Val' Karkay
70.133,113.967,-1.8,0.00,Dzalinda
70.134,-143.577,-4.0,0.00,Barter Island Airport
70.167,-124.683,1.7,0.00,Cape Parry
70.167,72.517,-1.2,0.01,Seyaha
70.25,-148.333,-2.1,0.00,Prudhoe Bay
70.35,74.133,0.0,0.00,Tadibe-Yakha
70.45,59.083,-2.0,0.00,Im E K Fedorova
70.5,-149.883,-0.5,0.00,Oliktok Pow 2
70.5,-117.633,1.3,0.00,Holman Island
70.55,154.25,-6.9,0.00,Alazeja River
70.617,-159.85,-4.5,0.00,Wainwright Liz 3
70.617,147.883,1.4,0.08,Chokurdah
70.633,162.483,9.7,0.01,Ostrov Chetyrehstolbovoy
70.683,127.4,14.2,0.02,Kjusjur
70.717,57.617,-0.4,0.00,Cape Menshikova
70.767,136.217,15.3,0.00,Jubilejnaja
70.85,89.883,-1.5,0.00,Kresti
70.883,78.5,-2.0,0.00,Gyda
70.917,-153.25,-4.3,0.00,Lonely
70.983,-178.65,2.0,0.00,Ostrov Vrangelya
71.017,149.0,-5.8,0.00,Russkoye Ust'Ye
71.283,-156.782,-5.2,0.00,W Post-Will Rogers Memorial Airport
71.4,67.633,2.0,0.00,Cape Kharasovoy
71.483,71.817,-6.0,0.00,Tambey
71.5,136.583,9.9,0.00,Uedey
71.533,129.917,11.0,0.02,Mostakh Island
71.698,128.903,11.7,0.02,Tiksi
71.883,82.7,0.4,0.00,Sopochnaya Karga
71.917,123.567,4.3,0.00,Tyumyati
71.95,-124.733,-0.5,0.00,Sachs Harbour
71.967,114.083,-0.4,0.00,Saskylah
71.983,102.467,3.0,0.02,Hatanga
72.333,79.5,2.0,0.00,Leskino
72.367,52.7,4.2,0.00,Malye Karmakuly
72.4,126.35,3.0,0.00,Im Yu A Habarova
72.75,140.75,5.8,0.00,Cape Svatoj
73.0,119.867,-3.5,0.00,Ust' Olenek
73.167,128.833,0.7,0.00,Antipinskiy
73.183,143.233,2.0,0.00,Mys Shalaurova
73.25,90.917,2.7,0.00,Tareya (Stream)
73.333,70.05,-2.0,0.00,Im. M.V. Popova
73.336,139.867,6.6,0.01,Kigilyah
73.5,76.0,2.5,0.00,Vilkickogo Island
73.5,80.4,3.0,0.01,Ostrov Dikson
73.567,118.75,-4.0,0.00,Cape Terpay-Tumus
73.667,109.75,-3.0,0.00,Cape Kasisty
73.9,124.6,-3.4,0.01,Dunway Island
74.667,112.933,-1.6,0.06,Ostrov Preobrazenij
74.667,138.9,2.7,0.00,Sannikova
74.883,142.2,4.0,0.00,Zemlya Bunge
75.417,88.9,1.8,0.01,Mys Sterlegova
75.533,113.517,-3.0,0.26,B. Pronchishchevoy
75.75,137.583,-0.5,0.35,Tempa Bay
75.95,82.95,0.8,2.95,Izvestij Tsik
76.0,137.867,-1.0,2.95,Ostrov Kotel'Nyj
76.15,152.833,-2.0,0.02,Zohova Island
76.183,63.567,4.2,0.01,Russkaya Gavan'
76.283,94.733,-2.2,0.00,Pravdy Island
76.517,-68.833,-11.9,0.00,Thule Op Site
76.531,-68.703,-11.4,0.00,Pituffik Space Base
76.8,110.833,-3.5,0.01,Andreya Island
76.95,68.55,2.0,0.01,Mys Zhelaniya
77.183,96.583,-3.2,0.00,Russkiy Island
77.283,89.667,0.8,0.00,Isachenko Island
77.5,82.2,2.2,0.00,Ostrov Uedinenija
77.617,101.483,-3.6,0.00,Geyberga Island
77.717,104.3,-3.2,0.02,Gmo Im.E.K. Fedorova
78.067,14.25,6.9,0.00,Barentsburg
78.133,107.2,-4.5,0.00,Malyy Taymir Island
78.233,103.117,-0.6,2.95,Solnechnaya Bay
78.617,98.7,-2.4,0.00,Krasnoflotskiye Isl
79.383,102.417,-4.6,0.00,Cape Peschaniy
79.483,76.983,-1.2,0.00,Ostrov Vize
79.55,90.567,2.6,0.00,Mgms Im. G.F. Ushakova
80.617,58.05,-2.5,0.00,Polargmo Im. E.T. Krenkelja
80.817,47.417,4.5,2.95,Nagurskoye
80.833,79.7,-4.5,0.00,Ushakova Island
