lat,lon,temp,precip,name
-90.0,0.0,-64.3,0.02,Amundsen-Scott
-77.883,166.733,-6.0,0.00,Mcmurdo Sound Naf
-42.883,147.333,58.1,0.00,Hobart (Ellerslie Road)
-42.836,147.51,57.9,0.00,Hobart
-41.545,147.214,59.2,0.00,Launceston
-40.117,148.017,66.8,0.00,Whitemark
-38.099,147.149,63.3,0.00,East Sale
-37.867,144.75,64.0,0.00,Laverton Raaf
-37.817,144.967,65.0,0.00,Melbourne Regional Office
-37.733,140.783,55.4,0.00,Mount Gambier Aero
-37.733,144.9,63.7,0.00,Essendon Airport
-36.9,149.9,66.9,0.00,Merimbula Airport
-36.883,145.183,68.1,0.00,Mangalore Airport
-36.317,141.633,55.6,0.00,Nhill Aerodrome
-35.307,149.195,58.7,0.00,Canberra
-35.165,147.466,67.9,0.00,Wagga Wagga
-34.95,138.533,59.5,0.00,Adelaide
-34.949,150.537,64.1,0.00,Nowra
-34.941,117.802,52.3,0.00,Albany Airport
-34.93,138.58,58.4,0.00,Adelaide (West Terrace)
-33.95,151.2,67.5,0.00,Sydney Intl Airport
-33.924,150.988,66.8,0.00,Sydney Bankstown
-33.85,148.65,68.4,0.00,Cowra Airport Comparison
-33.85,151.2,67.8,0.00,Sydney (Observatory Hill)
-33.833,121.893,56.9,0.00,Esperance
-33.601,150.781,63.8,0.00,Richmond
-33.383,149.117,58.8,0.00,Orange Airport Comparison
-32.795,151.834,65.7,0.00,Williamtown
-32.133,133.7,55.3,0.00,Ceduna Amo
-31.97,141.45,63.5,0.00,Brokenhillp.O. (Rly Station
-31.933,115.967,53.1,0.00,Perth Intl/Belmont
-31.917,115.867,57.1,0.00,Perth Metro
-31.483,145.833,67.2,0.00,Cobar Mo
-31.391,-54.112,54.8,0.00,Comandante Gustavo Kraemer
-31.144,136.817,54.8,0.00,Woomera
-31.08,150.85,67.5,0.00,Tamworthamo/Mo.From1966
-30.833,128.1,51.8,0.00,Forrest Airport
-30.789,121.462,51.5,0.00,Kalgoorlie Boulder
-30.47,138.42,58.9,0.00,Leigh Creek Aero
-30.321,153.116,66.6,0.00,Coffs Harbour
-29.467,149.85,69.7,0.00,Moree
-28.796,114.708,58.3,0.00,Geraldton
-28.705,121.891,63.5,0.00,Murrin Murrin
-27.55,135.45,59.4,0.00,Oodnadatta Airport
-27.483,153.033,69.1,0.00,Brisbane
-27.383,153.117,67.9,0.00,Brisbane Intl Arpt
-26.614,118.537,55.4,0.00,Meekatharra Airport
-26.413,146.263,73.0,0.00,Charleville
-25.033,128.3,53.1,0.00,Giles Meteorological Office
-24.9,152.317,71.5,0.00,Bundaberg Aero
-24.888,113.67,63.3,0.00,Carnarvon Airport
-23.85,151.267,71.7,0.00,Gladstone Radar
-23.8,133.917,55.6,0.00,Alice Springs Arpt
-23.382,150.475,69.9,0.00,Rockhampton
-21.67,115.12,71.3,0.00,Onslowamo
-21.117,149.217,72.1,0.00,Mackay Mo
-20.667,140.5,75.3,0.00,Cloncurry Airport
-20.664,139.489,72.9,0.00,Mount Isa
-20.378,118.626,77.6,0.00,Port Hedland Intl
-19.633,134.183,77.3,0.00,Tennant Creek Airport
-19.25,146.767,76.2,0.00,Townsville(Civ/Mil)
-18.233,127.667,79.7,0.00,Halls Creek Airport
-17.945,122.232,77.2,0.00,Broome Intl
-16.883,145.767,74.3,0.00,Cairns Airport
-16.27,133.38,82.5,0.00,Dalywaters Police Station
-14.331,-170.714,79.2,0.00,Pago Pago Wso Ap
-13.75,143.117,81.0,0.00,Coen Airport
-13.267,-43.417,78.4,0.00,Bom Jesus Da Lapa Aeroporto
-12.47,130.83,82.2,0.00,Darwin University Office
-12.415,130.877,81.5,0.00,Darwin Intl
-10.951,142.459,68.8,0.00,Bamaga Injinoo
-10.567,142.217,80.8,0.00,Thursday Island
6.822,79.886,82.0,0.00,Colombo Ratmalana
6.967,158.217,77.4,0.00,Weather Service Building
7.065,171.272,78.0,0.00,Weather Service Office Building
7.333,134.483,82.6,0.00,Koror Wso
7.45,151.833,81.0,0.00,Chuuk Wso Ap
8.733,167.733,78.7,0.00,Kwajalein Missle Ran
9.483,138.083,80.7,0.00,Yap Island Wso Ap
10.25,105.95,85.9,0.00,Vinh Long
10.819,106.652,90.0,0.00,Tan Son Nhat Intl
10.833,106.967,86.9,0.00,Long Thanh (North)
10.967,106.817,89.8,0.00,Saigon/Bien/Hoa
11.0,106.7,88.4,0.00,Phu Loi
11.633,108.95,88.9,0.00,Phan Rang
12.0,109.217,84.3,0.00,Cam Ranh Bay
12.683,101.0,84.8,0.00,U-Taphao Intl(Navy)
13.083,109.283,83.4,0.00,Tuy-Hoa
13.483,144.8,81.1,0.00,Agana
13.767,109.217,82.6,0.00,Quy Nhon
13.913,100.607,85.8,0.00,Bangkok Intl / Don Mueang Intl
13.95,109.05,83.4,0.00,Phu Cat
14.005,108.017,74.5,0.00,Pleiku
14.467,109.033,87.6,0.00,L.Z. English
14.5,120.9,82.8,0.00,Sangley Point
14.8,120.267,83.5,0.00,Cubi Point Nf
14.817,108.967,85.2,0.00,Duc Pho
15.133,108.783,84.3,0.00,Quang Ngai
15.251,104.87,85.2,0.00,Ubon Ratchathani
15.417,108.7,30.0,0.00,Chu Lai
16.044,108.199,82.9,0.00,Danang Intl
16.4,107.633,90.4,0.00,Camp Eagle
16.402,107.703,86.5,0.00,Phubai
16.55,107.383,89.0,0.00,Camp Evans
16.557,104.76,73.4,0.00,Savannakhet
16.733,-169.517,77.4,0.00,Johnston Is Wso Ap
16.733,107.183,86.1,0.00,Quang Tri
17.386,102.788,88.0,0.00,Udon Thani
17.417,104.783,85.1,0.00,Nakhon Phanom
17.988,102.563,85.8,0.00,Wattay Intl
18.255,-65.641,80.8,0.00,Roosevelt Roads
18.433,-66.011,81.1,0.00,San Juan L M Marin Intl Ap
18.5,-67.133,78.3,0.00,Aquadilla/Borinquen
19.283,166.65,79.4,0.00,Wake Island
19.3,-81.367,83.6,0.00,Roberts
19.719,-155.053,71.0,0.00,Hilo International Ap
19.897,102.161,84.3,0.00,Luang Phabang Intl
19.9,-75.15,79.3,0.00,Guantanamo Bay Naval Air Station
20.25,100.433,86.6,0.00,Ban Houay-Xay
20.9,-156.429,74.0,0.00,Kahului Airport
21.317,-158.067,77.7,0.00,Barbers Point
21.324,-157.929,73.7,0.00,Honolulu International Airport
21.45,-157.783,69.9,0.00,Kaneohe Bay Mcas
21.984,-159.341,72.7,0.00,Lihue Airport
22.033,-159.783,74.8,0.00,Barking Sands Pacific Missile Range Fac Arpt
24.265,120.621,75.3,0.00,Taichung Intl / Ching Chuang Kang Ab
24.555,-81.752,81.5,0.00,Key West Intl Arpt
24.583,-81.683,80.8,0.00,Key West Nas
25.791,-80.316,83.8,0.00,Miami Intl Ap
25.914,-97.423,76.0,0.00,Brownsville/S Padre Island Intl Ap
26.196,127.646,71.9,0.00,Naha
26.267,127.75,72.5,0.00,Futenma
26.585,-81.861,79.5,0.00,Fort Myers Page Field
26.685,-80.099,82.7,0.00,West Palm Beach Intl Arpt
27.5,-97.817,71.7,0.00,Kingsville
27.55,-99.467,76.6,0.00,Laredo Intl Airport
27.683,-97.283,74.8,0.00,Corpus Christi Nas
27.774,-97.512,72.0,0.00,Corpus Christi International Airport
27.962,-82.54,75.5,0.00,Tampa Intl Arpt
28.2,-177.383,71.6,0.00,Henderson Field Airport
28.233,-80.6,76.6,0.16,Patrick Afb Airport
28.367,-97.667,73.2,0.00,Beeville Chase Naas
28.483,-80.567,73.4,0.08,Cocoa Beach Cape Kennedy Afs
28.545,-81.333,76.9,0.00,Orlando Municipal Arpt
28.861,-96.93,70.6,0.00,Victoria Regional Airport
29.167,-82.217,75.6,0.00,Ocala Intl J Taylor
29.183,-81.048,72.0,0.00,Daytona Beach Regional Arpt
29.267,-100.283,68.1,0.00,Del Rio(Nexrad)
29.378,-100.927,76.0,0.00,Del Rio International Airport
29.383,-98.583,70.1,0.00,Lackland Air Force Base (Kelly Field Annex)
29.544,-98.484,71.9,0.00,San Antonio International Airport
29.617,-95.167,67.2,0.00,Ellington Field Airport
29.817,-90.017,70.5,0.00,New Orleans Alvin Callender F
29.951,-94.021,70.0,0.00,Port Arthur Jefferson County
29.98,-95.36,69.8,0.00,Houston Intercontinental Ap
29.997,-90.278,67.1,0.00,Louis Armstrong New Orleans Intl Ap
30.067,-85.583,70.1,0.00,Tyndall Afb Airport
30.125,-93.228,67.8,0.00,Lake Charles Regional Arpt
30.2,-97.683,70.4,0.00,Bergstrom Afb/Austi
30.233,-81.667,70.0,0.00,Jacksonville Nas
30.321,-97.76,70.8,0.00,Austin Mueller Municipal Ap
30.35,-87.317,66.1,0.00,Pensacola Forest Sherman Nas
30.393,-84.353,66.2,0.00,Tallahassee Dale Mabry Field
30.4,-81.417,69.1,0.00,Mayport Ns
30.417,-88.917,69.6,0.00,Keesler Air Force Base
30.417,-86.683,65.4,0.00,Hurlburt Field Airport
30.478,-87.187,67.7,0.00,Pensacola Regional Ap
30.483,-86.517,66.7,0.00,Eglin Afb Airport
30.495,-81.694,69.5,0.00,Jacksonville Imeson
30.533,-87.2,73.3,0.00,Pensacola Ellyson Fld Naas
30.537,-91.147,67.1,0.00,Baton Rouge Ryan Arpt
30.688,-88.246,68.6,0.00,Mobile Regional Ap
30.717,-87.017,70.0,0.00,Whiting Field Nas
30.967,-83.2,79.7,0.00,Moody Afb/Valdosta
31.236,-94.754,68.2,0.00,Lufkin Angelina Co
31.25,-81.467,67.8,0.00,Brunswick Glynn Co A
31.317,-92.55,65.7,0.00,Alexandria Int
31.352,-100.495,76.0,0.00,San Angelo Regional/Maths Field Ap
31.393,-92.296,62.7,0.00,Esler Field Aaf
31.588,-110.344,60.7,0.00,Fort Huachuca
31.619,-97.228,72.0,0.00,Waco Rich Field
31.811,-106.376,72.8,0.00,El Paso Municipal Arpt
31.883,-81.567,64.4,0.00,Ft Stewart/Wright
31.948,-102.209,73.5,0.00,Midland International Airport
32.13,-81.21,66.4,0.00,Savannah Intl Ap
32.131,-110.955,68.0,0.00,Tucson International Ap
32.217,-101.517,84.3,0.00,Webb Afb
32.3,-86.408,62.8,0.00,Montgomery Dannelly Field
32.321,-90.078,61.1,0.00,Jackson International Ap
32.335,-88.744,62.5,0.00,Meridian Key Field
32.35,-86.983,72.9,0.00,Craig Fld
32.367,-64.683,65.8,0.00,Naval Atlantic Meterology & Oceanography Facility
32.383,-86.35,63.8,0.00,Maxwell Afb Airport
32.411,-99.682,73.8,0.00,Abilene Regional Airport
32.447,-93.824,65.8,0.00,Shreveport Regional Arpt
32.483,-80.717,66.5,0.00,Beaufort Mcas
32.516,-84.942,64.2,0.00,Columbus Muscogee County Arpt
32.55,-88.567,61.4,0.00,Meridian Naas
32.567,-117.117,54.4,0.00,Imperial Beach Ream Field Nas
32.633,-83.6,64.3,0.00,Robins Afb Airport
32.667,-114.6,61.0,0.00,Yuma Intl Arpt
32.685,-83.653,64.8,0.00,Macon Middle Ga Regional Ap
32.7,-117.2,54.1,0.00,North Island Nas
32.733,-96.967,69.5,0.00,Dallas Hensley Field Nas
32.733,129.867,65.3,0.00,Nagasaki
32.734,-117.183,55.2,0.00,San Diego Lindbergh Field
32.767,-97.45,70.0,0.00,Fort Worth Naval Air Station Jrb/Carswell Field
32.782,-98.06,72.0,0.00,Mineral Wells Airport
32.85,-106.1,68.5,0.00,Holloman Afb
32.852,-96.856,70.6,0.00,Dallas Love Field Airport
32.867,-117.133,50.6,0.00,San Diego Miramar Nas
32.898,-97.019,68.4,0.00,Dallas-Fort Worth Intl Ap
32.899,-80.04,65.3,0.00,Charleston
33.023,-118.588,52.9,0.00,Nalf/F. Sherman Fld Arpt
33.237,-107.268,66.0,0.00,Truth Or Consequences Muni Ap
33.25,-119.45,53.4,0.00,San Nicholas Island
33.364,-81.963,63.3,0.00,Augusta Bush Field
33.428,-112.004,69.1,0.00,Phoenix Sky Harbor Intl Ap
33.55,-112.367,57.4,0.00,Luke Afb Airport
33.566,-86.745,60.1,0.00,Birmingham Municipal Ap
33.586,130.451,62.4,0.00,Fukuoka
33.619,-114.714,62.2,0.00,Blythe Riverside Co
33.63,-84.442,60.8,0.00,Atlanta Hartsfield Intl Ap
33.666,-101.823,74.3,0.00,Lubbock West Texas Air Termina
33.667,-117.733,55.0,0.00,El Toro Mcas
33.68,-117.866,56.8,0.00,Santa Ana
33.7,-117.833,53.1,0.00,Marine Corps Air Station
33.783,-118.05,55.6,0.00,Los Alamitos
33.812,-118.146,55.2,0.00,Long Beach / Daugherty Field / Airport
33.883,130.653,59.6,0.00,Ashiya
33.9,-117.25,48.4,0.08,March Air Reserve Base
33.938,-118.389,54.0,0.00,Los Angeles Municipal Arpt
33.942,-81.118,66.2,0.00,Columbia Metro Arpt
33.948,-83.328,62.8,0.00,Athens Municipal Arpt
33.967,-80.467,66.5,0.00,Shaw Air Force Base
33.979,-98.493,71.4,0.00,Wichita Falls Municipal Arpt
34.056,-117.6,49.1,0.00,Ontario International Arpt
34.117,-119.117,50.8,0.00,Point Mugu Nf
34.15,132.233,61.0,0.00,Iwakuni
34.268,-77.9,63.9,0.00,Wilmington
34.3,-6.6,58.9,0.00,Port Lyautey
34.383,-103.317,67.0,0.00,Cannon Afb Airport
34.644,-86.786,62.7,0.00,Huntsville Madison County Arp
34.652,-112.421,51.1,0.00,Prescott Municipal Ap
34.7,-77.383,62.9,0.00,New River Mcas
34.727,-92.239,61.6,0.00,Little Rock Adams Field
34.744,-118.724,32.0,0.00,Sandberg
34.75,-120.567,50.0,0.00,Vandenberg Afb
34.786,135.438,60.1,0.00,Osaka Intl
34.854,-116.786,54.3,0.00,Daggett Barstow-Daggett Ap
34.884,-82.221,63.0,0.00,Greenville-Spartanburg Intl Airport
34.899,-120.449,49.5,0.00,Santa Maria Public Arpt
34.9,-117.867,45.9,0.00,Edwards Air Force Base
34.9,-76.883,63.9,0.00,Cherry Point Mcas
34.917,-92.15,64.8,0.00,Little Rock Afb Airport
34.983,-89.783,68.2,0.00,Olive Branch
35.028,-110.721,58.0,0.00,Winslow Municipal Ap
35.031,-85.201,59.9,0.00,Chattanooga Lovell Field Ap
35.042,-106.616,60.8,0.00,Albuquerque Municipal Arpt
35.056,-89.987,65.0,0.00,Memphis Municipal Arpt
35.067,-108.833,51.6,0.00,Zuni
35.144,-111.666,43.4,0.00,Flagstaff Pulliam Arpt
35.167,136.967,61.0,0.00,Nagoya
35.174,-79.009,62.5,0.00,Pope Afb Airport
35.182,-103.603,67.1,0.00,Tucumcari Faa Ap
35.224,-80.955,59.7,0.00,Charlotte Douglas Municipal A
35.23,-101.704,67.3,0.00,Amarillo Rick Husband Intl Airport
35.233,-75.622,60.0,0.00,Hatteras Billy Mitchell Ap
35.255,136.924,60.2,0.00,Nagoya
35.283,62.35,63.7,0.00,Gyshgy
35.283,139.667,58.6,0.00,Yokosuka
35.333,-94.363,61.5,0.00,Fort Smith Regional Airport
35.35,-89.867,64.3,0.00,Memphis Nas
35.389,-97.601,65.4,0.00,Oklahoma City Will Rogers Fie
35.432,-82.538,60.9,0.00,Asheville Airport
35.434,-119.054,56.4,0.00,Bakersfield Kern County Arpt
35.45,139.45,59.0,0.00,Atsugi Nas
35.552,139.78,61.7,0.00,Tokyo Intl
35.683,139.767,62.2,0.00,Tokyo
35.688,-117.693,55.5,0.00,China Lake Naf
35.748,139.348,57.2,0.00,Yokota Ab
35.818,-83.986,59.7,0.00,Knoxville Mcghee Tyson Ap
35.892,-78.782,60.6,0.00,Raleigh-Durham International Ap
35.917,126.617,57.4,0.00,Kunsan Ab
35.967,-89.95,62.5,0.00,Arkansas International Airport
36.0,-121.233,44.7,0.00,Jolon Hunter Liggett Mil Res
36.072,-115.163,53.5,0.00,Las Vegas Mccarran Intl Ap
36.097,-79.943,59.0,0.00,Greensboro Greensboro-High Po
36.119,-86.689,61.8,0.00,Nashville Berry Field
36.199,-95.887,64.2,0.00,Tulsa International Airport
36.333,-119.95,52.9,0.00,Lemoore Reeves Nas
36.333,-97.917,72.5,0.00,Vance Afb
36.473,-82.404,57.1,0.00,Bristol Tri City Airport
36.533,61.217,72.5,0.00,Saragt
36.6,-121.867,51.6,0.00,Monterey Naf
36.65,-6.35,57.0,0.00,Rota Nas
36.744,-108.229,56.6,0.00,Farmington Municipal Ap
36.78,-119.719,51.0,0.00,Fresno Yosemite Intl Ap
36.817,-76.033,56.7,0.00,Oceana Nas
36.903,-76.192,62.4,0.00,Norfolk Regional Arpt
36.95,-116.05,42.7,0.00,Yucca Flats Test S T
36.95,-76.283,62.1,0.00,Norfolk Nas
37.083,-76.36,60.1,0.00,Langley Afb Airport
37.24,-93.39,58.5,0.00,Springfield Municipal Arpt
37.287,67.31,83.0,0.00,Termez
37.317,-79.974,59.1,0.00,Roanoke Woodrum Arpt
37.321,-79.207,61.4,0.00,Lynchburg Municipal Arpt
37.359,-121.924,54.2,0.00,San Jose Municipal Ap
37.371,-118.358,40.6,0.00,Bishop Airport
37.4,14.917,59.6,0.00,Sigonella
37.406,-122.048,53.4,0.00,Mountain View Moffett Fld Nas
37.439,-105.861,46.1,0.00,Alamosa Arpt
37.467,53.967,57.0,0.00,Esenguly
37.483,69.383,78.5,0.00,Parkhar
37.5,71.5,63.5,0.01,Khorog
37.505,-77.32,57.2,0.00,Richmond Intl Ap
37.558,126.791,58.6,0.00,Gimpo
37.6,62.183,76.5,0.00,Bajramaly
37.62,-122.365,52.0,0.00,San Francisco Intl Ap
37.648,-97.43,62.0,0.00,Wichita Municipal Arpt
37.706,-112.146,37.7,0.00,Bryce Cnyn Faa Ap
37.709,-113.094,40.9,0.00,Cedar City Municipal Ap
37.721,-122.221,54.0,0.00,Oakland Metropolitan
37.769,-99.968,61.0,0.00,Dodge City Municipal Arpt
37.783,-122.317,52.0,0.00,Naval Air Station
37.783,126.85,40.6,0.00,Yeongdongri
37.784,-81.123,49.0,0.00,Beckley Raleigh Co Mem Ap
37.833,65.2,81.0,0.00,Kerki Intl
37.884,127.718,47.3,0.00,A 306
37.889,-121.226,54.0,0.00,Stockton Metropolitan Arpt
37.9,-85.967,56.6,0.00,Godman Aaf Airport
37.937,-75.471,61.4,0.00,Wallops Island Uau
37.967,126.567,52.5,0.00,Kaesong
37.987,58.361,65.8,8.86,Ashgabat
38.033,125.7,55.5,0.00,Haeju
38.041,-84.606,51.4,0.00,Lexington Bluegrass Field
38.044,-87.521,57.0,0.00,Evansville Dress Regional Arp
38.051,-117.09,35.1,0.00,Tonopah Airport
38.067,-122.5,53.5,0.00,Hamilton Aaf
38.181,-85.739,54.9,0.00,Louisville Standiford Field
38.25,-78.05,79.6,0.00,Orange Co
38.289,-104.506,53.5,0.00,Pueblo Memorial Airport
38.3,-76.417,57.0,0.00,Patuxent River Nas
38.341,-75.51,56.1,0.00,Salisbury Wicomico Co Ap
38.365,-82.555,55.3,0.00,Huntington Tri-State Arpt
38.379,-81.59,52.2,0.00,Charleston Kanawha Arpt
38.417,-113.017,38.6,0.00,Milford Municipal Ap
38.5,-77.3,55.7,0.00,Quantico Mcas
38.507,-121.495,56.9,0.00,Sacramento Executive Arpt
38.517,125.767,54.4,0.00,Sariwon
38.543,68.825,70.5,0.00,Dushanbe
38.55,-89.85,57.1,0.00,Scott Air Force Base/Midamerica Airport
38.717,-77.183,56.2,0.00,Davison Aaf Airport
38.733,48.833,56.6,0.16,Lankaran
38.753,-90.374,58.1,0.00,St Louis Lambert Int'L Arpt
38.762,-27.091,60.8,0.00,Lajes
38.81,-104.688,50.0,0.00,Colorado Springs Peterson Fie
38.817,-92.218,59.8,0.00,Columbia Regional Airport
38.817,-76.867,55.6,0.00,Andrews Air Force Base Airport
38.848,-77.034,56.8,0.00,Washington D C Washngtn-Hoove
38.876,-98.809,57.9,0.00,Russell Municipal Ap
38.885,-79.853,48.2,0.00,Elkins Elkins-Randolph Co Arp
38.941,-77.464,55.0,0.00,Washington Dulles International Ap
38.983,56.283,60.8,0.16,Gyzylarbat
39.043,-84.672,52.3,0.00,Cincinnati Greater Cincinnati
39.05,-96.767,58.6,0.00,Marshall Army Airfield
39.073,-95.626,58.5,0.00,Topeka Municipal Ap
39.083,-76.767,53.9,0.00,Tipton Airport
39.083,63.6,73.0,0.08,Chardzhev
39.121,-94.597,61.0,0.00,Kansas City Municipal Ap
39.133,-75.467,51.4,0.00,Dover Afb Airport
39.134,-108.54,57.6,0.00,Grand Junction Walker Field
39.167,-76.683,53.4,0.00,Baltimore Blt-Washng
39.183,127.433,57.2,0.00,Wonsan
39.224,125.67,53.6,0.00,Pyongyang Intl
39.295,-114.847,30.7,0.00,Ely Yelland Field
39.317,-76.4,61.2,0.00,Martin State
39.317,58.6,66.7,0.00,Erbent
39.367,-101.693,51.4,0.00,Goodland Renner Field
39.367,-94.917,54.0,0.00,Sherman Aaf
39.417,-118.717,45.7,0.00,Fallon Naas
39.431,-83.777,56.6,0.00,Airborne Airpark Airport
39.449,-74.567,49.6,0.00,Atlantic City Intl A
39.484,-119.771,36.5,0.00,Reno Wbo
39.551,-97.651,55.3,0.00,Concordia Blosser Muni Ap
39.595,47.196,57.6,0.00,Fuzuli
39.65,-106.917,47.5,0.00,Eagle County Ap
39.673,-75.601,49.1,0.00,Wilmington Dupont Ap
39.701,66.984,68.8,0.28,Samarkand
39.732,-86.279,51.8,0.00,Indianapolis Weir Cook Munici
39.767,-104.883,51.3,0.00,Denver Stapleton Airfield
39.774,-94.923,62.4,0.00,St Joseph Wbo
39.833,-84.05,51.0,0.00,Wright-Patterson Afb Airport
39.845,-89.684,53.6,0.00,Springfield Capital Ap
39.868,-75.231,48.6,0.00,Philadelphia International Ap
39.906,-84.219,52.0,0.00,Dayton Municipal Arpt
39.933,127.55,53.0,0.00,Hamheung
39.991,-82.881,50.0,0.00,Columbus Municipal Arpt
40.017,-74.6,46.9,0.00,Mcguire Afb Airport
40.033,-74.35,44.7,0.00,Lakehurst Nas
40.033,52.983,50.8,0.12,Turkmenbashi
40.068,-118.569,39.1,0.00,Lovelock Derby Field
40.1,124.383,54.9,0.00,Sinuiju
40.152,-122.254,57.5,0.00,Red Bluff Municipal Arpt
40.183,-74.067,44.0,0.00,Belmar Asc
40.2,-75.15,44.1,0.00,Willow Grove Nas
40.212,44.53,57.6,0.00,Yerevan-Arabkir
40.217,-76.851,47.5,0.00,Harrisburg State Arpt
40.217,69.733,69.0,0.00,Khudjant
40.467,62.283,62.5,0.00,Darganata
40.485,-80.214,44.7,0.00,Pittsburgh International Airport
40.497,-3.446,49.4,0.00,Torrejon
40.55,44.933,43.3,0.00,Sevan
40.55,65.683,62.2,0.08,Nurata
40.639,-73.762,44.8,0.00,New York Fort Totten
40.651,-75.449,41.8,0.00,Allentown Bethlehem-Easton Ar
40.667,129.2,52.2,0.00,Kimchaek/Songjin
40.668,-89.684,52.6,0.00,Peoria Greater Peoria Ap
40.683,-74.169,46.5,0.00,Newark International Arpt
40.705,141.372,43.7,0.00,Misawa Ab
40.717,46.417,59.3,0.08,Gandja
40.721,-114.036,42.1,0.00,Wendover Usaf Auxiliary Field
40.778,-111.969,44.4,0.00,Salt Lake City International Airport
40.779,-73.969,44.2,0.00,New York Central Park
40.779,-73.88,44.1,0.00,New York Laguardia Arpt
40.783,-91.125,51.9,0.00,Burlington Municipal Ap
40.783,43.833,45.0,0.00,Gumri
40.82,-82.518,47.5,0.00,Mansfield Lahm Ap
40.829,-115.789,34.1,0.00,Elko Municipal Arpt
40.902,-117.808,34.5,0.00,Winnemucca Municipal Arpt
40.917,-81.433,45.9,0.00,Akron Akron-Canton Airport
40.917,72.95,65.0,0.00,Dzhalal-Abad
40.961,-98.314,53.6,0.00,Grand Island Arpt
40.967,126.6,55.6,0.00,Kanggye
40.971,-85.206,47.6,0.00,Fort Wayne City
40.978,-124.109,46.7,0.00,Arcata Airport
41.033,57.767,56.3,0.08,Ekezhe
41.067,-73.708,41.0,0.00,White Plains Westchester Co A
41.117,-95.917,58.0,0.00,Offutt Afb Airport
41.121,-100.669,48.8,0.00,North Platte Lee Bird Field
41.15,-104.817,41.5,0.00,Cheyenne Municipal Arpt
41.158,-73.129,44.4,0.00,Bridgeport Municipal Arpt
41.243,-76.922,42.3,0.00,Williamsport-Lycoming County
41.254,-80.674,40.3,0.00,Youngstown Municipal Arpt
41.258,69.281,66.5,0.00,Yuzhny / Tashkent Islam Karimov Intl
41.31,-95.899,59.6,0.00,Omaha Eppley Airfield
41.333,-122.333,40.1,0.00,Mount Shasta
41.334,-75.727,37.5,0.00,Wilkes-Barre Scranton Ap
41.383,-79.867,39.1,0.00,Franklin
41.4,128.167,50.0,0.00,Hyesan
41.405,-81.853,45.1,0.00,Cleveland Hopkins Intl Ap
41.433,76.0,54.2,0.00,Naryn
41.465,-90.523,50.9,0.00,Moline Quad City Arpt
41.534,-93.653,52.6,0.00,Des Moines Municipal Arpt
41.583,-71.417,44.1,0.00,Quonset Point Nas
41.589,-83.801,47.2,0.00,Toledo Express Airport
41.594,-109.053,42.6,0.00,Rock Springs Arpt
41.61,41.6,57.0,0.00,Batumi
41.667,46.65,58.2,0.00,Zakatala
41.707,-86.316,46.3,0.00,South Bend St Joseph Co Arpt
41.722,-71.433,45.1,0.00,Providence T F Green Arpt
41.733,64.617,58.5,0.04,Tamdy-Bulak
41.75,44.767,56.3,0.00,Tbilisi / Lochini Airport
41.75,59.817,57.5,0.12,Dashkhovuz
41.783,126.883,55.6,0.00,Chunggang
41.783,129.817,55.3,0.00,Chongjin
41.786,-87.752,50.8,0.00,Chicago Midway Ap
41.8,-78.633,33.3,0.00,Bradford Regional Ap
41.817,140.75,41.6,0.00,Hakodate
41.833,72.867,59.8,0.00,Toktogul
41.867,-71.017,44.1,0.00,Taunton Muni
41.871,-103.593,47.1,0.00,Scottsbluff W B Heilig Fiel
41.883,78.233,33.0,0.03,Tian-Shan'
41.938,-72.683,41.7,0.00,Hartford Bradley Intl Ap
41.986,-97.435,53.3,0.00,Norfolk Karl Stefan Mem Arpt
41.995,-87.934,51.6,0.00,Chicago Ohare Intl Ap
42.033,43.483,45.0,0.00,Mta-Sabueti
42.08,-80.183,37.2,0.00,Erie International Ap
42.083,-87.833,50.8,0.00,Naval Air Station
42.15,-70.933,43.3,0.00,South Weymouth Nas
42.193,-89.093,50.5,0.00,Rockford Greater Rockford Ap
42.2,-72.533,42.3,0.04,Westover Afb/Metropolitan Airport
42.207,-75.98,35.0,0.00,Binghamton Broome County Arpt
42.231,-83.331,44.0,0.00,Detroit Metro Ap
42.267,42.633,58.0,0.00,Kutaisi
42.271,-71.873,40.7,0.00,Worcester Municipal Arpt
42.317,130.4,53.2,0.00,Senbong
42.35,44.7,48.7,0.00,Pasanauri
42.361,-71.01,45.2,0.00,Gen E L Logan International Airport
42.381,-122.872,46.0,0.00,Medford Jackson County Arpt
42.391,-96.379,53.6,0.00,Sioux City Municipal Arpt
42.398,-90.704,51.0,0.00,Dubuque Municipal Ap
42.409,-83.01,45.0,0.00,Detroit City Airport
42.417,-71.483,45.6,0.00,Maynard
42.47,-71.289,45.3,0.08,Bedford Hanscom Field
42.554,-92.401,45.1,0.00,Waterloo Municipal Ap
42.6,-123.364,32.6,0.00,Sexton Summit
42.608,-82.818,44.3,0.00,Selfridge Air National Guard Base
42.65,130.8,49.3,0.00,Pos'Et
42.7,41.467,47.3,0.00,Ocemciri
42.743,-73.809,38.8,0.00,Albany County Ap
42.78,-84.579,43.5,0.00,Lansing Capital City Arpt
42.8,132.867,47.3,0.00,Nahodka
42.815,-108.726,39.4,0.00,Lander Hunt Field
42.85,71.3,62.9,0.03,Taraz
42.867,41.133,54.3,0.00,Suhumi
42.883,-85.524,44.1,0.00,Grand Rapids Kent County Arpt
42.898,-106.474,39.0,0.00,Casper Natrona Co Intl Ap
42.9,133.9,41.4,0.00,Preobrazhenie
42.92,-112.571,41.0,0.00,Pocatello Municipal Arpt
42.94,-78.736,36.0,0.00,Buffalo Niagara International Airpor
42.955,-87.904,43.5,0.00,Milwaukee Nb Side Po
42.967,-83.749,41.7,0.00,Flint Bishop Arpt
42.967,54.117,59.0,0.00,Akkuduk
43.0,47.5,52.9,0.00,Mahachkala
43.033,44.683,51.4,0.00,Vladikavkaz
43.05,-115.867,39.5,0.00,Mountain Home Afb Airport
43.067,141.333,42.0,0.00,Sapporo
43.083,-70.817,45.7,0.41,Pease Intl Tradepor
43.1,40.633,54.8,0.00,Gudauta (Bay)
43.108,-78.938,38.4,0.16,Niagara Falls Intl Airport
43.109,-88.031,49.2,0.00,Milwaukee Timmerman
43.111,-76.104,37.9,0.00,Syracuse Municipl Ap
43.117,-77.677,36.1,0.00,Rochester Monroe Co Arpt
43.117,131.933,44.0,0.00,Vladivostok
43.141,-89.345,48.9,0.00,Madison Truax Field
43.15,64.333,57.0,0.00,Ak-Bajtal
43.15,133.017,44.9,0.00,Partizansk
43.154,-93.327,46.8,0.00,Mason City Municipal Arpt
43.171,-86.237,41.5,0.00,Muskegon County Arpt
43.195,-71.501,45.1,0.00,Concord Municipal Arpt
43.234,-75.407,34.6,0.16,Griffiss Airpark
43.25,40.267,54.5,0.00,Gagby
43.25,45.717,55.9,0.00,Groznyj
43.267,68.217,64.7,0.00,Turkestan
43.367,132.167,46.8,0.00,Artem
43.413,-124.244,50.1,0.00,North Bend Muni Airport
43.433,134.767,47.0,0.00,Margaritovo
43.45,39.957,54.7,0.00,Sochi
43.513,43.637,54.4,0.00,Nalchik
43.567,-116.241,44.6,0.00,Boise Air Terminal
43.567,132.5,44.6,0.00,Novo Khatuniehi
43.578,-96.754,45.6,0.00,Sioux Falls Foss Fld
43.583,-119.05,40.6,0.00,Burns Federal Bldg
43.583,104.417,52.4,0.00,Dalanzadgad
43.583,134.167,42.8,0.00,Bereznjaki
43.65,-70.3,46.1,0.00,Portland Intl Jetport
43.733,111.9,50.8,0.00,Zamyn-Uud
43.75,146.667,32.0,2.09,Malo-Kurilskoje
43.86,51.092,51.6,0.00,Aktau
43.879,-91.253,48.2,0.00,La Crosse Muni Ap
43.883,131.967,47.3,0.00,Timiryazevskij
43.9,-69.933,44.3,0.00,Brunswick Nas
43.904,-92.492,45.8,0.00,Rochester Municipal Arpt
43.933,-90.267,48.7,0.00,Volk Field Airport
43.967,133.067,47.9,0.00,Anucino
43.983,134.683,48.7,0.00,Furmanovo-In-Primor
44.017,145.867,34.5,0.12,Juzhno-Kuril'Sk
44.033,131.317,54.9,0.00,Poltavka
44.067,62.9,56.0,0.43,Cirik-Rabat
44.1,39.033,54.9,0.00,Tuapse
44.128,-123.221,48.1,0.00,Eugene Mahlon Sweet Arpt
44.15,-103.1,40.7,0.31,Ellsworth Air Force Base
44.15,133.867,46.9,0.00,Cuguevka
44.167,80.067,59.7,0.00,Zharkent
44.225,43.082,53.4,0.00,Mineralnyye Vody
44.256,-121.139,38.4,0.00,Redmond Roberts Field
44.317,54.6,61.4,0.00,Duken
44.333,38.717,54.3,0.00,Dzhubga
44.359,-84.674,36.1,0.00,Houghton Lake Roscommon Co Ar
44.367,135.85,39.9,0.00,Rudnaja Pristan'
44.381,-100.286,43.4,0.00,Pierre Regional Ap
44.398,-98.223,41.0,0.00,Huron Municipal Arpt
44.4,46.55,57.9,0.00,Kocubej
44.4,131.383,51.8,0.00,Pogranichnyj
44.467,34.067,43.7,0.00,Ay-Petri Mtn
44.468,-73.15,39.7,0.00,Burlngtn Etan Aln Ap
44.479,-88.137,46.1,0.00,Green Bay Austin Straubel Fie
44.483,34.167,56.0,0.00,Yalta
44.651,-73.468,37.9,0.08,Plattsburgh Intl
44.683,33.567,56.3,0.00,Sevastopol/Belbek
44.683,34.133,62.5,0.00,Simferopol'
44.717,132.067,48.1,0.00,Astrahanka
44.741,-85.583,40.1,0.00,Traverse City Cherry Capital
44.75,134.467,44.1,0.08,Zuravlevka
44.767,65.533,58.7,0.02,Kyzylorda
44.769,-106.969,40.0,0.00,Sheridan County Arpt
44.783,44.133,56.1,0.00,Budennovsk
44.798,-68.819,45.8,0.00,Bangor Airport
44.8,69.117,63.7,0.04,Tasty
44.8,71.067,65.8,0.04,Ulanbel'
44.8,133.083,47.5,0.16,Svijagino
44.867,-91.488,46.4,0.00,Eau Claire Municipal Ap
44.883,-93.229,48.3,0.00,Minneapolis-St Paul Wold-Cham
44.9,110.117,52.7,0.00,Sainshand
44.905,-123.001,47.5,0.00,Salem Mcnary Field
44.936,-74.846,40.2,0.00,Massena Ap
44.95,-68.667,46.6,0.00,Old Town Faa Airport
44.983,41.117,57.2,0.00,Armavir
45.0,136.6,39.1,0.00,Ternej
45.002,37.347,55.8,0.00,Vityazevo
45.033,39.15,59.0,0.00,Krasnodar
45.072,-83.564,37.4,0.00,Alpena Phelps Collins Field
45.1,73.967,68.2,5.91,Ciganak
45.1,133.5,45.9,0.00,Kirovskij
45.15,97.767,51.0,0.00,Erdeni
45.217,131.983,42.8,0.00,Turij Rog
45.233,36.75,53.7,0.00,Taman' (Bay)
45.25,67.067,61.3,0.00,Zlikha
45.258,-112.554,38.4,0.00,Dillon
45.267,135.5,40.6,0.04,Ust-Kolumbe
45.267,147.967,34.0,0.04,Kurilsk
45.35,42.85,60.2,0.00,Svetlograd
45.367,28.85,59.4,0.04,Izmail
45.4,36.417,52.5,0.00,Kerch
45.4,56.117,60.0,0.00,Sam
45.417,134.267,44.7,0.47,Malinovo
45.443,-98.413,42.8,0.00,Aberdeen Municipal Arpt
45.5,64.083,60.4,0.16,Zhosaly
45.511,-118.425,30.9,0.00,Meachum Emergency Ap
45.517,32.7,55.7,0.00,Chornomors'Ke
45.543,-94.051,45.6,0.00,St Cloud Municipal Arpt
45.596,-122.609,49.1,0.00,Portland
45.633,75.117,62.7,0.00,Aul
45.698,-118.855,42.6,0.00,Pendleton Municipal Arpt
45.733,112.367,49.6,0.00,Bayandelger
45.767,62.117,56.9,0.00,Kazaly
45.767,106.283,52.2,0.00,Mandalgobi
45.807,-108.542,41.5,0.00,Billings Municipal Arpt
45.817,29.583,58.4,0.10,Tatarbunary
45.85,40.083,56.3,0.00,Tihoreck
45.867,133.733,41.7,0.02,Dal'Nerechensk
45.883,134.967,41.7,0.00,Vostretsovo/Karton
45.9,142.083,36.5,0.16,Cape Kryljon
45.917,43.35,55.7,0.00,Divnoe
46.0,70.0,61.3,0.08,Betpak-Dala Steppe
46.033,38.15,58.3,0.00,Primorsko-Ahtarsk
46.033,137.883,37.5,0.12,Khucin
46.117,91.467,47.3,0.00,Baitag
46.133,100.683,40.9,0.00,Bayanhongor
46.157,-123.883,46.6,0.00,Astoria Clatsop County Arpt
46.167,34.817,57.1,0.00,Heniches'K
46.167,80.933,54.3,0.00,Uc-Aral
46.183,45.35,53.1,0.00,Yashkul'
46.2,150.5,30.5,0.12,Urup
46.217,143.45,35.1,0.08,Juznoje (Lgt-H)
46.267,102.783,40.6,0.47,Arvaiheer
46.283,47.983,51.9,0.00,Astrahan'
46.375,-117.016,46.5,0.00,Lewiston Nez Perce County Arp
46.427,-105.883,44.6,0.00,Miles City Municipal Arpt
46.427,30.676,55.0,0.00,Odesa Intl
46.45,33.883,52.7,0.00,Askaniia-Nova
46.45,108.217,47.7,0.00,Choir
46.479,-84.357,37.2,0.00,Sault Ste Marie
46.483,28.283,53.2,0.08,Leova
46.533,135.317,40.5,0.00,Krasnyj Jar
46.533,138.333,40.0,0.00,Sosunovo
46.55,41.05,56.1,0.00,Celina
46.567,43.667,52.7,0.02,Remontnoe
46.568,-120.543,47.5,0.00,Yakima Air Terminal
46.583,68.617,59.5,0.00,Jeti-Konur
46.606,-111.964,43.9,0.00,Helena Arpt
46.617,141.95,35.0,0.24,Nevelsk
46.633,31.55,52.5,0.04,Ochakov
46.633,32.567,56.8,0.04,Kherson
46.633,57.333,56.7,0.02,Ak-Tumsuk
46.633,142.85,34.9,0.00,Korsakov
46.683,113.283,47.8,0.00,Baruun-Urt
46.683,136.267,37.5,0.00,Gamcanza
46.7,100.133,35.9,0.00,Galuut
46.717,59.167,56.7,0.00,Ayak-Kum
46.75,36.783,52.0,0.00,Berdyansk
46.75,50.2,48.0,0.00,Zaburunye/Isatay
46.783,-100.757,41.5,0.00,Bismarck Municipal Arpt
46.783,33.367,57.1,0.08,Nova Kakhovka
46.783,61.667,51.0,0.00,Aralsk
46.799,-102.797,39.1,0.00,Dickinson Municipal Ap
46.8,53.917,53.6,0.00,Kulsary
46.8,75.083,55.8,0.00,Balhash
46.8,134.267,41.7,0.00,Bikin
46.833,35.367,52.6,0.05,Melitopol'
46.837,-92.183,43.5,0.00,Duluth Williamsn-Johnsn Muni
46.85,34.4,52.2,0.04,Nizhni Sirohozy
46.85,151.867,32.5,0.08,Simusir
46.871,-68.017,39.4,0.00,Caribou Municipal Arpt
46.883,64.667,54.2,0.12,Kara-Kum
46.889,142.718,33.6,0.24,Khomutovo
46.921,-114.093,45.9,0.00,Missoula Johnson-Bell Fld
46.925,-96.811,40.4,0.00,Fargo Hector Arpt
46.973,-122.903,46.9,0.00,Olympia Municipal Arpt
47.017,28.983,58.0,0.26,Chisinau
47.033,31.95,51.0,0.08,Mikolaiv
47.033,37.5,50.8,0.02,Mariupol'
47.049,-109.458,40.8,0.00,Lewistown Municipal Arpt
47.05,142.05,35.7,0.21,Holmsk
47.083,-122.583,49.0,0.04,Gray Aaf
47.117,51.917,48.2,0.02,Atyrau
47.117,81.617,57.4,0.00,Urzhar
47.2,73.35,54.1,0.00,Mointy
47.25,39.817,51.6,0.35,Rostov-Na-Donu
47.267,35.333,50.6,0.04,Pryshyb
47.277,-121.337,40.6,0.00,Stampede Pass
47.3,107.483,48.0,0.00,Maanti
47.317,33.283,49.8,0.04,Velyka Oleksandrivka
47.317,110.633,54.4,0.00,Underkhaan
47.317,138.983,37.4,0.00,Zolotoj
47.333,142.8,34.5,2.95,Dolinsk
47.417,10.983,13.0,0.47,Zugspitze Mountain
47.444,-122.314,49.9,0.00,Seattle Seattle-Tacoma Arpt
47.45,101.467,39.6,0.79,Tsetserleg
47.467,84.917,53.0,0.00,Zajsan
47.473,-111.382,44.9,0.00,Great Falls Intl Arpt
47.517,-111.183,41.3,0.08,Malmstrom Afhp Heliport
47.55,134.817,38.6,0.00,Vjazemskaja
47.567,31.333,55.9,0.16,Voznesens'K
47.6,138.4,35.9,0.00,Agzu
47.622,-117.528,46.0,0.00,Spokane
47.633,-117.65,48.6,0.20,Fairchild Air Force Base
47.633,42.117,48.7,2.95,Cimljansk
47.633,43.15,50.6,0.20,Kotel'Nikovo
47.65,9.483,45.8,0.05,Friedrichshafen
47.667,136.183,36.4,0.00,Gvasjugi
47.733,130.967,40.1,0.00,Ekaterino-Nikol'Skoe
47.75,96.85,42.0,0.00,Uliastai
47.767,29.017,49.0,0.71,Ribnita
47.783,112.117,45.0,0.00,Bayan-Ovoo
47.8,38.517,46.8,0.39,Amvrosiivka
47.8,67.717,49.8,0.12,Zhezkazgan
47.833,66.75,49.0,0.24,Karsakpaj
47.843,106.767,51.6,0.00,Chinggis Khaan Intl / Buyant Ukhaa Intl
47.85,59.617,54.6,0.00,Celkar
47.85,72.083,48.0,0.00,Kzyl-Tau
47.867,25.217,45.7,0.06,Seliatyn
47.867,35.316,52.6,0.06,Zaporizhzhia Intl
47.9,48.8,47.3,0.30,Novyj Ushtogan
47.938,-124.555,49.0,0.00,Quillayute Airport
47.95,132.617,41.4,0.00,Leninskoe
47.967,51.65,44.0,0.24,Topoli
47.967,80.45,51.8,0.00,Ajaguz
47.967,139.533,33.8,0.00,Grossevichi
47.983,142.2,38.6,0.00,Ilyinskiy
48.0,7.85,45.9,0.16,Freiburg (Civ/Fafb)
48.017,91.567,44.7,0.00,Hovd
48.033,33.217,55.0,0.35,Kryvyi Rih
48.067,37.767,49.1,0.17,Donets'K
48.067,153.217,31.8,0.00,Matua
48.083,114.55,45.9,0.00,Choibalsan
48.167,78.417,56.3,0.00,Barshatas
48.174,-103.637,40.6,0.00,Williston Sloulin Field Intl
48.183,23.3,49.0,1.14,Khust
48.2,28.3,47.5,0.39,Soroca
48.214,-106.621,41.9,0.00,Glasgow Intl Arpt
48.217,46.733,46.6,0.28,Verhnij Baskunchak
48.217,57.117,53.0,0.16,Kozasaj
48.25,62.0,57.5,0.00,Taup
48.255,-101.273,39.3,0.00,Minot Faa Ap
48.3,40.3,47.0,0.00,Kamensk-Sahtinskij
48.3,69.65,47.9,0.24,Kzylzhar
48.3,74.967,48.2,0.04,Aktogaj
48.304,-114.264,49.4,0.00,Kalispell Glacier Pk Int'L Ar
48.35,-122.667,48.2,0.00,Whidbey Island Nas
48.35,29.85,50.6,0.43,Haivoron
48.35,41.867,48.9,0.08,Morozovsk
48.35,130.8,45.0,0.00,Pompeyevka
48.354,11.786,41.5,0.28,Munchen
48.367,25.9,53.1,0.33,Chernivtsi
48.425,10.932,42.0,0.55,Augsburg
48.45,27.783,54.9,0.39,Mohyliv-Podil'S'Kyi
48.45,52.917,43.2,0.16,Karabau
48.517,32.2,52.3,0.25,Kirovohrad
48.517,130.733,40.0,0.00,Dichun
48.528,135.188,40.0,0.00,Khabarovsk Novy
48.533,25.033,51.3,0.43,Kolomyia
48.543,-109.763,44.1,0.00,Havre City-County Ap
48.561,-93.398,41.9,0.00,International Falls Intl Ap
48.567,39.25,46.5,0.02,Luhans'K
48.583,13.467,41.5,0.87,Passau
48.583,67.083,44.1,0.24,Ulytau
48.6,34.967,50.8,0.12,Dnipropetrovs'K
48.6,37.983,50.0,0.02,Artemivs'K
48.6,137.05,31.3,0.01,Tivjaku
48.603,-112.375,39.8,0.00,Cut Bank Muni Ap
48.617,61.267,55.3,0.00,Irgiz
48.617,110.6,45.0,0.00,Binder
48.617,133.833,40.5,0.00,Smidovich
48.633,22.267,50.1,0.71,Uzhhorod
48.65,138.983,30.6,0.01,Ioli
48.65,142.85,31.2,0.00,Makarov
48.65,144.733,30.3,0.00,Mys Terpeniya
48.69,9.222,44.0,0.10,Stuttgart
48.7,71.633,49.7,0.08,Atasu
48.733,132.95,39.9,0.00,Birobidzhan
48.75,82.367,50.0,0.00,Kokpekty
48.767,30.233,49.4,0.59,Uman'
48.783,44.346,46.4,0.00,Gumrak
48.8,103.55,51.0,0.00,Bulgan
48.833,31.65,50.0,0.14,Novo-Myrhorod
48.85,72.867,47.2,0.12,Zharyk
48.85,111.45,47.8,0.00,Tataal
48.917,106.067,52.6,0.00,Baruunharaa
48.933,89.933,44.0,0.00,Ulgi
48.967,24.4,48.6,0.29,Ivano-Frankivs'K
48.967,49.617,47.6,0.04,Novaja Kazanka
49.0,79.333,57.7,0.00,Karaul
49.0,131.083,38.6,0.00,Obluc'E
49.0,140.3,34.5,0.00,Sovetskaya Gavan
49.017,138.75,27.7,0.00,Solekul
49.05,12.1,42.2,0.31,Regensburg/Oberhub
49.05,51.867,44.6,0.04,Taipak
49.067,54.683,43.7,0.20,Uil
49.067,142.033,36.7,0.00,Uglegorsk
49.083,-125.767,51.4,0.00,Tofino
49.083,32.667,43.2,0.20,Chyhyryn
49.1,134.483,36.0,0.00,Ivankovtsi
49.133,46.85,46.9,0.00,El'Ton
49.15,23.033,42.8,0.59,Turka
49.15,57.117,47.2,0.31,Temir
49.183,37.3,46.5,0.04,Izium
49.183,85.617,50.0,0.00,Katon-Karagaj
49.2,77.367,52.8,0.00,Kajnar
49.2,84.517,50.0,0.00,Ulken Naryn
49.215,7.11,43.0,0.47,Saarbrucken
49.217,143.1,32.6,0.00,Poronajsk
49.233,28.6,47.9,0.83,Vinnytsia
49.25,29.233,44.0,0.12,Lipovec
49.25,59.55,50.2,0.00,Taldyk
49.283,38.917,44.0,0.04,Starobel'Sk
49.283,87.917,25.2,0.00,Argamji
49.283,135.183,41.0,0.00,Litovko
49.283,143.967,33.3,0.00,Vladi-Mirovo
49.383,40.167,42.0,2.95,Certkovo
49.383,75.517,49.3,0.01,Karkaralinsk
49.383,102.7,50.5,0.00,Hutag
49.4,8.65,45.3,0.00,Heidelberg Aaf
49.4,133.233,37.3,0.00,Urmi
49.417,130.083,38.5,0.00,Arhara
49.45,136.567,38.6,0.00,Troickoe
49.483,129.483,41.3,0.00,Astasiha
49.499,11.078,43.7,0.28,Nurnberg
49.55,134.733,38.0,0.00,Neran
49.567,42.75,42.3,0.08,Serafimovic
49.567,111.967,45.3,0.00,Kyra
49.6,34.55,44.2,0.18,Poltava
49.617,33.267,40.0,0.00,Veselyi Podil
49.617,128.65,43.1,0.00,Pojarkovo
49.633,37.7,39.2,0.04,Kupians'K
49.633,100.167,45.2,0.00,Muren
49.635,63.482,56.1,0.00,Torgai
49.65,140.083,32.2,0.00,Tumnin
49.667,31.0,45.4,0.71,Myronivka
49.671,73.334,49.5,0.16,Karaganda
49.733,86.55,23.5,0.12,Katun
49.733,117.267,41.6,0.00,Matsiyevskaya
49.75,6.667,42.7,0.28,Trier/Petrisberg
49.75,66.15,52.2,0.00,Senber
49.767,9.967,44.1,0.18,Wurzburg (Usa-Af)
49.8,92.083,45.7,0.00,Ulaangom
49.85,35.233,39.0,0.00,Kolomak
49.883,69.517,49.2,0.12,Berlik
49.9,115.75,41.4,0.00,Solov'Evsk
49.917,86.533,28.3,2.95,Ak-Kem
49.925,36.29,38.4,0.12,Osnova Intl
49.933,40.567,43.1,0.08,Bogucar
49.933,134.633,30.6,0.00,Kur
49.95,71.583,48.4,0.01,Kazgorodok
49.967,82.633,51.4,0.00,Ust-Kamenogorsk
49.967,136.067,37.0,0.00,Bolon
50.0,155.383,32.6,0.02,Cape Vasileva
50.017,88.683,35.4,0.00,Kosh-Agach
50.017,111.183,39.7,0.00,Grjazi
50.017,133.583,32.3,2.95,Verhovje Urmi
50.026,8.543,44.6,0.67,Frankfurt Main
50.05,8.325,44.5,0.00,Wiesbaden Aaf
50.05,142.167,33.4,0.00,Pil'Vo
50.067,45.367,43.1,0.00,Kamysin
50.067,132.133,37.1,0.00,Sutur
50.117,129.467,38.6,0.00,Zavitaja
50.133,65.233,52.0,0.00,Amangeldy
50.15,48.55,43.0,0.00,Aleksandrov-Gaj
50.183,130.15,36.0,0.00,Paykan-In-Amur
50.183,139.017,27.4,0.00,Sihote
50.217,38.1,41.6,0.04,Valujki
50.217,66.833,48.7,0.00,Arkalyk
50.246,57.207,43.3,0.31,Aktyubinsk / Aktobe
50.25,52.567,43.6,0.02,Dzhambejty
50.267,113.267,44.6,0.00,Aksa
50.283,127.483,38.7,0.00,Blagovescensk
50.289,11.855,38.4,0.83,Hof Plauen
50.333,83.55,48.2,0.00,Leninogorsk
50.333,119.067,40.0,0.00,Priargunsk
50.367,44.117,40.2,0.00,Danilovka
50.367,106.45,54.0,0.00,Kjahta
50.367,108.75,45.0,0.00,Krasnyj Chikoj
50.383,90.433,34.8,0.00,Mugur-Aksy
50.4,116.517,38.1,0.00,Borzya
50.4,143.767,27.1,0.00,Pogranichnoe
50.417,41.05,40.6,0.01,Kalac
50.417,80.3,53.9,0.00,Semipalatinsk
50.433,12.95,30.1,0.31,Fichtelberg Mtn
50.433,100.15,39.0,0.00,Hatgal
50.433,131.017,36.1,0.00,Sektagli
50.517,104.833,52.4,0.00,Torej
50.533,137.033,36.3,0.00,Komsomolsk-Na-Amure
50.6,97.517,39.6,0.08,Kungur-Tuk
50.633,10.15,38.8,0.91,Kaltennordheim(Aut)
50.633,36.583,38.1,0.08,Belgorod
50.633,81.917,52.0,0.00,Semonaiha
50.633,87.933,37.1,0.08,Ust-Ulagan
50.683,133.95,29.6,0.00,Irumka-In-Khabarov
50.7,29.583,38.8,0.31,Teteriv
50.733,102.833,50.2,0.00,Sanaga
50.733,140.433,31.5,0.00,Sizeman
50.75,86.133,43.3,0.16,Ongudaj
50.767,33.45,36.6,0.00,Romny
50.783,129.333,36.9,0.00,Bratoljubovka
50.8,42.0,39.6,0.12,Urjupinsk
50.8,75.7,50.5,0.00,Bajanaul
50.833,24.317,43.1,0.59,Volodymyr-Volyns'Kyi
50.833,44.567,40.5,0.06,Rudnya
50.85,34.667,37.3,0.12,Sumy
50.866,7.143,42.9,0.35,Koln Bonn
50.867,78.35,54.7,0.00,Semijarka
50.867,132.25,35.4,0.00,Cekunda
50.867,136.05,34.0,0.00,Verkhovye Gorina
50.867,156.683,31.5,0.00,Mys Lopatka
50.9,142.167,35.1,0.00,Aleksandrovsk-Sahalinskij
50.901,4.484,43.4,0.00,Brussels Natl
50.917,128.467,39.5,0.00,Belogorsk
50.933,138.2,33.9,0.00,Niznetambovskoe
50.95,84.917,39.8,0.00,Ust-Kan
51.0,39.5,43.2,0.02,Liski
51.017,90.217,43.7,0.00,Teli
51.017,93.717,36.0,0.98,Hovu-Aksy
51.022,71.467,51.4,0.04,Astana Intl
51.05,31.9,36.6,0.28,Nizhyn
51.1,106.65,51.0,0.00,Novoselenginsk
51.1,114.517,42.1,0.00,Aginskoe
51.1,143.55,29.0,0.00,Kongi
51.133,13.767,41.0,0.47,Dresden
51.133,137.417,33.5,0.00,Baktor
51.133,142.667,30.5,0.00,Ado-Tymovo
51.15,34.333,38.2,1.57,Belopol'E
51.15,82.2,51.9,0.00,Zmeinogorsk
51.151,51.543,42.0,0.00,Uralsk
51.167,14.95,41.3,0.43,Goerlitz
51.167,132.95,31.8,0.00,Cegdomyn
51.183,8.483,32.6,0.55,Kahler Asten(Mount)
51.2,136.8,35.4,0.00,Gorin
51.233,33.2,37.2,0.16,Konotop
51.267,67.233,48.2,0.00,Kazgorodok
51.283,26.617,39.5,0.04,Sarny
51.283,91.667,48.3,0.01,Cadan
51.3,9.45,41.2,0.43,Kassel
51.3,37.883,38.5,0.08,Staryj Oskol
51.317,28.783,37.0,0.35,Ovruch
51.317,108.867,40.5,0.00,Petrovskij Zavod
51.317,119.617,36.6,0.00,Nerchinskij Zavod
51.35,110.467,40.7,0.00,Hilok
51.35,112.467,42.0,0.00,Ulety
51.35,130.433,37.6,0.00,Verhnjaja Tom
51.35,139.1,34.1,0.00,Suhanovka
51.367,48.3,38.3,0.00,Ershov
51.4,6.967,41.1,0.53,Essen/Mulheim
51.4,12.417,40.5,0.39,Leipzig /Mockau
51.417,135.083,34.2,0.00,Hularin
51.433,86.0,47.3,0.12,Cemal
51.45,128.117,39.1,0.00,Svobodnyj
51.467,31.25,36.4,0.24,Chernihiv
51.483,40.417,43.2,0.00,Anna
51.483,95.583,43.9,0.20,Saryg-Sep
51.483,140.783,30.9,0.00,De-Kastri
51.483,156.483,32.4,0.00,Ozernaja
51.533,59.983,42.5,0.02,Adamovka
51.55,43.15,38.7,0.00,Balashov
51.565,46.047,39.4,0.00,Tsentralny
51.576,81.217,53.6,0.00,Rubcovsk
51.583,126.75,39.0,0.00,Kumara
51.617,69.8,52.4,0.00,Zhaltyr
51.633,73.167,53.6,0.00,Jermentau
51.633,128.817,38.5,0.00,Mazanovo
51.633,133.267,32.7,0.00,Ust'-Umal'Ta
51.65,103.667,43.6,0.00,Sljudjanka
51.667,82.733,52.1,0.00,Krasno-Scekovo
51.667,84.317,49.0,0.00,Solonesnoje
51.683,100.983,45.8,0.00,Mondy
51.7,75.367,55.2,0.00,Ekibastuz
51.717,94.5,48.5,0.00,Kyzyl
51.717,135.933,33.9,0.00,Duki
51.717,140.317,33.3,2.95,Mariinskoje
51.767,36.167,37.1,0.16,Kursk
51.767,87.6,42.5,0.08,Yajlju
51.783,28.333,36.2,2.95,Leloiov
51.783,158.033,31.3,0.04,Hodutka
51.796,55.457,40.2,0.08,Orenburg
51.8,10.617,27.5,0.59,Brocken (Peak)
51.808,107.438,48.6,0.00,Mukhino
51.814,39.23,38.1,0.00,Chertovitskoye
51.817,30.248,36.0,0.31,Bragin
51.817,68.367,50.0,0.04,Atbasar
51.833,41.483,41.8,0.00,Zerdevka
51.867,58.183,42.0,0.03,Ak'Jar
51.867,116.033,42.8,0.00,Shilka
51.883,-176.65,35.1,0.00,Adak Nas
51.883,66.333,50.9,0.00,Esil'
51.917,143.133,30.4,0.00,Nogliki
51.933,-131.017,48.4,0.00,Cape Saint James  &
51.967,7.6,40.8,0.26,Munster/Telgte
51.983,127.65,38.6,0.00,Simanovsk
52.0,70.95,50.5,0.00,Akkol'
52.017,80.367,54.6,0.00,Volciha
52.017,85.9,51.8,0.00,Majma
52.026,113.306,40.8,0.00,Kadala
52.036,29.167,34.7,0.16,Mozyr
52.05,92.167,45.6,0.00,Ust'-Usa
52.108,23.898,36.8,0.67,Brest
52.117,11.583,38.9,0.20,Magdeburg
52.117,26.117,34.9,0.75,Pinsk
52.133,1.433,42.9,0.00,Bentwaters Raf
52.15,93.917,41.4,0.00,Turan
52.167,109.783,45.7,0.00,Horinsk
52.167,139.067,28.9,0.00,Somnitelnij-Priisk
52.183,32.583,34.2,0.00,Semenovka
52.195,77.074,55.5,0.00,Pavlodar
52.217,27.867,35.7,0.35,Zhitckovichi
52.217,57.452,37.4,0.16,Zilair
52.217,141.633,29.5,0.00,Pogibi
52.233,117.7,39.0,0.00,Sretensk
52.25,79.183,54.5,0.08,Kljuci
52.25,87.117,45.5,0.12,Turocak
52.25,93.017,41.1,0.00,Nizhne-Usinskoe
52.267,127.217,38.3,0.00,Muhino
52.267,133.983,17.8,0.00,Sofijskij Priisk
52.268,104.389,52.7,0.00,Irkutsk
52.283,135.8,34.0,0.00,Veselaja Gorka
52.3,61.317,45.3,0.01,Zabelovka
52.317,36.3,35.3,0.08,Ponyri
52.35,129.917,36.1,0.00,Norsk
52.367,-0.217,46.4,0.00,Alconbury Raf     &
52.367,143.183,30.0,0.00,Cajvo
52.367,158.567,29.5,0.00,Cape Povorotniy
52.383,140.467,31.3,0.00,Bogorodskoe
52.417,136.5,33.5,0.00,Im Poliny Osipenko
52.433,37.6,38.2,0.00,Livny
52.45,130.867,31.6,0.00,Byssa
52.461,9.685,39.9,0.28,Hannover
52.467,64.667,50.3,0.00,Kusmurun
52.467,96.1,38.1,0.00,Toora-Hem
52.473,13.404,43.1,0.06,Tempelhof
52.483,80.167,54.1,0.00,Rodino
52.5,99.817,41.0,0.00,Orlik (Mtn Stn)
52.517,82.767,53.0,0.00,Alejskaja
52.517,141.2,29.3,2.95,Uarki
52.527,31.017,34.1,0.08,Gomel / Homiel
52.533,68.75,49.0,0.00,Balkasino
52.533,111.55,39.5,0.00,Sosnovo-Ozerskoe
52.567,129.067,33.8,0.00,Gar
52.583,33.767,35.1,0.12,Trubchevsk
52.633,38.517,35.7,0.00,Elec
52.65,115.167,39.2,0.00,Usugli
52.667,84.917,50.2,0.01,Bijsk Zonal'Naya
52.667,156.233,28.0,0.00,Oktiabr'Skaya
52.7,137.533,31.9,0.00,Guga
52.703,39.538,38.1,0.00,Lipetsk Arpt
52.75,26.483,32.0,0.00,Ganevici
52.75,120.033,30.1,0.02,Urjupino
52.767,32.283,34.5,0.08,Klincy
52.767,109.967,42.0,0.00,Zamakta
52.783,126.0,36.6,0.00,Chernjaevo
52.8,41.333,35.9,0.00,Tambov
52.8,89.917,46.5,0.00,Tastyp
52.8,93.233,33.3,0.31,Olen' Ya Rechka
52.817,52.217,36.3,0.00,Buzuluk
52.817,66.967,51.4,0.00,Ruzaevka
52.817,88.45,44.3,0.06,Ust-Kabirza
52.833,80.95,54.5,0.00,Zavyalovo-In-Altay
52.833,157.167,29.3,0.00,Apaca
52.867,87.283,42.3,0.00,Kondoma
52.883,40.483,37.0,0.00,Micurinsk
52.9,30.033,34.2,0.00,Zhlobin
52.9,138.867,29.0,0.00,Udinskoje
52.917,30.9,32.5,0.00,Cecersk
52.917,55.917,38.5,0.08,Meleuz
52.933,36.0,34.1,0.00,Orel
52.95,70.217,51.4,0.00,Sucinsk
52.967,78.65,54.5,0.04,Slavgorod
52.967,101.983,45.2,0.00,Inga
52.983,108.283,35.2,0.00,Gorjacinsk
53.0,128.65,33.3,0.00,Oktjabr'Skij Priisk
53.0,158.333,29.0,0.04,Jelizovo
53.033,11.8,40.9,0.26,Weisen B Wittenberge
53.033,27.55,33.4,0.24,Slutsk
53.048,8.787,40.9,0.10,Bremen
53.05,90.917,46.0,5.91,Beja
53.05,136.033,29.0,0.00,Burukan
53.067,82.3,52.9,0.16,Rebriha
53.067,117.483,36.0,0.00,Zilovo
53.067,132.933,25.5,0.00,Ekimcan
53.1,105.533,51.7,0.00,Bajandaj
53.1,119.217,36.9,2.95,Gorbica
53.1,160.033,31.8,0.08,Cape Shipunskiy
53.117,26.0,32.0,0.02,Baranovichi
53.117,157.75,26.1,0.04,Nachiki-In-Kamchat
53.133,45.017,36.3,0.00,Penza
53.133,94.467,40.0,0.05,Verhni Amil
53.133,133.967,19.3,0.00,Selemdza
53.15,140.7,29.1,0.00,Nikolaevsk-On-Amur
53.168,158.454,31.8,0.00,Yelizovo
53.17,24.45,33.5,0.00,Volkovysk
53.2,112.783,39.1,0.00,Romanovka
53.214,34.176,33.7,0.04,Bryansk
53.217,29.127,34.5,0.08,Bobruisk
53.217,63.617,48.1,0.04,Kostanay
53.25,141.917,28.6,0.00,Rybnovsk
53.267,80.767,54.1,0.00,Baevo
53.283,69.383,49.5,0.02,Kokshetay
53.283,89.167,37.3,0.12,Neozidannij Priisk
53.3,92.417,45.5,0.20,Ermakovskoe
53.317,65.55,49.5,5.91,Sarykol
53.317,68.1,51.0,0.02,Volodarskoe
53.333,87.167,48.9,0.00,Kuzedeevo
53.35,32.067,36.0,0.01,Kostuckovichi
53.35,59.083,40.7,0.12,Magnitogorsk
53.35,75.45,54.3,0.00,Ertis
53.35,130.017,32.0,0.00,Dugda
53.364,83.539,50.6,0.00,Barnaul / Mikhaylovka
53.367,7.217,40.5,0.02,Emden/Wolthusen
53.4,82.6,52.9,0.04,Selaboliha
53.45,28.133,34.7,0.00,Mariyna Gorka
53.45,36.883,35.2,0.00,Cern'
53.45,41.8,37.8,0.00,Morsansk
53.467,85.917,50.6,0.00,Togul
53.467,122.4,33.1,0.00,Ignasino
53.467,123.9,32.2,0.00,Dzalinda
53.467,125.817,32.3,0.00,Magdagaci
53.467,156.033,25.5,0.00,Kikhchik Kamchatka
53.483,42.633,35.7,0.00,Zametchino
53.5,29.333,33.2,0.12,Klichev
53.5,142.9,29.6,0.00,Oha
53.505,50.164,33.6,0.00,Kurumoch
53.517,132.917,25.9,0.00,Sevli
53.533,8.583,40.8,0.01,Bremerhaven
53.533,33.75,36.5,0.00,Zukovka
53.533,115.617,36.3,0.00,Tungokocen
53.567,139.65,30.2,0.00,Kulci
53.583,55.934,37.9,0.12,Sterlitamak
53.6,24.05,34.5,0.24,Grodno
53.6,25.85,31.0,0.24,Novogrudok
53.62,27.08,33.0,0.00,Stolbtsy
53.63,9.988,39.2,0.02,Hamburg
53.683,88.05,46.4,0.00,Mezdurecensk
53.7,127.3,35.4,0.00,Zeja
53.7,157.633,27.7,0.04,Ganali-In-Kamchat
53.717,90.367,48.1,0.00,Uybat
53.733,78.017,53.9,0.00,Karasuk
53.733,87.183,49.3,0.00,Novokuznetsk / Spichenkovo
53.75,14.067,41.0,0.00,Ueckermuende (Aut)
53.75,84.95,52.1,0.00,Sorokino
53.75,91.4,49.2,5.91,Abakan
53.75,119.733,33.0,0.00,Mogocha
53.783,39.25,33.7,0.00,Pavelets
53.783,73.883,53.7,0.00,Russkaja Poliana
53.817,81.267,53.1,0.08,Kamen'-Na-Obi
53.817,83.583,52.6,0.00,Talmenka
53.833,69.783,55.0,0.00,Krasnoarmejsk
53.85,136.867,30.5,0.00,Tugur
53.864,27.54,32.7,0.00,Minsk 1
53.883,92.667,49.3,0.00,Kuragino
53.902,25.317,32.7,0.16,Lida
53.933,32.833,34.4,0.00,Roslavl'
53.933,102.05,53.4,0.00,Zima
53.95,30.067,35.8,0.00,Mogilev
53.95,98.817,45.5,0.00,Hadama
53.967,79.233,54.0,0.00,Krasnoozersk
53.967,105.9,56.8,0.00,Kacug
53.967,121.933,31.0,0.00,Erofej Pavlovic
53.967,129.067,30.0,0.00,Ogoron
54.0,103.067,51.6,0.00,Balagansk
54.0,123.967,31.3,0.00,Skovorodino
54.033,108.267,35.8,0.00,Solnethnaya
54.083,43.25,36.2,0.00,Torbeevo
54.083,61.617,42.4,0.00,Troizk
54.083,124.767,30.0,0.00,Tigan-Urkan
54.1,35.35,34.0,0.00,Suhinichi
54.117,135.7,29.3,0.00,Torom
54.117,159.983,31.8,0.69,Semyachik
54.118,45.203,35.6,0.00,Saransk Airport
54.167,6.35,42.4,0.00,Ufs Tw/Ems (Aut)
54.167,74.8,54.3,0.00,Cerlak
54.167,103.017,48.2,0.00,Ust-Uda
54.167,158.0,31.9,0.08,Pushchino
54.183,12.083,38.3,0.20,Warnemuende
54.2,72.967,52.1,0.00,Odesskoe
54.2,111.95,32.6,0.00,Karaftit
54.217,96.967,38.0,0.00,Verhnjaja Gutara
54.233,37.617,31.4,0.00,Tula
54.25,-133.05,45.8,0.00,Langara
54.267,28.5,36.4,0.00,Borisov
54.283,139.783,29.0,0.00,Aleksandra
54.3,30.933,33.3,0.00,Gorki
54.3,83.314,52.0,0.02,Posevnaja
54.3,155.933,27.7,5.91,Sobolevo
54.333,80.467,51.3,0.08,Kochki
54.333,84.217,48.7,0.00,Masljanino
54.333,89.283,41.2,0.00,Kommunar
54.333,127.633,32.0,0.00,Dambuki
54.367,66.967,47.0,0.00,Blagoveshchenka
54.367,71.75,53.7,0.00,Poltavka
54.367,77.283,55.7,0.00,Kupino
54.367,81.883,51.1,0.04,Ordynskoe
54.367,92.133,45.0,0.01,Idrinskoe
54.367,93.433,44.9,0.00,Artemovsk
54.417,34.017,32.5,0.00,Spas-Demensk
54.417,142.717,27.6,0.02,Cape Yelizaveti
54.45,86.367,48.0,0.00,Belovo
54.467,64.867,46.4,0.00,Zverinogolovskoe
54.483,107.067,42.2,0.00,Tirka
54.483,113.583,36.0,0.00,Bagdarin
54.5,30.417,34.1,0.00,Orsha
54.5,89.933,46.4,0.00,Sira
54.5,134.417,30.7,0.00,Udskoe
54.533,9.55,39.0,0.02,Schleswig
54.55,36.367,33.4,0.00,Kaluga
54.558,55.874,38.2,0.02,Ufa
54.6,100.633,51.3,0.00,Tulun
54.617,39.717,33.7,0.00,Rjazan'
54.617,52.8,32.3,0.00,Bugul'Ma
54.617,161.2,34.9,0.75,Kronoki
54.633,43.233,33.7,0.01,Temnikov
54.633,72.433,52.7,0.00,Serbakul'
54.634,25.286,32.4,0.04,Vilnius Intl
54.667,81.05,53.5,0.01,Uzaniha
54.7,78.667,54.5,0.00,Zdvinsk
54.717,76.717,53.9,0.00,Cistoozernoje
54.717,128.867,29.0,0.00,Bomnak
54.717,135.317,31.1,0.00,Cumikan
54.717,158.717,36.9,5.91,Milkovo
54.733,130.45,23.2,0.00,Loksak
54.75,32.067,33.9,0.00,Smolensk
54.8,105.167,48.6,0.00,Zhigalovo
54.817,29.683,37.3,0.00,Senno
54.817,46.583,35.3,0.00,Alatyr'
54.833,38.15,32.5,2.95,Kasira
54.833,69.15,52.3,1.97,Petropavlovsk
54.833,137.533,27.5,0.00,Bol'Shoj Shantar
54.85,111.15,41.2,0.00,Tassa
54.883,23.833,37.1,0.02,Kaunas
54.883,27.75,35.2,0.01,Dokshitsy
54.883,28.7,35.0,0.00,Lepel
54.883,99.033,47.1,5.91,Nizne-Udinsk
54.89,20.593,40.3,0.00,Khrabrovo
54.9,71.25,52.3,0.00,Isil'Kul'
54.95,41.767,33.1,0.00,Elat'Ma
54.967,73.311,54.7,0.00,Omsk Tsentralny
55.0,15.083,37.5,0.00,Dueodde (Cape)
55.0,57.983,34.0,0.24,Kropacevo
55.0,86.8,50.6,0.00,Krapivino
55.013,82.651,51.7,0.00,Tolmachevo
55.017,82.233,51.3,0.00,Kocenevo
55.033,44.5,32.8,0.02,Lukojanov
55.033,74.583,53.4,0.00,Kalacinsk
55.033,126.8,30.1,0.00,Unaha
55.039,-131.579,48.3,0.00,Annette Island Airport
55.05,26.317,33.8,0.00,Lyntupy
55.083,90.85,43.3,0.00,Svetlolyubovo
55.083,93.367,42.5,0.00,Kolba
55.1,80.967,50.9,0.00,Culym
55.117,116.767,32.7,0.00,Kalakan
55.117,159.067,37.7,0.00,Dolinovka
55.127,30.35,35.1,0.00,Vitebsk / Viciebsk
55.167,34.4,33.1,0.00,Vjaz'Ma
55.183,53.8,35.9,0.12,Bakaly
55.183,124.667,26.0,0.00,Tynda
55.2,76.019,53.4,0.00,Tatarsk
55.2,165.983,35.0,0.02,Ostrov Beringa
55.217,87.65,45.7,0.00,Central'Nyj Rudnik
55.221,-162.733,32.1,0.00,Cold Bay Arpt
55.233,63.317,42.9,0.01,Sumiha
55.233,84.4,51.3,0.00,Toguchin
55.25,94.883,47.4,0.03,Aginskoe
55.27,86.107,48.9,0.00,Kemerovo / Alexey Leonov
55.3,76.75,52.2,0.00,Chany
55.3,79.617,53.1,0.00,Ubinskoe
55.3,82.75,51.8,0.00,Kolyvan'
55.3,89.817,43.6,0.00,Uzur
55.3,123.167,25.7,2.95,Ust-Urkima
55.306,61.503,40.0,0.12,Balandino
55.333,78.308,52.7,0.00,Barabinsk
55.367,27.467,41.5,0.00,Sharcovschina
55.367,43.783,31.7,0.01,Arzamas
55.383,101.033,46.5,0.00,Tanguj
55.417,55.533,35.1,0.20,Birsk
55.45,69.317,50.7,0.00,Ilinskoye-In-Tyumen
55.467,28.767,36.6,0.00,Polotsk
55.467,65.4,47.5,0.03,Kurgan
55.467,113.617,32.4,0.01,Uakit
55.483,134.333,26.3,0.00,Jana
55.517,36.0,36.0,0.00,Mozajsk
55.533,45.5,32.5,0.00,Sergac
55.567,71.367,52.9,0.00,Nazyvoevsk
55.583,155.583,31.0,0.00,Ica
55.6,40.65,31.5,0.00,Gus'-Hrustal'Nyj
55.6,73.483,50.6,0.00,Sargatskoe
55.606,49.279,34.6,0.00,Kazan
55.618,12.656,37.0,0.02,Kastrup
55.633,95.467,46.4,0.05,Irbejskoe
55.65,136.75,29.9,0.00,Cape Ukoy
55.667,84.4,49.1,0.00,Bolotnoe
55.7,57.9,33.7,0.12,Duvan
55.717,86.3,47.0,0.00,Barzas
55.717,93.75,44.8,0.01,Shalinskoe
55.733,21.083,40.4,0.00,Klaipeda
55.75,88.317,46.4,0.00,Tisul'
55.767,52.067,34.1,0.04,Elabuga
55.783,90.133,46.1,0.00,Krutoyarskiy
55.783,109.55,37.9,0.00,Nizhneangarsk
55.817,27.95,34.3,0.00,Verhnedvinsk
55.817,94.3,50.2,0.00,Ujar
55.833,37.617,34.0,0.00,Moskva Vdnh (Dolgoprudnyj)
55.85,32.95,35.5,0.00,Belyj
55.85,80.033,49.5,0.00,Kreschenka
55.867,26.617,34.5,0.00,Daugavpils
55.867,72.2,52.3,0.00,Tjukalinsk
55.933,23.317,36.7,0.00,Siauliai
55.933,158.667,35.1,0.02,Esso
55.95,98.0,49.2,0.02,Tajshet
55.967,124.883,19.9,0.02,Nagornyj
55.983,82.7,48.5,0.00,Pihtovka
55.983,159.983,36.1,0.00,Kozyrevsk
56.0,92.883,46.3,0.00,Krasnojarsk
56.017,35.933,32.0,0.00,Volokolamsk
56.05,105.833,46.8,0.00,Orlinga
56.067,63.65,42.9,0.00,Sadrinsk
56.067,85.617,45.4,0.00,Tajga
56.083,47.333,33.5,0.00,Ceboksary
56.083,60.3,34.9,0.12,Verhnij Ufalej
56.1,27.55,33.9,0.00,Dagda
56.1,69.433,47.3,0.00,Ishim
56.1,74.633,50.0,0.00,Bol'Sherech'E
56.1,91.667,45.9,0.00,Kemchug
56.117,40.35,31.4,0.00,Vladimir
56.117,86.0,47.3,0.00,Anzero-Sudzensk
56.117,97.317,47.0,0.08,Klyuchi-In-Krasnoy
56.15,21.167,37.3,0.00,Rucava
56.167,163.317,32.0,0.00,Cape Afrika
56.183,87.683,47.1,0.00,Mariinsk
56.2,95.633,46.1,0.00,Kansk
56.217,43.817,30.5,0.20,Gor'Kij
56.217,89.55,45.8,0.00,Bogotol
56.217,162.717,34.0,0.02,Ust'-Kamchatsk
56.233,51.033,34.6,0.04,Vjatskie Poljany
56.25,84.0,48.6,0.00,Kozevnikovo
56.267,32.083,36.5,0.00,Zapadnaja Dvina
56.267,34.317,32.6,0.00,Rzev
56.283,54.967,35.0,2.95,Janaul
56.283,90.517,44.7,0.02,Achinsk
56.283,131.133,9.2,0.00,Toko
56.317,28.9,34.1,0.00,Idrica
56.317,107.617,44.4,0.00,Kazachinsk
56.317,160.833,35.2,0.00,Kljuchi
56.333,46.583,35.5,0.00,Koz'Modem'Jansk
56.35,30.62,34.5,0.00,Velikie Luki
56.35,78.35,49.3,0.00,Severnoe
56.371,101.698,40.7,0.04,Bratsk
56.383,75.25,49.5,0.00,Muromcevo
56.4,24.217,35.7,0.00,Bauska
56.4,38.75,30.7,0.00,Aleksandrov
56.45,73.65,51.1,0.00,Kolosovka
56.45,138.15,28.5,0.01,Ayan
56.467,22.833,35.5,0.00,Auce
56.483,67.3,45.4,0.24,Vagaj
56.5,56.133,34.7,0.16,Cernuska
56.5,84.917,47.6,0.00,Tomsk
56.5,93.283,47.0,0.00,Suhobuzimskoe
56.518,21.097,38.4,0.00,Liepaja Intl
56.533,27.267,35.2,0.00,Rezekne
56.533,89.317,47.4,0.00,Tjuhtet
56.6,76.567,49.7,0.00,Kystovka
56.633,47.767,34.5,0.00,Joshkar-Ola
56.65,23.733,39.4,0.00,Jelgava
56.65,25.133,36.8,0.00,Skriveri
56.65,57.783,35.7,0.12,Krasnoufimsk
56.65,136.35,18.1,0.08,Batomga
56.683,22.5,33.0,0.00,Saldus
56.683,66.35,44.1,0.09,Jalturovosk
56.733,21.733,37.7,0.00,Kazdanga
56.743,60.803,34.7,0.00,Koltsovo
56.767,96.8,46.1,1.98,Dolgiy Most
56.817,70.617,48.5,0.00,Vikulovo
56.833,53.45,33.0,0.10,Izhevsk
56.833,124.867,20.4,0.01,Culman/Neriugri
56.85,62.717,39.0,0.17,Kamyslov
56.85,95.217,44.4,0.00,Dzerzhinskoe
56.867,105.7,43.3,0.01,Ust'-Kut
56.883,21.183,36.5,0.00,Pavilosta
56.883,35.867,33.4,0.00,Tver'
56.9,74.383,48.0,0.02,Tara
56.9,93.133,46.2,0.00,Bol'Shaja Murta
56.9,118.267,28.9,0.00,Chara
56.917,23.967,38.6,0.00,Riga
56.933,72.667,48.6,0.00,Bol'Sie Uki
56.95,40.967,31.6,0.00,Ivanovo
56.95,75.3,52.0,0.04,Sedelnikovo
56.967,90.683,42.8,0.00,Novobirilyussy
57.0,82.067,45.6,0.02,Bakchar
57.017,28.9,36.9,0.00,Puskinskie Gory
57.067,86.217,46.6,0.00,Pervomajskoe
57.083,54.75,35.0,0.10,Nozovka
57.083,156.7,32.7,0.01,Ust'- Hajrjuzovo
57.1,27.983,35.5,0.00,Pytalovo
57.117,65.433,40.9,0.02,Tyumen'
57.133,26.717,34.1,0.00,Gulbene
57.133,33.117,31.5,0.00,Ostaskov
57.133,45.167,33.5,0.00,Krasnye Baki
57.15,31.183,34.2,0.00,Holm
57.155,-170.222,21.9,0.00,St Paul Island Airport
57.167,22.5,38.4,0.00,Stende
57.167,156.6,32.2,0.00,Ptichiy Island
57.183,22.55,37.4,0.00,Stende
57.183,103.25,46.0,0.00,Nizhne-Ilimsk
57.2,39.417,32.1,0.00,Rostov
57.217,94.917,43.1,5.91,Taseyevo          &
57.283,55.433,33.1,0.35,Osa
57.317,24.417,33.8,0.00,Skulte
57.317,25.333,36.6,0.00,Priekuli
57.333,43.117,32.5,0.00,Jur'Evec
57.35,23.117,37.9,0.00,Mersrags
57.35,58.217,34.1,0.24,Samary
57.367,74.75,47.6,0.00,Vasiss-In-Om
57.367,89.317,42.3,0.00,Chindat-In-Krasnoy
57.417,67.083,39.0,0.16,Jarkovo
57.433,27.033,35.2,0.00,Aluksne
57.45,88.467,39.1,0.02,Tutalo-Culym River
57.517,72.4,46.7,0.02,Tevriz
57.533,79.431,45.7,0.00,Pudino
57.55,34.567,32.0,2.95,Vysnij Volocek
57.55,49.95,33.0,0.04,Nolinsk
57.583,83.783,40.6,0.02,Molchanovo
57.633,39.75,28.4,0.00,Jaroslavl'
57.633,92.267,40.3,0.00,Pirovskoe
57.65,99.533,44.2,0.00,Chervyanka
57.65,136.15,21.0,0.08,Nel' Kan
57.65,163.233,32.2,0.01,Ozernoy (Mys)
57.667,46.633,31.9,0.00,Sakun'Ja
57.683,71.183,45.3,0.04,Ust'-Isim
57.717,55.383,34.0,0.35,Ohansk
57.733,40.783,31.8,0.00,Kostroma
57.75,22.6,36.7,0.00,Kolka
57.751,-152.486,40.6,0.00,Kodiak Airport
57.767,108.067,48.2,0.00,Kirensk
57.767,130.9,20.9,0.00,Cjul'Bju
57.767,140.183,29.3,0.51,Enkan
57.783,26.033,33.6,0.00,Valga
57.784,28.396,35.1,0.00,Pskov
57.8,36.7,32.9,0.00,Bezeck
57.8,77.217,43.2,0.00,Majsk
57.8,158.667,36.2,0.04,Tigil
57.85,27.017,37.3,0.00,Voru
57.85,97.4,42.4,0.02,Gonda
57.85,114.2,38.3,0.00,Bodajbo
57.867,24.367,37.0,0.00,Ainazi
57.883,60.067,33.0,0.29,Nizhnyj Tagil
57.9,34.03,32.1,0.00,Bologoe
57.915,56.021,32.3,0.24,Bolshoe Savino
57.917,22.05,36.7,0.00,Sorve
57.917,69.033,43.6,0.08,Vagay River
58.017,31.317,34.7,0.00,Staraya Russa
58.05,63.683,34.1,0.43,Turinsk
58.083,54.683,33.4,0.01,Verescagino
58.083,93.0,42.4,0.01,Strelka
58.1,23.967,39.6,0.00,Kihnu
58.1,38.683,31.4,0.00,Rybinsk
58.1,49.917,31.0,0.00,Kumeny
58.133,52.583,32.8,0.02,Glazov
58.133,80.583,42.0,0.00,Starica
58.183,94.75,39.7,5.91,Motygino
58.2,102.75,46.2,0.00,Ust-Ilimsk
58.233,22.5,35.5,0.00,Kuressaare-Roomassaare
58.233,105.733,44.5,0.00,Tokma
58.3,47.117,29.8,0.00,Sabalino
58.307,26.69,32.6,0.00,Tartu
58.317,82.95,36.7,0.04,Kolpasevo
58.35,43.383,32.0,0.00,Nikolo-Poloma
58.357,-134.564,40.2,0.00,Juneau Municipal Arpt
58.367,25.6,34.0,0.00,Viljandi
58.367,45.533,31.0,0.00,Sar'Ja
58.383,21.817,36.8,0.00,Vilsandi
58.383,84.6,37.3,0.00,Palocka
58.383,97.45,43.9,5.91,Bogucany
58.417,24.467,35.3,3.94,Pjarnu-Sauga
58.417,116.017,36.8,0.00,Svetly
58.45,89.467,41.0,0.00,Losinoborskoe
58.45,92.15,41.0,0.00,Jenisejsk
58.483,41.533,31.8,0.00,Buj
58.5,159.167,35.6,0.00,Ust'-Voyampolka
58.55,109.767,45.0,0.00,Ichera
58.567,23.517,35.7,0.00,Virtsu
58.567,29.8,32.9,0.00,Nikolaevskoe
58.567,35.633,31.4,0.00,Ohony
58.583,76.517,43.7,0.00,Novyj Vasyugan
58.617,125.367,20.9,0.08,Aldan
58.633,86.733,34.7,0.01,Stepanovka
58.633,98.733,47.0,0.00,Klimino-In-Krasnoy
58.633,128.5,26.0,0.00,Ugino
58.65,-162.067,34.5,0.04,Cape Newenham Afs
58.65,49.617,30.5,0.00,Kirov
58.683,-156.656,39.0,0.00,King Salmon Airport
58.683,32.7,31.5,0.00,Vereb'Ye
58.7,81.5,38.1,0.00,Parabel'
58.733,27.833,33.2,0.00,Gdov
58.817,141.85,29.8,0.31,Ul' Ya
58.867,23.05,36.1,0.00,Heltermaa
58.867,60.783,32.0,0.31,Verhotur'E
58.9,34.533,30.7,0.00,Hvojnaja
58.917,22.067,34.4,0.00,Ristna
58.95,23.817,34.3,2.76,Laane-Nigula
58.967,24.733,33.0,0.00,Kuusiku
58.967,101.083,41.3,0.04,Kezma
58.967,126.267,13.2,0.00,Tommot
58.983,54.65,33.2,0.00,Kudymkar
58.991,22.831,35.0,0.00,Kardla
59.0,150.467,28.0,0.00,Zavyalova Island
59.017,121.767,30.4,0.00,Dzhikimda
59.033,57.567,31.2,0.16,Kizel
59.05,80.833,34.8,0.00,Kargasok
59.067,76.733,38.7,0.02,Katylga
59.1,153.333,30.8,0.00,Brat' Ev (Mys)
59.117,159.967,35.9,0.00,Palana
59.133,26.233,30.2,0.28,Valke-Maarja
59.15,68.917,36.7,0.16,Uvat
59.15,149.033,29.7,0.10,Spafar' Eva (Ostrov)
59.183,135.15,20.9,0.04,Ust'-Judoma
59.183,146.333,29.3,0.04,Uski
59.2,90.9,43.5,0.00,Makovskoye
59.217,78.233,40.0,0.00,Sredny Vasjugan
59.233,39.867,31.3,0.00,Vologda
59.25,73.967,37.7,0.01,Taylakovy
59.25,108.233,47.2,0.00,Nepa
59.25,163.033,32.5,0.02,Ossora
59.267,38.017,29.9,0.01,Cherepovec
59.283,106.167,42.4,0.00,Ika
59.333,27.383,31.5,0.00,Johvi
59.35,31.233,31.3,0.02,Ljuban'
59.35,52.25,29.5,0.00,Kirs
59.367,28.6,31.3,0.00,Kingisepp
59.367,143.2,30.1,0.43,Ohotsk
59.383,24.033,32.6,0.00,Pakri
59.383,82.833,34.3,0.00,Berezovka
59.389,28.117,32.0,0.00,Narva-Joesuu
59.4,35.9,30.0,0.01,Babaevo
59.413,24.833,31.3,0.00,Lennart Meri Tallinn
59.433,62.333,31.7,0.12,Gari
59.45,112.583,40.2,0.00,Vitim
59.483,150.5,33.6,0.02,Nagajeva Bay
59.5,90.928,37.6,0.00,Nazimovo
59.5,144.8,30.0,0.31,Inja
59.512,-139.671,36.8,0.00,Yakutat State Ap
59.517,26.55,30.2,0.00,Kunda
59.533,45.467,26.0,0.00,Nikol'Sk
59.533,70.417,35.2,0.04,Limkoyevskiye
59.6,60.533,29.4,0.28,Serov
59.6,69.283,35.4,0.12,Dem'Janskoe
59.617,65.717,33.3,0.39,Leusi
59.617,151.333,32.9,0.08,Ola
59.633,133.033,23.8,0.00,Ust'-Mil'
59.642,-151.491,39.2,0.00,Homer Municipal Arpt
59.65,33.55,29.3,0.00,Tihvin
59.65,154.267,28.6,0.14,Brohovo
59.667,67.417,34.2,0.18,Kondinskoje
59.667,127.05,16.4,0.00,Bujaga
59.717,93.433,28.1,0.04,Chirimba-In-Krasnoy
59.717,150.2,30.9,0.09,Arman
59.75,103.3,38.7,0.12,Cemdalsk
59.8,30.263,29.7,0.00,Pulkovo
59.8,148.833,32.5,0.43,Talon
59.85,48.283,25.1,0.01,Oparino
59.85,81.95,32.9,0.00,Napas
59.911,150.72,31.3,0.03,Sokol
59.917,150.717,34.4,0.00,Magadan Nw
59.967,42.767,24.8,0.00,Totma
59.967,144.783,30.6,0.75,Hejdzhan
60.017,37.75,26.0,0.00,Belozersk
60.05,108.083,44.8,0.00,Preobrazhenka
60.083,142.333,30.2,0.43,Arka
60.1,151.0,30.6,0.09,Palatka
60.167,-132.733,6.8,0.00,Teslin (Aut)  Yt
60.233,-146.65,35.0,0.00,Cape Hinchinbrook
60.25,90.233,31.2,0.01,Jarcevo
60.267,111.733,45.0,0.00,Komaka
60.283,54.35,29.0,0.00,Gajny
60.317,64.217,30.4,0.16,Saim
60.333,51.55,27.6,0.02,Kazim
60.333,68.967,29.7,0.31,Altay
60.333,102.267,40.0,0.16,Vanavara
60.35,84.083,30.7,0.02,Vanzil'-Kynak
60.35,88.367,34.2,0.08,Sym
60.367,93.033,27.9,0.02,Severo-Enisejsk
60.383,134.45,23.8,0.00,Ust'-Majya
60.4,56.517,27.5,0.00,Cherdyn'
60.4,63.133,31.0,0.33,Santal
60.4,120.417,27.3,0.00,Olekminsk
60.433,77.867,31.3,0.02,Aleksandrovskoe
60.433,169.667,30.0,0.04,Apuka
60.467,40.2,23.5,0.00,Vozega
60.467,130.0,16.3,0.00,Tegyultya
60.517,127.917,17.4,0.00,Dobrolet-In-Yakut
60.55,171.083,31.0,0.01,Topata-Olyutorskaya
60.6,124.033,20.2,0.00,Sani-Yakhtat
60.6,150.7,31.1,0.10,Madaun
60.633,34.783,24.2,0.02,Vinnicy
60.683,60.45,27.5,0.12,Ivdel'
60.683,160.4,34.9,0.00,Tajgonos
60.717,28.733,28.0,0.06,Vyborg
60.717,97.517,34.9,0.00,Ust'-Kamo
60.717,114.883,36.4,0.00,Lensk
60.717,142.783,31.8,0.09,Uega
60.717,155.883,32.0,0.00,Shelihova
60.733,163.017,32.2,0.00,Chemurnaut
60.785,-161.829,36.8,0.00,Bethel Airport
60.817,125.317,18.3,0.00,Isit'
60.85,151.767,26.6,0.03,Atka
60.867,64.9,25.7,0.24,Supra
60.9,131.983,19.8,0.00,Amga
60.949,76.484,29.0,0.00,Nizhnevartovsk
60.95,78.617,27.3,0.04,Lobchinskiye
60.983,32.983,24.3,0.09,Olonec
61.017,36.45,24.8,0.00,Vytegra
61.017,93.433,28.9,2.95,Vel'Mo
61.028,69.086,25.0,0.16,Khanty Mansiysk
61.033,89.633,32.2,0.04,Vorogovo
61.05,68.633,26.9,0.47,Became Stn 238281
61.083,42.067,25.3,0.01,Vel'Sk
61.1,-155.567,37.6,0.00,Sparrevohn Afs
61.1,80.25,27.1,0.00,Lar' Yak
61.117,149.633,32.1,0.01,Ust' Omchug
61.13,-146.352,37.1,0.00,Valdez Wso
61.133,152.383,30.1,0.00,Talata
61.169,-150.028,37.8,0.00,Anchorage Intl Ap
61.233,46.717,21.1,0.01,Kotlas
61.233,172.383,27.4,0.00,Vatyna
61.267,108.017,43.0,0.01,Erbogacen
61.3,71.3,24.9,0.01,Sytomino
61.333,100.483,40.5,0.01,Mutoraj
61.344,73.402,23.1,0.08,Surgut
61.35,166.0,32.0,0.00,Korf
61.483,129.15,16.5,0.00,Pokrovsk
61.5,38.933,21.0,0.01,Kargopol'
61.533,82.417,24.0,0.01,Korliki
61.533,156.7,35.1,0.00,Pestraya Dresva
61.6,90.017,29.4,0.08,Bor
61.617,114.617,35.2,0.00,Dorozhnyj
61.647,50.845,22.6,0.00,Syktyvkar
61.667,40.183,17.4,0.04,Njandoma
61.667,96.367,28.6,0.00,Bajkit
61.683,53.683,23.8,0.00,Ust'-Kulom
61.7,70.667,25.4,0.28,Gorskova
61.717,30.717,25.7,0.04,Sortavala
61.733,102.817,41.8,0.06,Strelka Chunya
61.783,-166.033,21.2,0.00,Cape Romanzoff Afs
61.8,36.583,22.8,0.00,Pudoz
61.8,74.083,25.6,0.08,Yermakovo
61.817,34.267,21.7,0.08,Petrozavodsk
61.867,135.5,22.4,0.00,Ohotskijperevoz
61.883,147.35,31.9,0.08,Kulu
61.883,152.4,33.1,0.00,Strelka-In-Magadan
61.917,124.55,14.8,0.00,Tongulah
61.917,158.983,35.7,0.00,Najahan
61.95,64.9,22.5,0.30,Vonegan
61.95,160.417,9.3,0.00,Chaybukha
61.967,94.667,25.2,0.03,Poligus
62.017,129.717,14.6,0.00,Jakutsk
62.033,132.6,19.8,0.00,Curapca
62.05,66.4,23.4,0.37,Mys Sosnoviy
62.05,160.5,36.9,0.00,Giziga
62.05,175.283,27.1,0.00,Hatyrka
62.1,42.9,20.0,0.04,Shenkursk
62.117,149.517,29.9,0.18,Jek-London (Lake)
62.15,117.65,30.4,0.00,Suntar
62.159,-145.459,38.0,0.00,Gulkana Airport
62.167,49.117,21.7,0.03,Jarensk
62.233,45.017,17.6,0.10,Verhnjaja Tojma
62.283,119.85,26.0,0.00,Chaingda
62.317,92.117,26.0,0.16,Kuz' Movka
62.32,-150.095,40.3,0.00,Talkeetna State Arpt
62.417,179.133,19.6,0.01,Buhta Gavriila
62.433,60.867,22.6,0.00,Njaksimvol'
62.433,166.083,34.8,0.00,Kamenskoe
62.45,66.05,22.6,0.29,Oktjabr'Skoe
62.45,152.317,40.2,0.00,Srednikan
62.467,89.017,24.0,0.04,Bahta
62.483,86.283,23.9,0.04,Kellog
62.517,155.8,33.9,0.00,Omsukchan
62.533,149.633,34.7,0.08,Yagodnoye
62.7,56.2,17.9,0.00,Troicko-Pecherskoe
62.717,101.117,31.7,0.12,Kerbo
62.717,150.017,31.0,0.00,Khatinnakh
62.783,148.167,29.9,0.00,Susuman
62.8,150.667,38.3,0.00,El' Gen (Sovhoz)
62.817,42.783,18.3,0.00,Dvinskij Bereznik
62.883,-155.967,41.0,0.00,Tatalina Lrrs
62.883,108.433,38.6,0.04,Nakanno
62.917,34.433,19.4,0.00,Medvezegorsk
62.917,152.417,38.0,0.00,Sejmchan
62.957,-155.61,40.8,0.00,Mcgrath Arpt
62.983,50.9,10.1,0.08,Vesljana
63.017,179.283,19.7,0.00,Beringovskaja
63.033,112.483,32.8,0.00,Chernishevskij
63.067,40.35,13.6,0.00,Emca
63.15,87.95,18.5,0.04,Verhneimbatsk
63.15,146.967,32.6,0.08,Arkagala
63.2,64.483,23.3,0.12,Igrim
63.2,167.85,35.4,0.00,Slautnoe
63.217,113.633,23.5,0.04,Syuldyukar
63.217,139.6,17.2,0.01,Vostochnaya
63.25,143.15,25.4,0.02,Ojmjakon
63.283,118.333,24.4,0.00,Njurba
63.3,158.5,30.5,0.00,Labaznaya
63.317,132.017,19.4,0.00,Verhojansk Perevoz
63.331,-149.127,32.5,0.00,Summit Airport
63.383,78.317,13.2,0.01,Halesovaya
63.4,151.317,30.3,0.00,Kanon-In-Magadan
63.417,172.717,24.7,0.00,Berezovo
63.45,48.9,12.0,0.00,Koslan
63.5,71.333,15.8,0.20,Numto
63.517,129.483,12.5,0.00,Batamaj
63.55,53.817,9.0,0.20,Uhta
63.583,45.633,10.6,0.02,Sura
63.583,103.967,37.0,0.04,Kislokan
63.65,62.1,21.6,0.00,Sosva
63.667,69.6,19.0,0.08,Yuil' Sk
63.717,66.7,20.4,0.12,Kislor West
63.767,34.283,19.1,0.00,Segeza
63.767,121.617,17.3,0.00,Viljujsk
63.833,30.817,16.1,0.04,Reboly
63.833,96.65,24.2,0.10,Ucami
63.833,145.6,31.8,0.24,Delyankir
63.883,-160.8,34.9,0.00,Unalakleet Field
63.9,38.117,16.4,0.00,Onega
63.933,65.05,23.4,0.04,Berezovo
63.95,135.867,19.5,0.02,Tompo
63.967,-22.6,43.8,0.00,Keflavik Naval Air Station
63.967,127.467,13.8,0.00,Sangary
63.983,82.083,14.0,0.00,Tol'Ka
63.994,-145.721,44.7,0.00,Allen Army Airfield
64.0,154.167,33.9,0.00,Balygycan River
64.0,158.917,31.0,0.00,Kedon
64.1,161.033,32.8,0.00,Krestik
64.167,148.033,24.0,0.05,Darpir
64.183,176.417,20.4,0.00,Yarangi-In-Chukot
64.2,93.783,14.2,0.08,Tutonchany
64.217,164.233,33.2,0.00,Verhnee Penzino
64.233,87.567,12.3,0.12,Vereshchagino
64.233,116.917,21.2,0.00,Chumpuruk
64.267,100.233,29.0,0.20,Tura
64.283,126.45,15.0,0.00,Sogo-Haya
64.378,-173.243,15.5,0.00,Provideniya Bay
64.511,-165.44,32.2,0.00,Nome Municipal Arpt
64.55,144.4,28.1,0.00,Nera
64.567,34.917,19.6,2.95,Raznavolok
64.6,40.717,16.4,0.00,Talagi
64.683,170.417,20.7,0.00,Markovo
64.7,43.383,9.4,0.00,Pinega
64.733,-156.933,36.9,0.00,Galena A.
64.735,177.741,18.3,0.00,Ugolny
64.75,47.65,0.9,0.00,Kojnas
64.75,153.967,24.7,0.00,Korkodon
64.804,-147.876,42.3,0.00,Fairbanks International
64.867,174.417,18.4,0.00,Tanyurer
64.9,45.767,7.3,0.00,Lesukonskoe
64.917,77.817,7.3,0.00,Tarko-Sale
64.933,98.867,26.7,0.14,Tembenchi
64.95,34.65,19.4,0.00,Kem'
65.0,130.683,9.6,0.00,Syuryun-Kyuyel'
65.133,57.133,2.7,0.01,Pechora
65.167,87.917,16.6,0.51,Sukhaya Tunguska
65.183,176.767,17.7,0.04,Kanchalan
65.2,36.817,18.5,0.00,Zizgin
65.217,31.167,18.3,0.00,Kalevala
65.233,49.583,-2.5,0.00,Barkovskaja
65.233,160.533,32.8,0.00,Omolon
65.267,168.667,24.5,0.00,Erepol
65.3,127.117,10.0,0.00,Bestyahskaya Zveroferma
65.3,135.8,11.8,0.02,Iema
65.433,52.267,-1.8,0.00,Ust'-Cil'Ma
65.467,72.667,19.0,0.00,Nadym
65.483,64.717,11.6,0.01,Muzhi
65.483,173.3,20.7,0.21,Ust Belaya
65.55,-171.033,9.6,0.00,Lavrentija
65.567,-167.917,7.3,0.00,Tin City Afs
65.633,59.15,-2.0,0.09,Kosju River
65.633,90.017,8.9,0.12,Bolsoj Porog
65.7,82.45,12.6,0.00,Krasnosel' Kupsk
65.733,150.9,21.4,0.05,Zyryanka
65.783,-169.083,11.3,0.00,Ratmanova Island
65.783,87.989,7.6,0.04,Turuhansk
65.833,65.933,18.4,0.00,Pitlyar
65.867,44.217,6.0,0.00,Mezen'
65.883,31.833,19.2,0.00,Kesten'Ga
65.9,34.767,16.1,0.00,Gridino
65.967,56.917,-2.7,0.00,Ust'-Usa
65.983,84.328,6.8,0.00,Yanov-Stan
66.0,-153.7,41.8,0.00,Indian Mountain Afs
66.1,37.817,15.0,0.00,Chavanga (Stream)
66.15,-169.833,3.0,0.00,Mys Uelen
66.183,39.533,12.6,0.00,Pjalica
66.25,52.55,0.3,5.91,Okunev Nos
66.25,114.283,17.7,0.01,Shelagontsy
66.267,67.867,5.2,0.04,Poluy
66.333,36.017,19.6,0.00,Kashkarantsy
66.35,-179.117,16.9,0.00,Egvekinot
66.383,173.333,19.4,0.01,En' Muveem
66.417,87.2,6.6,0.02,Kurejka River
66.45,143.233,18.0,0.00,Ust'-Moma
66.5,149.783,21.3,0.00,Arga
66.533,66.667,8.9,0.00,Salehard
66.533,164.283,31.7,0.00,Baimka
66.54,-151.31,37.6,0.00,Bettles Field
66.55,159.417,31.3,0.00,Ust'-Oloj
66.6,82.5,3.2,0.00,Sidorovsk
66.633,72.933,13.3,0.00,Nyda
66.683,34.35,19.6,0.00,Umba
66.7,32.883,20.8,0.00,Kovda
66.767,123.4,9.2,0.00,Zhigansk
66.8,68.883,14.8,0.01,Jambur
66.833,-174.5,12.1,0.00,Koljucinskaja Bay
66.833,70.833,14.0,0.00,Jar-Sale
66.867,-162.633,12.5,0.00,Kotzebue Ralph Wein Memorial
66.883,93.467,9.4,0.00,Agata
66.9,65.667,5.7,0.16,Ra-Iz
66.933,-171.833,8.5,0.00,Enurmino
66.95,30.3,20.0,0.00,Alakurtti
67.033,-178.917,13.6,0.00,Amgujema
67.033,59.4,-15.1,0.00,Hoseda-Hard
67.117,34.083,20.7,0.00,Kanozero (Lake)
67.133,39.667,15.2,0.01,Kanevka
67.133,108.533,17.8,0.04,Yarol'In
67.15,32.35,21.4,0.03,Kandalaksha
67.15,43.9,2.4,0.01,Mys Konusin
67.217,41.333,13.0,0.00,Tersko-Orlovskaja
67.25,167.967,17.9,0.00,Ilirnej
67.35,37.05,12.7,0.00,Krasnoscel'E
67.383,137.217,17.5,0.00,Maliy Tuostakh
67.45,153.717,20.8,0.00,Crednekolymsk
67.467,78.733,3.0,0.00,Tazovskij
67.467,86.567,-0.4,0.00,Igarka
67.483,64.017,-4.4,0.04,Vorkuta
67.567,30.4,18.4,0.03,Kovdor
67.567,33.367,20.3,0.00,Apatity
67.567,133.4,14.6,0.00,Verhojansk
67.6,31.167,20.4,0.00,Ena
67.633,53.033,-12.4,0.02,Nar'Jan-Mar
67.683,48.683,-2.1,0.00,Indiga
67.683,72.883,9.9,0.00,Novyj Port
67.7,37.117,12.1,0.01,Kolmyabr
67.8,46.667,2.2,0.00,Mys Mikulkin
67.833,-175.833,12.0,0.00,Mys Vankarem
67.867,-178.75,22.7,0.00,Iultin-In-Chukot
67.883,44.15,0.6,0.00,Shojna
67.933,32.917,18.2,0.02,Monchegorsk
67.983,39.817,19.5,0.31,Kachalovka
68.0,35.033,17.9,0.00,Lovozero
68.117,164.167,31.9,0.00,Ostrovnoe
68.15,39.767,21.5,0.06,Svyatoj Nos
68.233,145.3,17.5,0.01,Druzina
68.35,30.733,20.7,0.00,Nivankyul
68.35,33.3,20.4,0.02,Pulozero
68.367,38.65,22.3,0.03,Cape Cherniy
68.467,102.367,12.0,0.08,Essej
68.5,73.583,8.0,0.04,Cape Kamennyj
68.5,112.433,12.0,0.00,Olenek
68.533,28.917,23.8,0.00,Verkhov'E R Lotta
68.6,31.8,20.8,0.02,Padun
68.6,52.333,-7.9,0.00,Tobseda
68.617,118.333,10.0,0.00,Suhana
68.633,33.2,22.8,0.05,Loparskaya
68.65,43.3,11.8,0.01,Kanin Nos
68.667,86.25,-5.4,0.00,Potapovo
68.733,124.0,7.2,0.00,Dzardzan
68.733,158.717,23.3,0.00,Kolymskaya
68.75,161.283,34.6,0.00,Cherskij
68.782,32.751,22.5,0.00,Murmansk
68.783,49.3,-4.5,0.00,Bugrino
68.8,57.983,-3.0,0.00,Varandey
68.817,37.333,22.4,0.02,Ostrov Hatlov
68.85,61.183,-14.9,0.00,Korotajiha
68.883,-166.133,4.9,0.00,Cape Lisburne Afs
68.883,33.017,23.6,0.05,Kola
68.883,170.783,22.5,0.00,Chaun
68.9,-179.633,12.2,0.00,Mys Shmidta
68.967,28.783,22.5,0.00,Yaniskoski
69.083,76.85,-1.1,0.00,Antipajuta
69.117,36.067,23.0,0.06,Dalne-Zelenetskaya
69.2,35.117,23.8,0.04,Teriberka
69.25,64.983,-11.3,0.01,Ust-Kara
69.267,31.767,17.6,0.05,Perevalyaur
69.283,32.8,22.6,0.05,Ura-Guba (Bay)
69.333,87.95,-6.9,0.00,Norilsk
69.4,30.233,22.6,0.16,Nikel
69.4,86.167,-8.8,0.00,Dudinka
69.417,32.167,23.3,0.03,Bolshaya-Zapadnaya
69.45,-133.017,18.2,0.00,Tuktoyaktuk
69.483,60.333,-11.5,0.00,Cape Bely
69.5,166.583,25.9,0.00,Rauchua
69.55,31.117,23.0,0.12,Pechenga
69.583,147.533,13.6,0.00,Vorontsovo
69.617,162.3,26.8,0.00,Buhta Ambarcik
69.617,172.033,28.9,0.00,Krasnoarmejski
69.717,66.8,-6.5,0.00,Maresale
69.733,-163.017,-0.8,0.00,Point Lay Liz 2
69.75,61.7,-8.3,0.00,Amaderma
69.75,170.6,27.6,0.00,Apapelkhino
69.767,135.067,10.0,0.00,Jangki-In-Yakut
69.783,170.597,32.5,0.00,Pevek
69.817,60.75,-11.0,0.00,Yugorskiy Shar
69.883,175.767,11.6,0.00,Mys Billingsa
69.917,125.167,4.0,0.01,Siktjah
69.917,167.967,23.7,0.00,Ajon
69.933,31.983,24.3,0.08,Vaida Guba (Bay)
70.083,83.167,-9.8,0.00,Karaul
70.083,170.933,17.0,0.00,Val' Karkay
70.133,113.967,4.0,0.00,Dzalinda
70.134,-143.577,3.8,0.00,Barter Island Airport
70.167,-124.683,26.3,0.00,Cape Parry
70.167,72.517,1.7,0.05,Seyaha
70.25,-148.333,2.1,0.00,Prudhoe Bay
70.35,74.133,-2.3,0.01,Tadibe-Yakha
70.45,59.083,-10.7,0.00,Im E K Fedorova
70.5,-149.883,5.0,0.00,Oliktok Pow 2
70.5,-117.633,32.0,0.00,Holman Island
70.55,154.25,3.9,0.00,Alazeja River
70.617,-159.85,2.0,0.00,Wainwright Liz 3
70.617,147.883,4.1,0.00,Chokurdah
70.633,162.483,16.5,0.00,Ostrov Chetyrehstolbovoy
70.683,127.4,0.4,0.00,Kjusjur
70.717,57.617,-11.1,0.00,Cape Menshikova
70.767,136.217,0.0,0.00,Jubilejnaja
70.85,89.883,-11.5,0.00,Kresti
70.883,78.5,-9.8,0.01,Gyda
70.917,-153.25,7.2,0.00,Lonely
70.983,-178.65,10.0,0.00,Ostrov Vrangelya
71.017,149.0,0.8,2.95,Russkoye Ust'Ye
71.283,-156.782,3.6,0.00,W Post-Will Rogers Memorial Airport
71.4,67.633,-13.2,0.00,Cape Kharasovoy
71.483,71.817,-9.0,0.00,Tambey
71.5,136.583,-5.5,0.00,Uedey
71.533,129.917,-3.9,0.01,Mostakh Island
71.698,128.903,-6.5,0.01,Tiksi
71.883,82.7,-11.0,0.00,Sopochnaya Karga
71.917,123.567,-5.4,0.04,Tyumyati
71.95,-124.733,22.3,0.00,Sachs Harbour
71.967,114.083,-0.5,0.00,Saskylah
71.983,102.467,3.0,0.00,Hatanga
72.333,79.5,-12.8,0.00,Leskino
72.367,52.7,3.6,0.02,Malye Karmakuly
72.4,126.35,-2.5,0.44,Im Yu A Habarova
72.6,121.85,-3.5,0.20,Tajmyrlyr
72.75,140.75,-6.3,0.00,Cape Svatoj
73.0,119.867,-0.5,0.00,Ust' Olenek
73.167,128.833,-5.5,0.03,Antipinskiy
73.183,143.233,-4.9,0.01,Mys Shalaurova
73.25,90.917,-7.3,0.00,Tareya (Stream)
73.333,70.05,-10.2,0.01,Im. M.V. Popova
73.336,139.867,-6.9,0.00,Kigilyah
73.5,76.0,-5.5,0.00,Vilkickogo Island
73.5,80.4,-7.8,0.00,Ostrov Dikson
73.567,118.75,0.5,0.00,Cape Terpay-Tumus
73.9,124.6,2.2,0.01,Dunway Island
74.5,102.5,2.2,0.00,Lake Tajmyr
74.667,112.933,2.0,0.01,Ostrov Preobrazenij
74.667,138.9,-5.8,0.00,Sannikova
74.883,142.2,-5.0,0.00,Zemlya Bunge
75.417,88.9,-2.0,0.00,Mys Sterlegova
75.533,113.517,-4.2,0.01,B. Pronchishchevoy
75.75,137.583,-6.7,0.00,Tempa Bay
75.95,82.95,-8.5,0.00,Izvestij Tsik
76.0,137.867,-2.6,0.00,Ostrov Kotel'Nyj
76.15,152.833,-4.3,0.01,Zohova Island
76.183,63.567,5.1,0.00,Russkaya Gavan'
76.283,94.733,-4.3,0.00,Pravdy Island
76.8,110.833,-5.4,0.00,Andreya Island
76.95,68.55,-0.4,0.00,Mys Zhelaniya
77.183,96.583,-3.3,0.00,Russkiy Island
77.283,89.667,-7.0,0.00,Isachenko Island
77.5,82.2,-2.5,0.00,Ostrov Uedinenija
77.617,101.483,-1.1,0.00,Geyberga Island
77.717,104.3,-1.8,0.00,Gmo Im.E.K. Fedorova
78.067,14.25,13.2,0.00,Barentsburg
78.133,107.2,-4.0,0.01,Malyy Taymir Island
78.233,103.117,-1.0,0.00,Solnechnaya Bay
78.617,98.7,-2.6,0.00,Krasnoflotskiye Isl
79.383,102.417,-8.4,0.00,Cape Peschaniy
79.483,76.983,-2.1,0.00,Ostrov Vize
79.55,90.567,-4.4,0.00,Mgms Im. G.F. Ushakova
80.167,36.75,3.4,0.01,Viktoriya Island
80.367,52.917,3.5,0.01,Tikhaya Bay
80.617,58.05,-3.9,0.00,Polargmo Im. E.T. Krenkelja
80.817,47.417,3.5,0.01,Nagurskoye
80.833,79.7,-1.4,0.00,Ushakova Island
