lat,lon,temp,precip,name
-90.0,0.0,-79.2,0.00,Amundsen-Scott
-77.883,166.733,-3.2,0.00,Mcmurdo Sound Naf
-64.233,-56.717,33.8,0.00,Base Marambio (Centro Met. Antartico)
-63.467,-56.283,34.2,0.00,Petrel Arg-Base
-60.733,-44.733,33.1,0.00,Base Orcadas
-52.55,169.15,47.3,0.00,Campbell Island
-51.609,-69.313,42.6,0.00,Rio Gallegos
-49.307,-67.803,55.3,0.00,San Julian
-48.783,-70.167,54.7,0.00,Gobernador Gregores
-46.412,168.313,58.1,0.00,Invercargill
-46.167,166.633,58.0,0.00,Puysegur Pt (Lgt-H)
-45.785,-67.466,52.0,0.00,Comodoro Rivadavia
-45.767,170.733,57.5,0.00,Taiaroa Head
-45.4,-72.7,52.2,0.00,Puerto Aysan / Cabo Juan Roman
-43.867,169.0,55.4,0.00,Haast
-43.81,-176.457,52.5,0.00,Chatham Islands
-43.5,147.15,61.7,0.00,Cape Bruny Lighthouse
-43.489,172.532,50.3,0.00,Christchurch Intl
-43.211,-65.27,54.0,0.00,Almirante Zar
-42.908,-71.139,44.5,0.00,Esquel
-42.883,147.333,64.5,0.00,Hobart (Ellerslie Road)
-42.836,147.51,63.3,0.00,Hobart
-42.717,170.983,55.1,0.00,Hokitika Aerodrome
-41.75,171.6,53.6,0.00,Westport Harbour
-41.733,174.2,57.2,0.00,Cape Campbell
-41.545,147.214,57.8,0.00,Launceston
-41.3,173.217,57.7,0.00,Nelson Aerodrome
-41.283,174.767,54.9,0.00,Wellington
-41.151,-71.158,47.6,0.00,San Carlos De Bariloche
-41.0,148.35,62.1,0.00,Larapuna (Eddystone Point)
-40.869,-63.0,56.4,0.00,Gobernador Castello
-40.833,145.083,62.2,0.00,Smithton Aerodrome
-40.55,173.0,55.4,0.00,Farewell Spit
-40.206,175.388,54.4,0.00,Ohakea
-40.1,148.0,69.4,0.00,Flinders Island Airport
-40.033,-70.05,55.8,0.00,Piedra Del Aguila
-39.467,175.683,47.1,0.00,Waiouru
-39.467,176.867,55.0,0.00,Napier/Airport
-39.117,146.417,67.3,0.00,Wilsons Promontory Lighthouse
-39.017,-64.083,57.9,0.00,Rio Colorado
-39.017,174.183,57.2,0.00,New Plymouth Aerodr
-38.949,-68.156,54.0,0.00,Presidente Peron
-38.767,-72.637,56.8,0.00,Maquehue
-38.725,-62.169,56.4,0.00,Comandante Espora
-38.667,177.983,50.5,0.00,Gisborne Aerodrome
-38.133,-65.917,56.8,1.57,Puelches
-38.099,147.149,68.1,0.00,East Sale
-37.976,145.102,70.8,0.00,Melbourne Moorabbin
-37.934,-57.573,60.2,0.00,Mar Del Plata
-37.867,144.75,69.3,0.00,Laverton Raaf
-37.817,144.967,70.7,0.00,Melbourne Regional Office
-37.733,140.783,59.0,0.00,Mount Gambier Aero
-37.683,178.55,55.4,0.00,East Cape (Man)
-37.673,144.843,67.6,0.00,Melbourne Intl
-37.667,144.85,68.2,0.00,Melbourne Intl Arpt
-37.667,176.2,59.0,0.00,Tauranga Aerodrome
-37.567,149.9,66.8,0.00,Gabo Island Lighthouse
-37.237,-59.228,59.5,0.00,Tandil
-37.008,174.792,58.0,0.00,Auckland Intl
-36.9,149.9,66.9,0.00,Merimbula Airport
-36.883,145.183,69.6,0.00,Mangalore Airport
-36.773,-73.063,56.1,0.00,Carriel Sur Intl
-36.75,-59.833,59.4,0.00,Azul Airport
-36.588,-64.276,55.8,0.00,Santa Rosa
-36.582,-72.031,57.9,0.20,General Bernardo O Higgins
-36.35,-57.733,62.6,0.00,Dolores Airport
-36.317,141.633,62.6,0.00,Nhill Aerodrome
-35.85,-71.55,63.5,0.00,Linares
-35.845,-61.858,57.1,0.00,Comodoro P Zanni
-35.696,-63.758,56.7,0.00,General Pico
-35.494,-69.574,52.0,0.00,Malargue
-35.367,-57.283,64.0,0.00,Punta Indio B.A.
-35.333,136.117,63.9,0.00,Neptune Island
-35.307,149.195,60.8,0.00,Canberra
-35.3,-72.4,56.1,0.00,Constitucion/Quivol
-35.165,147.466,69.6,0.00,Wagga Wagga
-35.083,150.8,67.3,0.00,Jervis Bay
-35.067,173.283,55.7,0.00,Kaitaia Aerodrome
-34.972,-57.895,64.2,0.00,La Plata
-34.967,-71.217,63.0,0.00,Curico/Gen Freire
-34.967,-54.95,68.0,0.12,Punta Del Este
-34.95,138.533,64.5,0.00,Adelaide
-34.949,150.537,64.6,0.00,Nowra
-34.941,117.802,55.0,0.00,Albany Airport
-34.93,138.58,63.3,0.00,Adelaide (West Terrace)
-34.838,-56.031,67.0,0.28,Carrasco Intl
-34.822,-58.536,64.7,0.00,Ministro Pistarini
-34.683,-58.65,65.6,0.00,Moron(Aafb)
-34.61,-58.613,65.6,0.00,El Palomar
-34.588,-68.403,55.4,0.00,San Rafael
-34.583,-58.483,66.6,0.00,Buenos Aires (Obs)
-34.559,-58.416,66.6,0.00,Aeroparque Jorge Newbery
-34.546,-60.931,61.0,0.00,Junin
-34.501,-58.604,65.7,0.00,Don Torcuato
-34.433,172.683,58.2,0.00,Cape Reinga
-34.367,115.133,59.2,0.00,Cape Leeuwin
-34.135,-63.362,57.6,0.00,Laboulaye
-34.0,137.533,68.0,0.00,Warburto Point
-33.95,151.2,67.2,0.00,Sydney Intl Airport
-33.946,151.177,66.6,0.00,Sydney Intl
-33.924,150.988,67.8,0.00,Sydney Bankstown
-33.85,148.65,70.0,0.00,Cowra Airport Comparison
-33.85,151.2,68.9,0.00,Sydney (Observatory Hill)
-33.833,121.893,58.0,0.00,Esperance
-33.73,-65.387,56.8,0.00,Villa Reynolds
-33.601,150.781,62.7,0.00,Richmond
-33.583,-59.267,64.0,0.00,Mazaruca
-33.493,-70.698,54.5,0.00,Los Cerrillos
-33.483,145.517,73.0,0.00,Hillston Airport
-33.393,-70.786,51.8,0.00,Arturo Merino Benitez Intl
-33.383,149.117,58.5,0.00,Orange Airport Comparison
-33.273,-66.356,52.1,0.00,San Luis
-33.25,-58.067,65.8,0.79,Mercedes/Ricardo De
-33.085,-64.261,56.3,0.00,Rio Cuarto Area De Material
-33.05,-71.583,62.2,0.00,Vina Del Mar
-33.01,-58.613,66.0,0.00,Gualeguaychu
-32.904,-60.785,64.6,0.00,Rosario
-32.883,-68.85,55.0,0.00,Mendoza Observatorio
-32.832,-68.793,56.7,0.00,El Plumerillo
-32.795,151.834,68.7,0.00,Williamtown
-32.79,-71.522,58.6,0.00,Quintero
-32.684,-62.158,61.1,0.00,Marcos Juarez
-32.217,148.575,70.2,0.00,Dubbo
-32.133,133.7,64.1,0.00,Ceduna Amo
-31.983,141.467,72.7,0.00,Broken Hill (Patton Street)
-31.97,141.45,72.7,0.00,Brokenhillp.O. (Rly Station
-31.945,-65.146,58.9,0.00,Villa Dolores
-31.94,115.967,58.1,0.00,Perth Intl
-31.933,115.967,58.1,0.00,Perth Intl/Belmont
-31.917,115.867,59.6,0.00,Perth Metro
-31.795,-60.48,63.4,0.00,General Urquiza
-31.712,-60.812,62.8,0.00,Sauce Viejo
-31.667,-63.883,63.5,0.00,Pilar Observatorio
-31.571,-68.418,58.7,0.00,San Juan
-31.483,145.833,69.0,0.00,Cobar Mo
-31.433,-57.983,64.0,2.36,Nueva Hesperides Intl
-31.391,-54.112,68.9,0.00,Comandante Gustavo Kraemer
-31.333,-66.6,60.2,0.00,Chepes
-31.324,-64.208,64.1,0.00,Ambrosio L V Taravella
-31.297,-57.997,66.6,0.00,Comodoro Pierrestegui
-31.267,149.267,64.0,0.00,Coonabarabran (Namoi Street)
-31.144,136.817,66.2,0.00,Woomera
-31.08,150.85,70.5,0.00,Tamworthamo/Mo.From1966
-30.833,128.1,59.7,0.00,Forrest Airport
-30.789,121.462,54.7,0.00,Kalgoorlie Boulder
-30.47,138.42,75.1,0.00,Leigh Creek Aero
-30.321,153.116,67.2,0.00,Coffs Harbour
-30.272,-57.64,67.0,0.00,Monte Caseros
-30.033,145.95,69.7,0.00,Bourke Airport Aws
-29.994,-51.171,70.5,0.00,Salgado Filho
-29.916,-71.2,57.5,0.00,La Florida
-29.9,-63.683,67.4,0.00,Villa Maria Del Rio
-29.883,-61.95,67.0,0.00,Ceres
-29.771,-57.979,66.4,0.00,Curuzu Cuatia
-29.711,-53.688,68.5,0.94,Santa Maria
-29.689,-57.152,68.0,0.00,Paso De Los Libres
-29.467,149.85,70.5,0.00,Moree
-29.382,-66.796,69.3,0.00,La Rioja
-29.25,-177.933,68.0,0.00,Raoul Island Kermadec Islands
-29.217,-58.083,68.9,0.00,Villa Mercedes/Aafb
-29.183,-59.7,69.0,0.00,Reconquista Aero
-29.1,-59.217,67.8,0.00,Goya Airport
-28.883,121.333,58.6,0.00,Leonora
-28.796,114.708,62.9,0.00,Geraldton
-28.705,121.891,71.6,0.00,Murrin Murrin
-28.596,-70.756,67.6,0.00,Vallenar
-28.517,150.317,72.1,0.00,Goondiwindi Airport
-28.45,-65.767,63.2,0.00,Catamarca(Old Site)
-28.038,-67.58,64.8,0.00,Tinogasta
-28.0,143.817,73.4,0.00,Thargomindah Post O
-27.766,-64.31,71.3,0.00,Santiago Del Estero
-27.67,-48.547,74.9,0.00,Hercilio Luz
-27.617,-144.333,69.8,0.00,Rapa
-27.55,135.45,71.6,0.00,Oodnadatta Airport
-27.45,-59.056,75.5,0.00,Resistencia
-27.446,-58.762,76.4,0.00,Corrientes
-27.417,153.067,69.8,0.00,Brisbane Airport
-27.386,-55.971,71.1,0.00,Posadas
-27.383,153.117,69.3,0.00,Brisbane Intl Arpt
-27.296,-70.414,63.0,0.00,Chamonate
-26.833,-65.2,72.0,0.00,Tucuman/Teniente Be
-26.757,-60.493,77.8,0.00,Presidencia Roque Saenz Pena / Termal
-26.614,118.537,59.8,0.00,Meekatharra Airport
-26.413,146.263,75.2,0.00,Charleville
-26.213,-58.228,80.9,0.00,Formosa
-25.737,-54.473,76.3,0.00,Cataratas Del Iguazu
-25.596,-54.487,81.1,0.00,Cataratas Intl
-25.528,-49.176,68.9,0.00,Afonso Pena
-25.24,-57.519,82.0,0.00,Silvio Pettirossi Intl
-25.033,128.3,71.0,0.00,Giles Meteorological Office
-24.9,152.317,71.9,0.00,Bundaberg Aero
-24.888,113.67,68.9,0.00,Carnarvon Airport
-24.856,-65.486,66.6,0.00,Salta
-24.721,-60.549,85.6,0.00,Alferez Armando Rodriguez
-24.393,-65.098,71.9,0.00,Jujuy
-24.117,152.717,76.1,0.00,Lady Elliot Island
-23.925,-46.288,76.6,0.00,Base Aerea De Santos
-23.85,151.267,73.1,0.00,Gladstone Radar
-23.8,133.917,81.5,0.00,Alice Springs Arpt
-23.627,-46.655,72.0,0.00,Congonhas Deputado Freitas Nobre
-23.567,148.183,74.8,0.00,Emerald Airport
-23.444,-70.445,62.1,0.00,Cerro Moreno Intl / Andres Sabella Intl
-23.433,144.283,75.2,0.00,Longreach Aero
-23.43,144.28,75.4,0.00,Longreachamo.
-23.417,119.8,63.5,0.00,Newman Aero
-23.382,150.475,73.0,0.00,Rockhampton
-23.365,-149.524,77.0,0.00,Tubuai Mataura
-23.334,-51.13,79.2,0.00,Londrina / Governador Jose Richa
-23.153,-64.329,79.1,0.00,Oran
-23.133,-134.967,79.1,0.00,Mangareva
-23.007,-47.135,76.1,0.00,Viracopos
-22.932,-43.719,78.8,0.00,Santa Cruz / Campo Nero Moura
-22.922,-42.074,71.6,0.00,Cabo Frio
-22.91,-43.163,79.4,0.00,Santos Dumont
-22.875,-43.385,80.3,0.00,Campo Delio Jardim De Mattos
-22.813,-42.093,79.5,0.00,Sao Pedro Da Aldeia / Tenente Jorge Henrique Moller
-22.809,-43.244,79.2,0.00,Galeao Antonio Carlos Jobim
-22.62,-63.794,77.8,0.00,General Enrique Mosconi Tartagal
-22.483,-44.083,80.6,0.00,Volta Redonda
-22.345,-49.054,78.3,0.00,Bauru
-22.267,166.45,74.3,0.00,Noumea
-22.25,118.333,80.8,0.00,Wittenoom
-22.175,-51.425,86.4,0.00,Presidente Prudente
-22.015,166.213,75.5,0.00,Noumea La Tontouta
-21.985,-47.335,75.5,0.00,Campo Fontenelle
-21.82,114.17,74.1,0.00,Northwest Cape (Navy Alpha)
-21.698,-41.302,78.4,0.00,Bartolomeu Lisandro
-21.67,115.12,74.7,0.00,Onslowamo
-21.633,115.117,73.7,0.00,Onslow
-21.267,-43.761,71.2,0.00,Major Brigadeiro Doorgal Borges
-21.203,-159.806,79.2,0.00,Rarotonga Intl
-21.133,-175.183,75.9,0.00,Nukualofa
-21.117,149.217,75.3,0.00,Mackay Mo
-20.933,165.317,75.2,0.00,Poindimie (Nlle-Caledonie)
-20.777,-51.565,81.5,0.00,Urubupunga
-20.775,167.24,77.6,0.00,Lifou Ouanaham
-20.7,-46.333,82.9,0.00,Furnas/Private
-20.667,-178.717,77.0,0.00,Ono-I-Lau Aws
-20.667,140.5,83.2,0.00,Cloncurry Airport
-20.664,139.489,82.5,0.00,Mount Isa
-20.546,164.256,77.0,0.00,Koumac
-20.535,-70.181,59.9,0.00,Diego Aracena Intl
-20.533,-70.183,65.4,0.00,Iquique
-20.469,-54.673,80.3,0.00,Campo Grande
-20.43,57.684,73.4,0.00,Sir Seewoosagur Ramgoolam Intl
-20.378,118.626,79.3,0.00,Port Hedland Intl
-20.258,-40.286,81.2,0.00,Goiabeiras / Eurico De Aguiar Salles Intl
-20.233,169.767,77.4,0.00,Aneityum
-20.133,-157.35,77.9,0.00,Mauke Island
-20.133,127.983,80.7,0.00,Balgo Hills Asa
-19.9,-144.949,80.6,0.00,Hereheretue
-19.883,-44.417,69.8,0.00,Florestal
-19.851,-43.951,74.8,0.00,Pampulha Carlos Drummond De Andrade
-19.758,63.361,74.5,0.00,Plaine Corail
-19.75,-47.917,76.4,0.00,Uberaba
-19.65,-43.883,74.1,0.00,Lagoa Santa Airport
-19.633,134.183,81.6,0.00,Tennant Creek Airport
-19.455,169.224,75.2,0.00,Tanna
-19.253,146.765,75.5,0.00,Townsville
-19.25,146.767,75.8,0.00,Townsville(Civ/Mil)
-19.133,179.75,77.4,0.00,Matuku Aws
-19.067,-169.917,78.1,0.00,Alofi
-19.05,178.167,74.8,0.00,Vunisea
-19.012,-57.673,90.9,0.00,Corumba Intl
-18.831,-159.764,82.8,0.00,Aitutaki
-18.717,125.967,84.7,0.00,Fitzroy Crossing Ca
-18.349,-70.339,66.2,0.00,Chacalluta
-18.233,-178.8,79.2,0.00,Lakemba Island
-18.233,127.667,85.8,0.00,Halls Creek Airport
-18.075,-140.946,80.1,0.00,Hao
-18.067,-163.183,84.2,0.00,Palmerston *
-18.053,-70.276,67.4,0.00,Coronel Carlos Ciriani Santa Rosa Intl
-18.043,178.559,73.4,0.00,Nausori Intl
-17.945,122.232,84.2,0.00,Broome Intl
-17.812,-63.171,84.2,0.00,El Trompillo
-17.755,177.443,74.3,0.00,Nadi Intl
-17.75,168.3,77.0,0.00,Port Vila/Bauerfld
-17.652,-39.253,79.7,0.00,Caravelas
-17.554,-149.607,79.1,0.00,Tahiti Faa A
-17.421,-66.177,62.4,0.00,Jorge Wilstermann Intl
-17.37,123.67,87.5,0.00,Derby Airport
-17.3,123.617,86.4,0.00,Derby
-17.017,128.217,77.6,0.00,Warmun
-17.0,178.7,75.2,0.00,Nabouwalu
-16.883,145.767,76.8,0.00,Cairns Airport
-16.767,-153.95,83.0,0.00,Mopelia
-16.707,-43.819,80.5,0.00,Mario Ribeiro
-16.7,177.583,76.6,0.00,Yasawa
-16.632,-49.221,75.7,0.00,Santa Genoveva
-16.513,-68.192,46.7,0.00,El Alto Intl
-16.45,59.617,81.1,0.00,St. Brandon (St. Raphael)
-16.444,-151.751,81.2,0.00,Bora Bora Motu Mute
-16.417,167.8,78.4,0.00,Lamap/Malekoula Isl
-16.341,-71.583,63.0,0.00,Rodriguez Ballon
-16.288,149.965,80.9,0.00,Willis Island
-16.27,133.38,85.6,0.00,Dalywaters Police Station
-16.133,-179.983,77.4,0.00,Udu Point Aws
-15.95,-173.767,81.5,0.00,Keppel
-15.9,-52.233,86.4,0.00,Aragarcas
-15.863,-47.913,72.0,0.00,Presidente Juscelino Kubitschek
-15.653,-56.117,88.2,0.00,Marechal Rondon
-15.501,167.223,79.1,0.00,Santo Pekoa Intl
-15.483,128.117,86.6,0.00,Wyndham
-15.467,-70.158,54.0,0.04,Juliaca / Inca Manco Capac Intl
-15.383,-75.167,68.5,0.00,San Juan De Marcona
-15.355,-38.999,77.8,0.04,Hotel Transamerica / Comandatuba
-14.819,-64.918,83.3,0.00,Tte Av Jorge Henrich Arauz
-14.8,-138.817,85.3,0.00,Puka-Puka Atoll
-14.8,-39.067,80.8,0.00,Ilheus
-14.7,-52.35,81.0,0.00,Nova Xavantina
-14.483,-145.033,82.4,0.00,Takaroa
-14.331,-170.714,82.0,0.47,Tafuna/Pago Pago International Ap
-13.85,167.55,77.7,0.00,Sola/Vanua Lava Isl
-13.8,-171.783,82.4,0.00,Apia/Upolu Island
-13.75,126.15,85.6,0.00,Troughton Island
-13.75,143.117,81.5,0.00,Coen Airport
-13.745,-76.22,71.0,0.00,Pisco Intl
-13.536,-71.939,58.7,0.12,Teniente Alejandro Velasco Astete Intl
-13.267,-70.667,77.7,1.22,Quincemil
-13.267,-43.417,81.8,0.00,Bom Jesus Da Lapa Aeroporto
-13.155,-74.204,65.9,0.00,Coronel Fap Alfredo Mendivil Duarte
-12.911,-38.331,80.2,0.00,Deputado Luis Eduardo Magalhaes
-12.783,143.3,80.4,0.00,Lockhart River Airport
-12.679,141.925,80.6,0.00,Weipa
-12.614,-69.229,83.3,0.00,Padre Aldamiz
-12.5,177.05,82.4,0.00,Rotuma Island
-12.47,130.83,85.1,0.00,Darwin University Office
-12.415,130.877,83.3,0.00,Darwin Intl
-12.188,96.834,80.6,0.00,Cocos Keeling Islands
-12.033,135.567,81.6,0.00,Elcho Island
-12.022,-77.114,67.7,0.00,Jorge Chavez Intl
-11.567,-50.667,84.4,0.00,Santa Isabel Morro
-10.951,142.459,70.4,0.00,Bamaga Injinoo
-10.917,-37.05,81.6,0.12,Aracaju
-10.915,-165.839,82.1,0.00,Pukapuka Arpt
-10.719,-48.4,82.9,0.00,Porto Nacional
-10.7,165.8,82.0,0.00,Santa Cruz Island
-10.567,142.217,79.9,0.00,Thursday Island
-10.433,56.6,80.6,0.00,Agalega
-10.417,161.917,84.6,0.00,Kira Kira
-10.172,123.671,87.1,0.00,El Tari
-9.879,-76.205,73.7,0.00,Alferez Fap D F Fernandini
-9.8,-139.033,80.6,0.00,Hiva-Oa
-9.669,120.302,84.9,0.00,Mau Hau
-9.511,-35.792,77.6,0.08,Zumbi Dos Palmares
-9.417,159.967,79.7,0.00,Honiara
-9.347,-77.598,64.6,0.00,Comandante Fap German Arias Graziani
-9.334,-54.965,81.1,0.00,Cachimbo / Campo De Provas Brigadeiro Veloso
-9.15,-78.524,71.3,0.00,Teniente Jaime A De Montreuil Morales
-9.133,-75.95,80.9,0.04,Tingo Maria
-8.783,160.733,80.9,0.00,Auki
-8.767,-63.917,83.8,0.00,Porto Velho
-8.749,115.167,83.6,0.00,Denpasar Ngurah Rai
-8.517,179.217,85.4,0.00,Funafuti Intl Arpt
-8.378,-74.574,80.5,0.00,Cap Fap David Abensur Rengifo Intl
-8.328,157.263,80.6,0.39,Munda
-8.126,-34.924,78.6,0.00,Guararapes Gilberto Freyre Intl
-8.081,-79.109,67.1,0.00,Capitan Fap Carlos Martinez De Pinillos
-7.97,-14.394,83.0,0.00,Ascension Aux Af
-7.733,109.017,84.6,0.00,Cilacap
-7.38,112.787,82.0,0.00,Surabaya Juanda
-7.32,-47.459,85.2,0.00,Carolina / Brig Lysias Augusto Rodrigues
-7.3,72.4,82.4,0.00,Diego Garcia Naval Air Station
-7.27,-35.896,75.4,0.00,Presidente Joao Suassuna
-7.233,177.15,82.9,0.00,Nui
-7.217,112.717,82.9,0.00,Surabaya/Perak
-7.169,-76.729,81.1,0.00,Juanjui
-7.139,-78.489,61.0,0.00,Gen Fap Armando Revoredo Iglesias
-7.1,-34.867,79.0,0.00,Joao Pessoa
-6.983,110.383,84.2,0.00,Jenderal Ahmad Yani
-6.787,-79.828,72.5,0.00,Cap Fap Jose A Quinones Gonzales Intl
-6.509,-76.373,77.7,0.00,Cadete Guillermo Del Castillo Paredes
-6.3,106.567,81.9,0.00,Tangerang/Budiarto Arpt
-6.233,-57.777,80.9,0.00,Jacareacanga
-6.202,-77.856,60.1,0.00,Chachapoyas
-6.15,106.85,79.6,0.00,Jakarta/Kemayoran
-6.033,-76.967,73.6,0.00,Moyobamba
-5.911,-35.248,77.5,0.00,Campo Augusto Severo
-5.894,-76.118,83.4,0.00,Moises Benzaquen Rengifo / Yurimaguas
-5.85,112.633,82.9,0.00,Sangkapura (Bawean Is.)
-5.667,176.133,83.3,0.00,Nanumea Island
-5.369,-49.138,82.4,0.00,Maraba / Joao Correa Da Rocha
-5.242,105.179,81.3,0.00,Radin Inten Ii
-5.206,-80.616,78.2,0.00,Capitan Fap Guillermo Concha Iberico
-5.062,119.554,85.1,0.00,Sultan Hasanuddin Intl
-5.06,-42.823,79.6,0.00,Senador Petronio Portella
-4.674,55.522,83.8,0.00,Seychelles Intl
-4.577,-81.254,75.8,0.00,Capitan Fap Victor Montes Intl
-4.383,-70.033,81.5,0.00,Benjamin Constant
-4.252,15.253,85.6,0.00,Maya Maya
-4.2,12.7,86.0,0.00,Dolisie
-4.193,-69.943,84.8,0.16,Alfredo Vasquez Cobo
-4.0,-79.367,80.1,0.00,Loja/Camilo Ponce
-3.864,102.339,80.6,0.00,Fatmawati Soekarno
-3.855,-32.423,80.3,0.35,Fernando De Noronha
-3.785,-73.309,80.5,0.00,Coronel Francisco Secada Vignetta Intl
-3.776,-38.533,74.7,0.00,Pinto Martins Intl
-3.442,114.763,83.1,0.00,Syamsudin Noor
-3.383,-64.724,87.8,0.00,Tefe / Prefeito Orlando Marinho
-3.146,-59.986,79.1,0.00,Campo Ponta Pelada
-2.898,104.701,80.6,0.00,Sultan Mahmud Badaruddin Ii
-2.894,-41.732,77.8,0.00,Parnaiba Prefeito Dr Joao Silva Filho
-2.85,11.017,79.3,0.00,Tchibanga
-2.767,-171.717,86.7,0.00,Canton Island
-2.767,-78.75,78.4,0.00,Paute
-2.746,107.755,81.0,0.00,H As Hanandjoeddin
-2.667,176.833,85.1,0.00,Arorae Island
-2.585,-44.234,78.3,0.00,Marechal Cunha Machado Intl
-2.55,-78.933,81.9,0.00,Canar
-2.422,-54.793,80.5,0.00,Santarem / Maestro Wilson Fonseca
-2.17,106.13,80.6,0.00,Pangkalpinang / Depati Amir
-2.15,-79.883,80.5,0.00,Guayaquil/Simon Bol
-1.867,15.867,80.2,0.00,Gamboma
-1.845,11.057,80.6,0.00,Mouilla Ville / Raphael Boubala
-1.733,-52.233,82.8,0.00,Porto De Moz
-1.638,103.644,83.5,0.00,Sultan Thaha
-1.379,-48.476,77.4,0.00,Val De Cans Julio Cezar Ribeiro Intl
-1.319,36.928,65.1,0.00,Jkia / Nairobi Jomo Kenyatta Intl
-1.268,116.894,82.8,0.00,Sultan Aji Muhammad Sulaiman Sepinggan
-1.19,136.108,78.1,0.00,Frans Kaisiepo
-1.033,-80.467,80.2,0.00,Portoviejo/Reales
-0.95,-80.7,85.0,0.00,Manta/Eloy Alfaro
-0.9,169.533,84.2,0.00,Banaba
-0.875,100.352,81.7,0.00,Tabing
-0.833,12.717,77.4,0.00,Lastoursville
-0.712,8.754,80.3,0.00,Port Gentil
-0.704,10.246,82.0,0.00,Lambarene
-0.583,-80.4,83.6,0.00,Bahia De Caraquez
-0.35,102.333,82.9,0.00,Rengat/Japura Arpt
-0.151,109.404,84.2,0.00,Supadio
0.042,32.444,73.4,0.00,Entebbe Intl
0.051,-51.072,78.4,0.00,Macapa / Alberto Alcolumbre
0.183,30.1,73.8,0.00,Kasese
0.25,-78.733,57.3,0.00,Inguincho
0.45,33.183,70.9,0.00,Jinja
0.459,9.412,78.8,0.00,Leon M Ba
0.461,101.445,82.9,0.00,Sultan Syarif Kasim Ii
0.579,12.891,77.9,0.00,Makokou
0.683,34.167,77.4,0.00,Tororo
0.783,11.533,75.5,0.00,Mitzic
0.923,104.532,79.2,0.00,Kijang
0.967,-79.617,82.0,0.00,Esmeraldas Aeropuerto (Tachina)
1.0,9.6,79.2,0.00,Cocobeach
1.017,13.933,77.7,0.00,Mekambo
1.36,103.91,78.9,0.00,Paya Lebar
1.382,173.147,83.6,0.00,Bonriki Intl
1.393,-77.291,66.2,0.00,Antonio Narino
1.485,110.347,79.5,0.00,Kuching Intl
1.6,-75.533,81.1,0.00,Florencia/Capitolio
1.616,16.038,81.5,0.00,Ouesso
1.617,18.067,80.6,0.00,Impfondo
1.683,31.717,75.6,0.00,Masindi
1.728,33.623,74.8,0.00,Soroti
1.817,-78.75,79.2,0.00,Tumaco/La Florida
1.986,-157.35,81.5,0.00,Christmas Island
2.067,-50.85,81.1,0.00,Amapa
2.262,111.985,82.8,0.00,Sibu
2.263,102.252,78.6,0.00,Malacca
2.454,-76.609,68.9,0.00,Guillermo Leon Valencia
2.806,32.272,76.3,0.00,Gulu
2.846,-60.69,83.0,0.00,Boa Vista / Atlas Brasil Cantanhede
2.95,-75.294,83.5,0.00,Benito Salas
2.95,9.9,80.6,7.48,Kribi
3.017,131.183,82.4,0.00,Tobi Island   Caroline Is.
3.033,172.783,82.4,0.00,Butaritari Atoll
3.124,113.02,81.4,0.00,Bintulu
3.131,101.549,77.5,0.00,Sultan Abdul Aziz Shah Intl
3.333,117.567,81.1,0.00,Tarakan/Juwata
3.543,-76.382,73.7,0.00,Alfonso Bonilla Aragon Intl
3.558,98.672,85.1,0.00,Polonia / Kualanamu Intl
3.723,11.553,77.0,0.00,Yaounde Nsimalen
3.775,103.209,83.8,0.00,Kuantan
3.82,-76.99,82.4,0.00,Gerardo Tobar Lopez
3.85,-159.367,78.8,0.00,Fanning Island
4.006,9.719,84.2,0.00,Douala
4.089,9.361,82.9,0.00,Tiko
4.1,-76.233,75.9,0.00,Tulua/Farfan
4.168,-73.614,77.5,0.94,Vanguardia
4.217,100.7,82.1,0.00,Sitiawan
4.283,-74.8,76.5,0.43,Girardot/Santiago Villa
4.322,113.987,82.1,0.00,Miri
4.398,18.519,78.4,0.00,Bangui M Poko
4.417,-7.367,76.6,0.00,Tabou
4.422,-75.133,73.9,0.24,Perales
4.467,14.367,78.4,0.00,Batouri
4.702,-74.147,56.2,0.00,El Dorado Intl
4.733,22.833,81.1,0.00,Bangassou
4.813,-75.74,73.8,0.00,Matecana
4.82,-52.36,79.0,0.00,Rochambeau / Cayenne Felix Eboue
4.95,9.933,76.1,0.00,Nkongsamba
5.05,21.2,82.0,0.00,Alindao
5.261,-3.926,81.5,0.00,Abidjan Felix Houphouet Boigny Intl
5.267,17.633,78.4,0.00,Bossembele
5.297,100.277,84.3,0.00,Penang Intl
5.524,95.42,82.8,0.00,Sultan Iskandar Muda
5.605,-0.167,81.5,0.00,Kotoka Intl
5.637,10.751,67.1,0.00,Foumban Nkounja
5.85,20.65,75.2,0.00,Bambari
5.901,118.059,81.8,0.00,Sandakan
5.937,116.051,80.6,0.00,Kota Kinabalu Intl
5.967,15.633,76.6,0.00,Bouar
6.05,125.1,80.6,0.00,Gen. Santos
6.117,81.133,86.0,0.00,Hambantota
6.166,1.255,80.3,0.00,Gnassingbe Eyadema Intl
6.167,102.293,83.4,0.00,Sultan Ismail Petra
6.22,-75.591,74.8,0.01,Olaya Herrera
6.234,-10.362,84.2,0.00,Monrovia Roberts Intl
6.357,2.384,82.4,0.00,Card Bernardin Gadin De Cadjehoun Intl
6.483,17.433,80.1,0.00,Bossangoa
6.5,-58.25,78.3,0.00,Georgetown
6.5,23.267,78.8,0.00,Yalinga
6.52,101.743,86.6,0.00,Narathiwat
6.533,14.367,75.2,0.00,Meiganga
6.583,1.5,84.2,0.00,Tabligbo
6.6,0.467,82.9,0.00,Ho
6.785,101.154,84.5,0.00,Pattani
6.922,122.06,82.6,0.00,Zamboanga Intl
6.933,100.393,88.4,0.00,Hat Yai Intl
6.967,80.767,63.1,0.00,Nuwara Eliya
7.024,-73.807,83.2,0.00,Yariguies
7.067,125.6,82.1,0.39,Davao
7.187,100.608,87.4,0.00,Songkhla
7.272,-7.587,81.5,0.00,Man
7.333,134.483,82.0,0.00,Babelthuap/Koror Air
7.357,13.559,74.5,0.00,Ngaoundere
7.467,151.85,83.4,0.00,Chuuk International Airport
7.509,99.617,85.4,0.00,Trang
7.583,1.117,75.2,0.00,Atakpame/Akpaka
7.706,81.679,86.0,0.00,Batticaloa
7.883,98.4,85.4,0.00,Phuket
7.928,-72.512,82.0,0.00,Camilo Daza
8.033,79.833,83.3,0.00,Puttalam
8.113,98.317,86.0,0.00,Phuket Intl
8.15,125.133,78.4,0.00,Malaybalay
8.367,126.333,81.6,0.00,Hinatuan
8.391,-82.435,85.3,0.00,Enrique Malek Intl
8.4,20.65,80.6,0.00,N'Dele
8.471,99.956,85.5,0.00,Cha Ian
8.483,124.65,82.4,0.00,Cagayan De Oro
8.601,123.334,84.5,0.00,Dipolog
8.616,-13.195,83.9,0.00,Freetown Lungi
8.683,106.6,86.9,0.00,Con Son
8.733,167.733,82.7,14.96,Bucholz Aaf Kwajalein Kmr Atol Ap
8.824,-75.826,87.4,0.00,Los Garzones
8.917,-79.6,81.5,0.00,Howard
8.983,1.15,79.1,0.00,Sokode
9.071,-79.383,81.8,0.00,Tocumen Intl
9.133,99.136,82.8,0.00,Surat Thani
9.183,105.15,89.2,0.00,Ca Mau
9.333,-75.283,85.6,0.00,Corozal/Las Brujas
9.35,2.617,81.3,0.00,Parakou
9.367,14.917,90.5,0.00,Pala
9.467,100.05,87.1,0.00,Ko Samui
9.483,138.083,82.6,14.96,Yap International Airport
9.557,-0.863,89.9,0.00,Tamale
9.583,-11.55,84.2,0.00,Kabala
9.6,105.967,84.4,0.00,Ba-Xuyen/Soc Trang
9.65,-74.833,84.2,0.00,San Marc S
9.664,123.853,82.4,0.00,Tagbilaran
9.778,98.585,82.8,0.00,Ranong
9.783,125.483,83.6,0.00,Surigao
9.8,80.067,87.2,0.00,Kankasanturai
9.967,98.583,82.8,0.00,Victoria Point
10.0,105.083,86.9,0.00,Rach Gia
10.083,105.717,88.2,0.00,Can Tho
10.217,103.967,87.8,0.00,Phu Quoc
10.283,22.783,95.5,0.00,Birao
10.308,123.979,82.7,0.00,Mactan Cebu Intl
10.317,1.383,85.1,0.00,Natitingou
10.333,-3.183,85.1,0.00,Gaoua
10.367,0.467,89.3,0.00,Mango/Sansanne
10.383,114.367,84.8,0.00,Nensha Isl(=599970)
10.435,-73.25,88.7,0.00,Alfonso Lopez Pumarejo
10.442,-75.513,84.2,0.00,Rafael Nunez
10.451,14.257,92.8,0.00,Salak
10.595,-61.337,81.7,0.00,Piarco
10.603,-66.991,79.1,0.00,Simon Bolivar Intl
10.711,99.362,87.5,0.00,Chumphon
10.713,122.541,85.7,0.00,Iloilo
10.819,106.652,86.8,0.00,Tan Son Nhat Intl
10.89,-74.781,83.1,0.00,Ernesto Cortissoz
10.933,108.1,85.1,0.00,Phan Thiet
10.967,106.817,86.8,0.00,Saigon/Bien/Hoa
11.031,77.044,93.2,0.00,Coimbatore
11.12,-74.231,84.9,0.00,Simon Bolivar
11.133,2.933,89.2,0.00,Kandi
11.16,-4.331,86.9,0.00,Bobo Dioulasso
11.228,125.028,81.4,0.00,Daniel Z Romualdez
11.233,169.85,80.6,0.00,Utirik Atoll   Marshall Is.
11.35,-5.683,86.5,0.00,Sikasso
11.417,-7.5,85.1,0.00,Bougouni
11.467,107.8,79.2,0.00,Bao-Loc (Blao)
11.526,-72.926,83.8,0.00,Almirante Padilla
11.583,-15.483,81.2,0.00,Bolama
11.598,122.752,84.7,0.00,Roxas
11.633,108.95,87.7,0.00,Phan Rang
11.667,125.45,82.8,0.00,Borongan
11.75,-2.933,89.2,0.00,Boromo
11.767,102.883,83.5,0.00,Khlong Yai
11.783,124.883,83.7,0.00,Catbalogan
11.788,99.805,86.5,0.00,Prachuap
11.883,3.45,92.8,0.00,Gaya
11.895,-15.654,80.3,0.00,Bissau Oswaldo Vieira Intl
12.0,-95.0,50.0,0.00,Moored Buoy 43011
12.033,0.367,92.1,0.00,Fada N'Gourma
12.131,-68.269,82.8,0.00,Flamingo
12.134,15.034,94.7,0.00,Ndjamena Hassan Djamous
12.15,-61.617,84.0,0.00,Pearls Airport
12.189,-68.96,81.9,0.00,Hato
12.25,109.2,84.6,0.00,Nha Trang
12.353,-1.512,92.3,0.00,Ouagadougou
12.369,123.629,85.7,0.00,Masbate
12.383,-5.467,95.0,0.00,Koutiala
12.383,17.05,98.6,0.00,Bokoro
12.417,99.867,96.8,0.00,Pran Buri
12.501,-70.015,82.7,0.00,Reina Beatrix Intl
12.502,124.636,80.9,0.00,Catarman
12.556,-16.282,77.5,0.00,Ziguinchor
12.583,122.283,81.6,0.00,Romblon
12.584,-81.711,85.0,0.00,Gustavo Rojas Pinilla
12.6,102.117,84.4,0.00,Chanthaburi
12.633,-7.967,88.1,0.00,Bamako
12.636,99.952,86.7,0.00,Hua Hin
12.683,100.983,88.1,0.00,Sattahip
12.683,101.0,83.9,0.00,U-Taphao Intl(Navy)
12.85,-11.233,92.8,0.00,Kenieba
13.075,-59.492,81.6,1.14,Grantley Adams Intl
13.083,109.283,85.6,0.00,Tuy-Hoa
13.157,123.746,83.2,0.00,Legazpi
13.167,100.8,89.0,0.00,Ko Sichang
13.217,18.317,99.5,0.00,Ati
13.233,11.983,97.2,0.00,Maine-Soroa
13.333,-4.833,92.3,0.00,San
13.367,100.983,90.0,0.00,Chon Buri/Sattahip / Suvarnabhumi Intl
13.4,-6.15,93.7,0.00,Segou
13.417,121.183,86.0,0.00,Calapan/Mindoro Isl
13.433,14.733,94.6,0.00,Bol-Berim
13.482,2.184,95.0,0.00,Diori Hamani
13.483,144.8,80.6,0.00,Guam Wfo
13.503,7.127,94.6,0.00,Maradi
13.55,144.833,82.0,0.00,Guam/Mariana Is
13.567,-89.833,83.4,0.00,Acajutla/Sonsonate
13.567,-2.417,92.9,0.00,Ouahigouya
13.567,144.917,79.1,0.02,Andersen Afb
13.576,124.206,83.2,0.00,Virac
13.654,124.341,78.3,0.00,Catanduanes Radar
13.699,-89.12,75.7,0.00,Ilopango Intl
13.7,102.504,87.5,0.00,Aranyaprathet
13.733,100.567,88.0,0.00,Bangkok Metropolis
13.737,-13.653,94.6,0.00,Tambacounda
13.767,109.217,84.2,0.00,Quy Nhon
13.779,8.984,95.3,0.00,Zinder
13.8,5.25,95.0,0.00,Birni-N'Konni
13.847,20.844,98.3,0.00,Abeche
13.913,100.607,88.0,0.00,Bangkok Intl / Don Mueang Intl
13.936,-90.836,85.7,0.00,San Jose
13.95,109.05,81.0,0.00,Phu Cat
14.0,108.017,78.0,0.00,Pleiku Ab/Cu-Hanh
14.005,108.017,83.8,0.00,Pleiku
14.017,99.533,93.8,0.00,Kanchana Buri
14.017,121.6,80.6,0.00,Tayabas
14.033,-0.033,96.2,0.00,Dori
14.078,101.38,87.4,0.00,Khao E To
14.083,121.05,87.4,0.00,Ambulong
14.1,98.217,88.9,0.00,Dawei
14.117,93.367,84.2,0.00,Coco Island
14.117,105.833,86.2,0.00,Khong Island
14.117,122.95,83.9,0.00,Daet/Bagasbas
14.147,-16.051,93.6,0.00,Kaolack
14.2,1.45,95.7,0.00,Tillabery
14.25,13.117,98.2,0.00,N'Guigmi
14.417,101.533,72.2,0.00,Khao Kheo
14.467,100.133,91.8,0.00,Suphan Buri
14.482,-11.44,93.6,0.00,Kayes/Dag-Dag
14.509,121.02,85.3,0.00,Ninoy Aquino Intl
14.513,-4.08,91.1,0.00,Ambodedjo
14.521,-91.697,85.3,0.00,Retalhuleu
14.583,-90.527,68.0,0.00,La Aurora
14.591,-61.003,79.1,0.00,Le Lamentin
14.65,-16.233,81.8,0.00,Diourbel
14.65,121.05,84.2,0.00,Science Garden
14.74,-17.49,70.1,0.00,Leopold Sedar Senghor Intl
14.75,121.65,83.1,0.00,Infanta
14.783,105.783,87.0,0.00,Ban Don Talat
14.8,100.617,93.6,0.00,Moung Khom
14.8,120.267,87.3,0.00,Subic Bay Weather
14.876,5.265,98.2,0.00,Tahoua
14.883,-92.3,87.5,0.00,Tapachula/Airport
14.883,100.667,93.7,0.00,Lop Buri/Koke Kathi
14.883,103.5,92.9,0.00,Surin
14.933,102.083,91.9,0.00,Korat Ab (Usaf)
14.935,102.079,90.1,0.00,Khorat
15.117,105.767,88.1,0.00,Pakse
15.117,145.733,83.4,0.00,Saipan/Isley (Cgs)
15.133,105.783,88.9,0.00,Pakse (Back-Up)
15.133,108.783,86.9,0.00,Quang Ngai
15.186,120.56,85.5,0.00,Clark Intl / Diosdado Macapagal Intl
15.23,103.253,93.0,0.00,Buri Ram
15.233,-9.35,88.2,0.00,Nioro Du Sahel
15.233,100.283,91.4,0.00,Ta Khli  Thailand Ab
15.251,104.87,91.7,0.00,Ubon Ratchathani
15.317,-91.467,76.3,0.00,Huehuetenango
15.333,119.967,87.8,0.00,Iba/Luzon Island
15.383,-15.117,91.8,0.00,Linguere
15.417,75.633,95.4,0.00,Gadag
15.433,45.333,83.5,0.00,Marib
15.483,73.817,88.1,0.00,Goa/Panjim
15.6,105.8,88.0,0.00,Khong Xedone
15.673,100.137,95.9,0.00,Nakhon Sawan
15.73,121.5,81.6,0.00,Baler
15.731,-88.584,83.1,0.00,Puerto Barrios
15.733,120.933,86.6,0.00,Munoz
15.8,102.033,92.6,0.00,Chaiyaphum
15.867,2.217,96.8,0.00,Menaka
16.044,108.199,82.3,0.00,Danang Intl
16.051,-16.463,73.1,0.00,Saint Louis Ousmane Masseck Ndiaye
16.07,103.646,90.8,0.00,Rob Muang
16.083,105.367,90.4,0.00,Xe Bang Haing
16.083,120.35,87.4,0.00,Dagupan
16.248,-0.005,96.8,0.00,Gao
16.265,-61.532,76.5,0.00,Le Raizet
16.317,-89.417,84.8,0.00,Poptun
16.375,120.62,70.6,0.00,Baguio
16.402,107.703,82.4,0.00,Phubai
16.449,-95.094,72.1,0.00,Ixtepec
16.45,105.183,90.3,0.00,Keng Kok
16.467,-95.1,85.2,0.00,Ixtepec
16.467,102.784,89.6,0.00,Khon Kaen
16.5,-15.817,97.3,0.00,Rosso
16.533,104.717,84.9,0.00,Mukdahan
16.55,111.617,86.0,0.00,Hoang Sa (Pattle)
16.557,104.76,85.8,0.04,Savannakhet
16.59,-11.406,95.0,0.00,Kiffa
16.622,-7.317,96.8,0.00,Nema
16.65,-14.967,89.6,0.00,Podor
16.676,101.195,94.7,0.00,Phetchabun
16.7,98.545,90.9,0.00,Mae Sot
16.711,-9.638,90.5,0.00,Aioun El Atrouss
16.73,-3.008,89.6,0.00,Tombouctou
16.733,-169.533,77.5,0.00,Johnston Atoll Airport
16.741,-22.949,70.8,0.00,Amilcar Cabral Intl
16.75,-99.75,79.6,0.00,Acapulco  Gro
16.75,-93.133,87.3,0.00,Francisco Sarabia / Tuxtla Gutierrez Intl
16.767,94.767,90.7,0.00,Pathein
16.783,100.279,90.6,0.00,Phitsanulok
16.833,112.333,83.8,0.00,Xisha Dao
16.896,99.253,97.9,0.00,Tak
16.9,96.183,87.5,0.00,Mingaladon
16.917,-89.883,86.6,0.00,Flores/Santa Elena
17.033,54.083,82.7,0.00,Salalah
17.039,54.091,82.7,0.00,Salalah
17.05,-96.717,79.9,0.00,Oaxaca  Oax.
17.083,104.983,90.6,0.00,Xe Bang Fai
17.15,104.133,80.0,0.00,Sakon Nakhon
17.233,99.05,92.3,0.00,Bhumibol Dam
17.311,-62.719,79.4,0.16,Robert L Bradshaw
17.367,102.8,84.1,0.00,Udorn Ab (Usaf)
17.386,102.788,86.7,0.00,Udon Thani
17.4,-83.933,81.8,0.00,Islas Del Cisne
17.4,104.817,90.1,0.00,Thakhek West
17.439,101.722,89.0,0.00,Loei
17.533,-14.683,96.4,0.00,Boutilimit
17.555,120.356,85.1,0.00,Vigan
17.617,100.1,94.1,0.00,Uttaradit
17.633,95.8,92.3,0.00,Tharrawaddy
17.638,121.731,88.3,0.00,Tuguegarao
17.65,-101.45,80.6,0.91,Zihuatanejo
17.867,102.75,87.5,0.00,Nong Khai
17.917,19.111,95.3,0.00,Faya Largeau
17.936,-76.788,81.4,0.00,Norman Manley Intl
17.988,102.563,82.8,0.00,Wattay Intl
18.017,-92.95,89.6,0.91,Villahermosa      &
18.05,104.317,89.6,0.00,Grove Jones-2
18.098,-15.948,82.4,0.00,Nouakchott
18.132,100.165,92.6,0.00,Phrae
18.167,97.933,90.8,0.00,Mae Sariang
18.178,120.532,86.9,0.00,Laoag Intl
18.217,109.583,81.5,0.00,Sanya
18.251,-71.12,77.7,0.00,Maria Montez Intl
18.255,-65.641,74.6,0.08,Naval Station Roosevelt Roads Ceiba
18.271,99.504,89.3,0.00,Lampang
18.367,121.633,87.5,0.00,Aparri
18.417,-66.0,79.5,0.00,San Juan Intl Arpt
18.43,-69.669,77.7,0.00,De Las Americas Intl
18.433,-69.883,76.7,0.00,Santo Domingo
18.433,-66.011,78.9,0.00,San Juan L M Marin Intl Ap
18.433,1.35,92.5,0.00,Kidal
18.467,94.35,82.8,0.00,Sandoway
18.5,-67.133,76.2,0.00,Aquadilla/Borinquen
18.504,-77.913,77.4,0.00,Sangster Intl
18.505,-88.327,72.4,0.00,Chetumal Intl
18.533,73.85,94.6,0.00,Pune
18.57,-11.424,93.2,0.00,Tidjikja
18.617,-99.25,92.5,0.91,Tequesquitengo
18.617,-69.317,77.3,0.00,Cabo Engano
18.65,-91.783,59.6,0.00,Ciudad Del Carmen
18.683,12.917,99.1,0.00,Bilma
18.767,98.963,84.0,0.00,Chiang Mai Intl
18.8,95.217,90.5,0.00,Prome
18.808,100.783,95.0,0.00,Nan
18.917,102.45,81.6,0.00,Vang Vieng(Civ/Mil)
19.05,-69.383,76.6,0.00,Sabana De La Mar
19.089,72.868,87.8,0.00,Chhatrapati Shivaji Maharaj Intl
19.1,108.617,81.6,0.00,Dongfang
19.117,102.917,83.9,0.00,Long Tieng
19.2,-96.133,85.2,0.00,Veracruz/Gen Jara
19.233,101.733,87.1,0.00,Sayaboury
19.233,110.467,80.6,0.00,Qionghai
19.283,166.65,75.4,0.00,Wake Island Airfld
19.3,100.867,87.4,0.00,Nan/Chiang Klang
19.301,97.976,91.1,0.00,Mae Hong Son
19.397,-102.039,68.2,0.00,Licenciado Y Gen Ignacio Lopez Rayon / Uruapan
19.406,-70.605,76.3,1.26,Cibao Intl
19.517,109.583,81.0,0.00,Danxian
19.65,100.817,85.6,0.00,Xieng Lom
19.719,-155.053,70.7,0.00,Hilo International Airport
19.758,-70.57,75.8,0.00,Gregorio Luperon Intl
19.85,-101.026,68.5,0.00,General Francisco J Mujica Intl / Morelia Intl
19.885,99.827,84.6,0.00,Chiang Rai
19.897,102.161,80.2,0.04,Luang Phabang Intl
19.9,-75.15,77.1,0.00,Guantanamo Bay Naval Air Station
20.0,110.25,79.1,0.00,Haikou
20.083,-98.367,70.6,0.00,Tulancingo
20.244,85.818,85.6,0.00,Bhubaneshwar / Biju Patnaik Intl
20.25,-155.883,73.4,0.00,Upolu Point (Cg)   Hawaii  Hawaii
20.25,100.433,87.8,0.00,Ban Houay-Xay
20.451,121.98,81.9,0.00,Basco
20.517,-86.933,81.8,0.00,Cozumel (Fam) Q Roc
20.6,-103.383,70.5,0.00,Guadalajara
20.667,116.717,82.3,0.00,Dongsha
20.683,-105.25,75.5,0.00,Puerto Vallarta
20.783,-156.95,67.9,0.00,Lanai
20.8,121.85,79.3,0.00,Itbayat
20.833,95.833,91.1,0.00,Meiktila
20.9,-156.429,73.6,0.00,Kahului Airport
20.9,70.367,82.8,0.00,Veraval
20.917,-156.683,78.4,0.00,Kaanapali  Maui   Hawaii
20.933,-17.03,68.6,0.00,Nouadhibou
20.937,-89.658,88.4,0.00,Licenciado Manuel Crescencio Rejon Int / Merida Intl
20.95,-97.4,85.1,0.00,Tuxpan.Ver.
20.967,-92.317,81.6,0.00,Triangulos Reefs
21.15,-157.1,73.6,0.00,Molokai (Amos)
21.2,72.833,93.6,0.00,Surat
21.217,110.4,80.0,0.08,Zhanjiang
21.317,-158.067,75.8,0.00,Kalaeloa Arpt
21.324,-157.929,75.8,0.00,Honolulu International Airport
21.45,-157.768,73.5,0.00,Kaneohe Mcas
21.45,-71.15,78.9,0.00,Turks Island
21.483,40.533,81.2,0.00,Taif/At Taif
21.483,109.1,78.8,0.08,Beihai
21.487,-158.028,72.2,0.00,Wheeler Army Airfield
21.5,39.2,82.2,0.00,Jeddah Intl
21.5,101.583,72.2,1.02,Mengla
21.517,-78.233,76.1,1.26,Florida  Camaguey
21.733,112.767,81.1,0.00,Shangchuan Dao
21.867,111.967,79.7,0.00,Yangjiang
21.95,108.617,78.8,0.00,Qinzhou
21.983,96.1,91.0,0.00,Mandalay
21.984,-159.341,75.4,0.00,Lihue Airport
22.0,100.783,70.2,0.24,Jinghong
22.0,120.75,81.9,0.02,Hengchun (=595590)
22.029,121.534,76.1,0.00,Lanyu
22.033,-159.783,76.3,0.00,Barking Sands Pacific Missile Range Fac Arpt
22.041,120.73,82.2,0.00,Hengchun
22.05,-98.8,69.8,0.00,Tamuin/Villa Tamuin
22.15,-159.65,56.8,0.00,Kokee  Kauai  Hawaii
22.15,113.592,80.2,0.00,Macau Intl
22.254,-100.931,79.4,0.00,Ponciano Arriaga Intl / San Luis Potosi Intl
22.283,-97.85,81.7,0.00,Tampico
22.3,114.167,80.8,0.00,Hong Kong Observatory
22.309,70.78,91.9,0.00,Rajkot
22.309,113.915,80.6,0.00,Hong Kong Intl
22.35,110.933,77.6,0.16,Xinyi
22.35,120.9,83.8,0.00,Dawu
22.367,106.75,80.6,0.12,Longzhou
22.417,120.55,84.7,0.00,Chia Tung
22.467,-111.533,76.1,0.00,Puerto Cortes
22.467,120.433,85.6,0.00,Donggang (=595530)
22.5,103.95,79.3,0.20,He-Kou
22.55,-83.3,74.8,1.18,Paso Real De San Diego  Pinar Del Rio
22.567,99.933,63.5,0.12,Lancang
22.577,120.35,79.7,0.00,Kaohsiung Intl
22.608,108.172,78.2,0.59,Wuxu
22.617,101.817,67.3,0.75,Jiangcheng
22.633,120.283,86.4,0.00,Kaohsiung
22.639,113.811,80.2,0.00,Baoan Intl
22.655,88.447,89.8,0.00,Netaji Subhash Chandra Bose Intl
22.672,120.462,82.1,0.00,Pingtung South
22.683,-12.7,86.0,0.00,F Derik
22.7,120.482,80.2,0.00,Pingtung North
22.722,75.801,90.5,0.00,Devi Ahilyabai Holkar
22.75,121.15,79.7,0.21,Taidong (=595620)
22.767,81.9,90.5,0.00,Pendra Road
22.767,100.983,63.5,0.04,Simao
22.783,115.367,78.3,0.00,Shanwei
22.783,120.262,81.4,0.00,Gangshan
22.793,121.182,80.3,0.00,Jhihhang
22.8,5.433,79.7,0.00,Tamanrasset
22.95,120.206,81.1,0.00,Tainan
22.989,-82.409,74.1,0.00,Jose Marti Intl
23.0,120.217,83.2,0.00,Tainan (=593580)
23.05,112.467,82.0,0.00,Gaoyao
23.1,121.367,79.7,0.00,Cheng-Kung
23.178,80.052,93.7,0.00,Jabalpur
23.267,119.667,80.6,0.00,Dongshi
23.3,105.95,76.7,0.00,Napo
23.314,85.322,93.7,0.00,Birsa Munda
23.392,113.299,78.5,0.00,Baiyun Intl
23.4,110.083,78.5,0.20,Guiping
23.4,116.683,78.3,0.00,Shantou / Chaoshan
23.45,103.333,69.0,0.08,Mengzi
23.462,120.393,80.0,0.00,Chiayi
23.467,87.433,92.2,0.00,Panagarh
23.483,111.3,74.3,0.39,Wuzhou
23.483,120.95,47.3,0.00,Mount Morrison
23.5,119.5,82.1,0.00,Penghu Islands
23.5,120.45,78.5,0.00,Chiayi
23.517,119.567,79.9,0.00,Magong
23.517,120.8,57.2,0.00,Mount Alisan
23.567,99.083,69.1,0.39,Mengding
23.569,119.628,79.9,0.00,Magong / Penghu
23.6,101.983,75.9,0.00,Yuanjiang
23.7,-15.867,68.6,0.00,Villa Cisneros(Mil)
23.742,-99.17,92.9,0.59,Ciudad Victoria   Tamps.
23.8,114.733,78.8,0.00,Heyuan
23.867,-166.283,75.2,0.00,French Frigate Shoals
23.883,113.517,79.1,0.00,Fogang
23.883,120.85,72.0,0.00,Joyutang
23.887,91.24,74.5,0.00,Agartala
23.9,106.6,83.5,0.00,Baise
23.95,100.217,61.6,0.08,Lincang
23.983,121.6,79.2,0.00,Hua-Lien City
24.0,97.85,66.7,0.12,Ruili
24.017,121.617,78.5,0.83,Hualian
24.023,121.618,78.7,0.00,Hualien
24.067,105.067,68.9,0.00,Guangnan
24.144,38.063,82.0,0.00,Yenbo / Prince Abdulmohsin Bin Abdulaziz
24.15,120.683,79.7,0.00,Taichung (=591580)
24.167,-110.3,76.3,0.00,La Paz  Bcs
24.179,23.314,80.6,0.00,Kufra
24.183,120.65,80.1,0.00,Taichung
24.186,120.654,79.4,0.00,Taichung
24.2,110.517,77.7,0.00,Mengshan
24.265,120.621,77.5,0.00,Taichung Intl / Ching Chuang Kang Ab
24.283,116.067,80.0,0.00,Mei Xian
24.29,153.979,78.4,0.00,Minami Torishima
24.293,9.452,83.5,0.00,Tiska
24.345,124.187,80.2,0.00,New Ishigaki
24.35,109.4,81.3,0.08,Liuzhou
24.367,114.483,77.6,0.00,Lianping
24.428,118.359,75.4,0.00,Shang Yi / Kinmen
24.45,102.567,66.7,0.00,Yuxi
24.533,103.767,68.3,0.00,Luxi
24.544,118.128,76.7,0.00,Gaoqi
24.553,39.705,89.8,0.00,Prince Mohammad Bin Abdulaziz
24.557,-81.755,78.0,0.00,Key West International Airport
24.583,-81.683,78.4,0.00,Key West Nas
24.65,77.317,93.8,0.00,Guna
24.667,113.6,77.3,0.08,Shaoguan
24.7,108.05,78.8,0.00,Hechi
24.722,46.725,80.0,0.00,King Salman Ab
24.75,121.767,80.0,0.00,Ilan
24.75,121.783,77.4,0.00,Ilan City
24.765,-107.475,76.5,0.00,Culiacan Intl
24.783,125.295,78.8,0.00,Miyako
24.784,141.323,77.9,0.00,Iwoto
24.8,112.367,77.0,0.04,Lianzhou
24.818,120.939,79.8,0.00,Hsinchu
24.833,120.0,81.0,0.00,Hsinchu City
24.907,67.161,84.5,0.00,Jinnah Intl
24.95,115.65,77.3,0.00,Xunwu
24.983,98.5,59.7,0.04,Tengchong
24.992,102.744,65.1,0.00,Wujiaba / Changshui
25.017,101.517,62.9,0.00,Chuxiong
25.033,121.517,76.0,0.00,Taibei
25.039,-77.466,74.3,0.00,Nassau Intl / Lynden Pindling Intl
25.05,121.217,78.8,0.00,Taoyuan
25.056,121.243,79.0,0.00,Taoyuan
25.067,116.35,80.6,0.00,Shanghang
25.067,121.533,77.4,0.00,589690
25.068,61.805,85.3,0.00,Jiwani
25.069,121.552,77.4,0.00,Songshan
25.1,117.017,78.8,0.00,Longyan
25.117,99.183,62.9,0.00,Baoshan
25.15,121.8,80.2,0.00,Chilung
25.167,121.433,80.2,0.00,Tanshui
25.218,110.039,75.5,1.10,Liangjiang
25.237,-11.589,82.8,0.00,Bir Moghrein
25.433,105.183,64.4,0.00,Xingren
25.483,-80.383,74.1,0.00,Homestead Afb Airport
25.517,119.783,75.2,0.00,Pingtan
25.568,-103.411,75.2,0.00,Torreon Intl
25.583,103.833,67.6,0.00,Zhanyi
25.617,111.6,77.9,1.30,Daoxian
25.633,122.067,79.8,0.00,Pengjia Yu
25.671,32.707,83.1,0.00,Luxor Intl
25.673,21.091,73.8,0.00,Tazerbo
25.7,100.183,58.7,0.00,Dali
25.717,118.1,61.9,0.00,Jiuxian Shan
25.733,101.867,75.9,0.00,Yuanmou
25.733,112.967,79.4,0.00,Chenzhou
25.767,-97.533,79.5,0.00,Matamoros Intl
25.788,-80.317,77.3,0.00,Miami International Airport
25.8,-109.117,80.4,0.00,Los Mochis (City)
25.847,131.263,78.3,0.00,Minami Daito
25.85,114.95,79.3,0.00,Ganzhou
25.85,116.367,76.2,0.00,Changting
25.866,-100.237,87.3,0.00,Del Norte Intl
25.914,-97.423,76.3,0.00,Brownsville/S Padre Island Intl Ap
25.967,108.533,75.6,1.14,Rongjiang
25.967,117.35,78.1,0.00,Yong'An
26.0,-111.367,75.9,0.00,Loreto            &
26.072,-80.154,76.2,0.00,Fort Lauderdale Hol
26.083,119.283,77.3,0.00,Fuzhou
26.106,91.586,81.7,0.00,Guwahati Intl / Lokpriya Gopinath Bordoloi Intl
26.133,34.25,80.6,0.00,Kosseir
26.16,119.958,72.7,0.00,Nangan
26.167,109.783,73.4,0.39,Tongdao
26.167,119.933,72.5,0.00,Mazu
26.183,117.617,71.2,0.00,Sanming
26.184,-98.254,79.3,0.00,Mc Allen Miller Intl Arpt
26.196,127.646,78.6,0.00,Naha
26.199,36.476,80.6,0.00,Wejh
26.2,127.683,78.4,0.00,Naha
26.228,-97.654,79.8,0.00,Valley International Arpt
26.233,111.617,74.4,0.75,Lingling
26.233,120.0,74.6,0.00,Matsu
26.265,50.152,76.3,0.00,King Abdulaziz Ab
26.267,50.617,77.1,0.00,Bahrain/Muharraq
26.267,127.75,78.5,0.00,Okinawa Marine Corps Air Station
26.3,127.767,81.9,0.00,Hamby Aaf/Buckner
26.356,127.768,80.1,0.00,Kadena Ab
26.4,103.25,66.2,0.00,Huize
26.517,119.533,80.6,0.04,Luoyuan
26.539,106.801,67.1,0.83,Longdongbao
26.559,-78.696,75.9,0.00,Grand Bahama Intl
26.585,-81.861,73.6,0.00,Fort Myers Page Field
26.633,118.15,77.3,0.00,Nanping
26.65,102.25,68.2,0.00,Huili
26.685,-80.099,77.6,0.00,West Palm Beach Intl Arpt
26.733,110.633,70.1,0.20,Wugang
26.74,83.45,88.5,0.00,Gorakhpur
26.75,-80.95,78.3,0.00,Clewiston
26.761,80.889,91.4,0.00,Lucknow / Chaudhary Charan Singh Intl
26.8,113.533,75.2,0.00,Chaling
26.833,100.217,54.7,0.00,Lijing
26.85,116.333,76.7,0.00,Guangchang
26.867,104.283,60.1,0.16,Weining
26.967,108.667,71.2,0.20,Sansui
26.987,14.473,74.4,0.00,Sebha
27.0,120.7,68.9,0.00,Taishan
27.047,31.012,84.6,0.00,Asyut Intl
27.05,118.317,76.6,0.00,Jian'Ou
27.092,142.191,73.6,0.00,Chichi Jima Bonin Island
27.117,114.967,76.7,0.00,Ji'An
27.152,-13.219,68.5,0.00,Hassan I
27.156,77.961,93.2,0.00,Agra
27.183,111.45,71.6,0.12,Shaoyang
27.233,2.5,81.3,0.00,In-Salah
27.3,-112.283,73.4,0.00,Santa Rosalia
27.3,105.233,65.7,0.00,Bijie
27.3,112.7,63.8,0.24,Nanyue
27.333,103.75,65.9,0.00,Zhaotong
27.333,117.467,73.4,0.00,Shaowu
27.333,120.2,74.9,0.00,Fuding
27.426,128.701,78.5,0.00,Okierabu
27.433,-99.567,91.8,0.00,Nuevo Laredo
27.438,41.686,78.5,0.00,Hail
27.45,109.683,73.2,0.51,Zhijiang
27.45,112.2,75.2,0.71,Shuang-Feng
27.483,-109.917,81.1,0.00,Ciudad Obregon  Son
27.484,95.017,86.0,0.00,Dibrugarh
27.5,-97.817,76.0,0.00,Kingsville Nas
27.55,-99.467,82.2,0.00,Laredo Intl Airport
27.567,81.6,90.3,0.00,Bahraich
27.583,116.65,75.7,0.00,Nancheng
27.617,-99.517,87.7,0.00,Laredo Intl Arpt
27.65,-81.333,79.4,0.00,Avon Park Gunnery R
27.653,-80.243,76.6,0.00,Vero Beach Muni
27.683,-97.283,76.0,0.00,Corpus Christi Nas
27.7,-8.167,76.3,0.00,Tindouf
27.733,89.083,35.0,0.00,Pagri
27.741,-98.025,76.8,0.00,Alice International Arpt
27.774,-97.512,76.8,0.00,Corpus Christi International Airport
27.8,114.383,75.7,0.08,Yichun
27.838,-0.186,83.5,0.00,Touat Cheikh Sidi Mohamed Belkebir
27.85,-82.517,74.8,0.00,Mac Dill Afb Airport
27.9,-82.683,75.6,0.00,St Petersburg Clear
27.9,102.267,72.5,0.00,Xichang
27.917,-110.883,72.7,0.00,Guaymas-In-Sonora
27.917,118.533,74.6,0.00,Pucheng
27.932,-15.387,63.2,0.00,Gran Canaria
27.95,108.25,77.9,0.12,Sinan
27.95,117.833,63.2,0.00,Qixian Shan
27.962,-82.54,73.3,0.00,Tampa International Airport
28.0,73.3,91.4,0.00,Bikaner
28.017,120.667,73.4,0.00,Wenzhou
28.05,115.533,77.5,0.00,Qingjiang/Zhangshuz
28.052,9.643,71.1,0.00,In Amenas
28.1,119.083,77.9,0.00,Longquan
28.133,121.217,69.3,0.00,Yu-Huan
28.2,-177.383,71.7,10.63,Henderson Field Airport
28.2,113.083,72.1,0.87,Changsha/Datuopu
28.233,-80.6,74.4,0.00,Patrick Afb Airport
28.317,-16.5,56.5,0.00,Izana
28.335,46.125,90.0,0.00,Al Qaisumah Intl
28.365,36.619,86.0,0.00,Tabuk / Prince Sultan Bin Abdulaziz
28.367,-97.667,78.2,0.00,Chase Naval Air Station
28.394,129.553,77.1,0.00,Naze/Funchatoge
28.417,92.467,44.0,0.08,Lhunze
28.422,79.451,90.2,0.00,Bareilly
28.431,129.713,78.8,0.00,Amami
28.434,-81.325,74.5,0.00,Orlando International Airport
28.45,-16.25,63.5,0.00,Sta. Cruz De Tenerife
28.45,98.883,44.6,0.00,Deqen
28.45,119.917,76.4,0.00,Lishui
28.45,121.883,67.3,0.00,Dachen Dao
28.453,-13.864,63.1,0.00,Fuerteventura
28.457,-99.218,76.6,0.00,Cotulla-La Salle Co Arpt
28.467,110.4,73.1,0.12,Yuanling
28.483,-80.567,74.0,0.00,Cocoa Beach Cape Kennedy Afs
28.483,-16.342,56.6,0.00,Tenerife Norte
28.483,117.983,72.5,0.00,Shangrao
28.545,-81.333,75.9,0.00,Atoka Muni
28.585,77.206,94.5,0.00,Safdarjung
28.617,121.417,74.8,0.00,Hongjia
28.626,-17.756,67.1,0.00,La Palma
28.633,-106.083,67.4,0.00,Chihuahua  Chih.
28.633,87.083,46.4,0.00,Tingri
28.65,70.683,90.1,0.00,Khanpur
28.683,118.25,75.7,0.00,Yushan
28.725,-96.254,76.0,0.00,Palacios Municipal Airport
28.78,-81.244,77.6,0.00,Orlando Sanford Airport
28.8,104.6,78.1,0.00,Yibin
28.817,120.917,64.9,0.00,Kuocang Shan
28.833,108.767,67.7,0.31,Youyang
28.861,-96.93,77.8,0.00,Victoria Regional Airport
28.865,115.9,73.9,0.00,Changbei Intl
28.883,64.4,84.2,0.00,Dal Bandin
28.883,105.433,81.0,0.00,Luzhou
28.945,-13.605,62.6,0.00,Lanzarote
28.95,107.15,61.3,0.00,Jinfo Shan (Mount)
28.967,118.867,75.4,0.00,Qu Xian
28.983,50.833,74.0,0.00,Bushehr
29.0,101.5,50.2,0.00,Jiulong
29.033,21.567,78.1,0.00,Jalo
29.033,66.583,68.4,0.00,Kalat
29.033,114.583,68.8,0.20,Xiushui
29.05,100.3,46.1,0.20,Daocheng
29.05,111.683,71.8,0.31,Changde
29.083,-110.95,81.4,0.00,Hermosillo Intl   &
29.083,116.883,71.6,0.00,Gu-Xian-Du
29.117,15.95,68.0,0.00,Hon
29.12,-91.87,63.5,0.00,South Marsh 268A
29.15,119.633,80.2,0.00,Jinhua
29.179,75.755,91.8,0.00,Hisar
29.183,-81.048,73.7,0.00,Daytona Beach Intl
29.2,121.95,70.8,0.00,Shipu
29.227,47.969,76.7,0.00,Kuwait Intl
29.237,0.276,81.7,0.00,Timimoun
29.25,88.883,51.0,0.00,Xigaze
29.273,-94.859,76.4,0.00,Scholes Intl At Glston Apt
29.3,-94.8,74.3,0.00,Galveston
29.3,117.2,70.5,0.00,Jingdezhen
29.333,-89.408,75.4,0.00,Baton Rouge Metro R
29.367,-100.783,78.0,0.00,Laughlin Afb Airport
29.369,-10.18,62.2,0.00,Sidi Ifni
29.378,-100.927,76.5,0.00,Del Rio International Airport
29.383,-98.583,73.8,0.04,Lackland Air Force Base (Kelly Field Annex)
29.383,113.083,71.6,1.65,Yueyang
29.4,110.167,74.9,0.04,Sangzhi
29.45,-90.267,74.2,0.00,South Laforche
29.476,60.907,74.1,0.00,Zahedan Intl
29.517,103.333,48.5,0.00,Emei Shan
29.517,106.483,70.5,0.00,Chong-Qing
29.533,-98.262,71.5,0.02,Randolph Afb Airport
29.533,109.383,73.4,0.08,Laifeng
29.539,52.589,68.7,0.00,Shiraz Shahid Dastghaib Intl
29.544,-98.484,74.9,0.00,San Antonio International Airport
29.561,34.96,81.8,0.00,Eilat
29.567,48.2,70.2,0.00,Beacon N6
29.567,94.467,50.8,0.24,Nyingchi
29.583,105.05,76.6,0.00,Neijiang
29.583,111.3,73.8,0.08,Shi-Men
29.583,115.983,62.1,0.00,Lu Shan
29.6,120.817,76.7,0.00,Shengxian
29.617,-95.167,76.9,0.00,Ellington Field Airport
29.626,43.491,86.7,0.00,Rafha
29.638,-95.282,77.2,0.00,William P Hobby
29.667,91.133,48.7,0.00,Lhasa / Gonggar
29.692,-82.276,72.6,0.00,Gainesville Rgnl
29.733,-85.033,72.2,0.00,Apalachicola Muni Airport
29.75,24.533,68.4,0.00,Gighbub
29.8,47.767,86.5,0.00,Umm Al-Aish
29.817,-90.017,76.9,0.01,New Orleans Nas
29.917,121.467,77.9,0.00,Ningbo
29.951,-94.021,76.5,0.00,Southeast Texas Regional Airport
29.98,-95.36,76.3,0.00,G Bush Intercontinental Ap/Houston Ap
29.983,103.0,77.9,0.00,Ya'An
29.997,-90.278,75.7,0.08,Louis Armstrong New Orleans Intl Ap
30.0,99.1,59.3,0.00,Batang
30.0,100.267,38.4,0.04,Litang
30.033,122.117,70.3,0.00,Dinghai
30.05,101.967,54.9,0.00,Kangding
30.067,-85.583,71.7,0.00,Tyndall Afb Airport
30.117,30.917,70.8,0.00,Cairo West
30.122,31.406,75.3,0.00,Cairo Intl
30.125,-93.228,76.5,0.04,Lake Charles Regional Airport
30.133,-2.167,78.4,0.00,Beni-Abbes
30.133,118.15,56.9,0.00,Huang Shan
30.152,9.715,68.0,0.00,Ghadames East
30.167,35.783,73.7,0.00,Ma'An
30.2,-97.683,72.7,0.00,Bergstrom Afb/Austi
30.205,-91.988,77.9,0.06,Lafayette Regional Airport
30.217,-81.883,71.9,0.00,Cecil Fld
30.228,120.432,76.3,0.00,Xiaoshan
30.233,-81.667,71.8,0.00,Jacksonville Nas
30.274,56.951,69.1,0.00,Kerman
30.283,109.467,71.3,0.00,Enshi
30.317,78.033,85.1,0.00,Dehradun
30.321,-97.76,72.3,11.42,Austin/Mueller Muni
30.333,112.183,70.6,0.00,Jiangling
30.35,-87.317,76.5,0.00,Pensacola Nas
30.35,119.417,62.6,0.00,Tianmu Shan (Mtns)
30.371,-104.017,62.2,0.00,Marfa Ap
30.371,48.228,81.4,0.00,Abadan
30.381,-9.546,60.4,0.00,Inezgane
30.383,13.583,71.6,0.00,Gariat El-Sharghia
30.393,-84.353,72.5,0.00,Tallahassee Regional Airport
30.4,-89.067,75.1,0.00,Gulfport Biloxi Int
30.4,-81.417,75.8,0.00,Mayport Naf
30.417,-88.917,74.4,0.00,Keesler Air Force Base
30.417,-86.683,75.7,0.00,Hurlburt Field Airport
30.483,-87.35,73.8,0.00,Pensacola Saufley Nas
30.483,-86.517,73.1,0.00,Eglin Afb Airport
30.495,-81.694,70.4,0.00,Jacksonville International Airport
30.5,101.483,47.3,0.16,Qian-Ning
30.533,-87.2,74.6,0.00,Pensacola Ellyson Fld Naas
30.533,38.9,76.7,0.00,Maarik
30.537,-91.147,77.4,0.01,Baton Rouge Metro R
30.547,130.95,76.6,0.00,Tanegashima
30.549,47.662,77.5,0.00,Basrah Intl
30.55,81.433,43.1,0.00,T'U-Ko-Erh-Ho-Kung
30.571,2.86,70.3,0.00,El Golea
30.579,103.947,73.4,0.00,Shuangliu
30.589,-96.365,71.3,0.55,Easterwood Fld
30.617,116.967,71.4,0.00,Anqing
30.65,-86.517,71.1,0.00,Duke Fld
30.683,107.8,74.3,0.00,Liangping
30.688,-88.246,72.3,0.47,Mobile Regional Airport
30.717,-87.017,72.0,0.08,Whiting Field Naval Air Station North
30.717,20.167,63.4,0.00,Agedabia
30.717,130.983,74.3,0.00,Tanegashima
30.733,111.367,73.7,0.00,Yichang
30.733,122.45,67.2,0.00,Shengsi
30.75,106.133,79.1,0.00,Gaoping
30.75,115.667,71.6,0.00,Yingshan
30.783,-86.517,71.6,0.00,Bob Sikes Airport
30.783,-83.277,71.1,0.00,Valdosta Regional Airport
30.784,114.208,70.3,0.24,Tianhe
30.907,41.138,86.0,0.00,Arar
30.939,-6.909,70.2,0.00,Ouarzazate
30.95,88.633,35.6,0.00,Xainza
30.967,-83.2,72.9,0.00,Moody Afb/Valdosta
31.017,46.233,77.7,0.00,Nasiriya
31.017,102.367,59.5,0.00,Xiao-Jin
31.017,109.533,78.0,0.00,Fengjie
31.05,-93.183,78.3,0.00,Polk Army Airfield
31.067,-97.833,67.6,0.12,Robert Gray Aff Airport
31.098,61.544,80.6,0.00,Zabol
31.133,-97.717,69.3,0.02,Fort Hood
31.133,-92.567,83.4,0.00,Claiborne Range  La. (Afs)
31.133,114.95,73.1,0.00,Macheng
31.15,-97.4,70.1,0.00,Draughon Miller Cen
31.15,97.167,52.9,0.04,Qamdo
31.152,-81.391,71.5,0.00,Malcolm Mc Kinnon Airport
31.167,112.633,70.3,0.00,Zhongxiang
31.183,-90.471,74.1,1.18,Mcom/Pike Co/J E Lws Fd Ap
31.184,29.949,65.1,0.00,Alexandria Intl
31.198,121.336,71.3,0.00,Hongqiao Intl
31.2,107.5,78.8,0.00,Da Xian
31.233,34.267,68.8,0.00,Gaza International Airport
31.236,-94.754,69.7,0.16,Angelina County Airport
31.25,-81.467,71.5,0.00,Brunswick Golden Is
31.267,-85.717,73.4,0.00,Cairns Army Airfield (Fort Rucker)
31.267,120.617,73.8,0.00,Suzhou
31.287,34.723,69.8,0.00,Teyman
31.309,-86.394,66.8,2.09,Andalusia Opp
31.317,-92.55,76.9,0.02,Alexandria Int
31.317,-85.45,72.4,0.00,Dothan Rgnl
31.333,118.35,72.6,0.00,Wu-Hu
31.352,-100.495,67.2,0.00,San Angelo Regional/Maths Field Ap
31.367,90.017,32.3,0.00,Baingoin
31.368,130.845,73.2,0.00,Kanoya
31.395,-92.291,71.2,0.03,Esler Regional Airport
31.399,-9.683,61.7,0.00,Essaouira / Mogador Intl
31.4,116.333,69.1,0.00,Huoshan
31.417,95.6,46.8,0.04,Dengqen
31.433,119.483,75.2,0.00,Liyang
31.45,104.733,77.7,0.00,Mianyang
31.458,-109.606,61.3,0.00,Bisbee Douglas Intl
31.483,92.067,32.8,0.00,Nagqu
31.514,10.598,64.4,0.00,Nalut
31.536,-84.194,69.9,0.00,Sw Georgia Regional Arpt
31.536,-82.507,72.7,0.00,Alma/Bacon Co.
31.55,130.55,71.5,0.00,Kagoshima
31.583,105.967,78.1,0.00,Langzhong
31.588,-110.344,66.8,0.00,Sierra Vista Municipal-Libby Aaf Airport
31.607,-8.036,67.0,0.00,Menara
31.617,100.0,46.0,0.12,Garze
31.619,-97.228,68.5,7.48,Waco Regional Airport
31.633,-106.433,75.0,0.00,Ciudad Intl
31.646,-2.27,73.9,0.00,Bechar / Boudghene Ben Ali Lotfi
31.733,98.567,44.6,0.04,Dege
31.742,118.862,69.5,0.00,Lukou
31.767,119.95,74.3,0.00,Changzhou
31.78,-103.202,65.9,0.00,Winkler County Airport
31.78,117.298,73.7,0.00,Luogang / Xinqiao
31.8,-98.95,69.1,0.00,Brownwood Municipal
31.803,130.719,74.0,0.00,Kagoshima
31.811,-106.376,66.4,0.00,El Paso International Airport
31.831,-104.809,60.0,0.00,Guadalupe Pass
31.85,47.167,74.8,0.00,Amarah
31.85,102.7,45.2,0.00,Ma-Tang
31.861,-86.012,67.3,0.00,Troy Municipal Airport
31.867,23.9,64.0,0.00,Tobruk
31.877,131.449,75.8,0.00,Miyazaki
31.883,-81.567,70.2,0.00,Ft Stewart/Wright
31.883,93.783,37.7,0.00,Sog Xian
31.9,102.233,62.6,0.00,Barkam
31.917,5.413,71.9,0.00,Ouargla / Ain Beida
31.933,131.417,74.3,0.00,Miyazaki
31.948,-102.209,62.2,0.00,Midland International Airport
31.95,44.317,79.7,0.00,Najaf
31.95,44.95,76.0,0.00,Diwaniya
31.973,35.992,70.0,0.00,Marka Intl
32.009,-81.146,75.7,0.00,Hunter Aaf
32.011,34.887,68.6,0.00,Ben Gurion
32.033,110.767,70.7,0.00,Fangxian
32.067,108.033,71.3,0.00,Wanyuan
32.067,121.6,66.2,0.00,Lusi
32.084,131.451,72.5,0.00,Nyutabaru
32.097,20.269,61.6,0.00,Benina Airport
32.1,120.867,71.6,0.00,Nantong/Jinsha
32.131,-110.955,66.0,0.00,Tucson International Airport
32.131,-81.202,72.7,0.00,Savannah/Hilton Head Intl Airport
32.133,46.033,74.6,0.00,Kut-Al-Hai
32.133,114.05,71.8,0.00,Xinyang
32.15,112.667,72.5,0.00,Zaoyang
32.161,37.149,72.4,0.00,Prince Hasan
32.167,-110.883,65.4,0.00,Davis-Monthan Afb Airport
32.167,115.617,70.8,0.00,Gushi
32.217,-101.517,64.7,0.00,Webb Afb
32.233,-101.5,67.2,0.00,Big Spring
32.25,-107.717,62.8,0.00,Deming Muni
32.25,96.217,40.4,0.00,Nangqen
32.283,-9.233,59.7,0.00,Safi
32.283,100.333,37.1,0.04,Sertar
32.3,-86.408,69.2,2.40,Montgomery Rgnl (Dannelly Fd) Ap
32.3,84.05,37.9,0.00,Lumaringbo
32.306,10.382,77.0,0.00,Remada
32.321,-90.078,70.3,1.42,Jackson International Airport
32.334,-104.258,66.4,0.00,Cavern City Air Trml Arpt
32.335,-88.744,70.1,2.64,Key Field Airport
32.35,-86.983,66.6,1.42,Craig Fld
32.35,-85.0,67.8,1.14,Lawson Aaf Airport
32.354,-95.403,66.4,1.34,Tyler Pounds Regional Arpt
32.367,-64.683,66.9,0.00,Naval Atlantic Meterology & Oceanography Facility
32.367,-6.4,66.2,0.00,Beni-Mellal
32.383,-86.35,68.1,1.38,Maxwell Afb Airport
32.384,3.794,72.9,0.00,Noumerat Moufdi Zakaria
32.385,-94.712,68.1,1.26,Longview
32.4,48.383,78.4,0.00,Dezful
32.411,-99.682,62.2,0.00,Abilene Regional Airport
32.417,104.517,70.8,0.00,Pingwu
32.433,-99.85,63.3,0.00,Abilene Dyess Afb
32.433,111.733,71.9,0.00,Laohekou
32.447,-93.824,66.5,2.01,Shreveport Regional Airport
32.483,-80.717,71.5,0.00,Beaufort Mcas
32.5,-93.667,67.5,2.17,Barksdale Air Force Base
32.5,80.083,39.2,0.00,Shiquanhe
32.516,-92.041,66.9,1.10,Monroe Regional Airport
32.516,-84.942,67.9,1.42,Columbus Metro Airport
32.533,-116.983,51.8,0.00,Tijuana
32.539,38.195,76.0,0.00,H4
32.55,-88.567,68.5,0.98,Meridian Nas/Mc Cain Fd Ap
32.555,12.056,64.8,0.00,Zuara
32.567,-117.117,62.0,0.00,Naval Auxiliary Landing Fd
32.567,100.583,45.5,0.00,Luo-Xue
32.583,116.783,71.2,0.00,Shouxian/Shouyang
32.633,-116.467,72.9,0.00,Campo
32.633,-115.217,81.0,0.00,Mexicali
32.633,-108.167,70.9,0.00,Bisbee Douglas Intl
32.633,-83.6,65.7,0.79,Robins Afb Airport
32.664,13.159,66.4,0.00,Tripoli Intl
32.666,128.833,71.6,0.00,Fukue
32.667,-114.6,75.3,0.00,Yuma Marine Corps Air Station/Yuma Intl Airport
32.667,35.183,67.3,0.00,Ramat-David
32.667,103.6,56.5,0.00,Songpan
32.683,-16.767,63.1,0.39,Funchal/S.Catarina
32.683,-4.733,63.3,0.00,Midelt
32.685,-83.653,67.6,0.51,Middle Georgia Regional Airport
32.693,-103.213,60.8,0.00,Lea County Regional Airport
32.7,-117.2,58.9,0.00,North Island Nas
32.7,128.833,71.1,0.00,Fukue
32.717,109.033,77.8,0.00,Ankang
32.717,133.017,70.1,0.00,Shimizu
32.733,-96.967,65.8,0.02,Naval Air Station Operations
32.733,129.867,72.7,0.00,Nagasaki
32.734,-117.183,59.8,0.00,San Diego International Airport
32.751,51.862,63.3,0.00,Esfahan Shahid Beheshti Intl
32.767,-97.45,64.9,0.00,Fort Worth Naval Air Station Jrb/Carswell Field
32.782,-98.06,65.2,0.00,Mineral Wells Airport
32.783,22.583,59.5,0.00,Derna
32.783,119.45,70.2,0.00,Gaoyou
32.8,21.883,52.9,0.00,Shahat
32.817,130.7,71.8,0.00,Kumamoto
32.819,-97.361,67.2,0.00,Fort Worth Meacham
32.833,-116.967,62.8,0.55,Gillespie Fld
32.834,-115.579,73.8,0.00,Imperial Co
32.837,130.855,75.0,0.00,Kumamoto
32.85,-106.1,62.2,0.00,Holloman Afb
32.85,-79.95,72.5,0.00,Charleston Nas
32.85,117.3,69.1,0.00,Bengbu
32.85,120.283,68.3,0.00,Dongtai
32.852,-96.856,68.8,0.00,Dallas Love Field Airport
32.867,-117.133,54.4,0.00,San Diego Miramar Nas
32.867,115.733,72.7,0.00,Fuyang
32.883,-112.717,82.9,0.00,Gila Bend Af Aux
32.898,-97.019,66.1,0.00,Dallas/Ft Worth International Ap
32.898,59.266,67.6,0.00,Birjand
32.899,-80.041,69.6,0.12,Charleston Afb/International Airport
32.9,95.3,41.6,0.00,Zadoi
32.9,108.517,77.9,0.00,Han-Yin
32.917,129.914,72.6,0.00,Nagasaki
32.933,113.917,70.1,0.00,Zhumadian
32.967,35.5,71.2,0.00,Har-Knaan (Zefat)
33.017,96.95,44.6,0.00,Yushu
33.023,-118.588,56.1,0.00,Nalf/F. Sherman Fld Arpt
33.033,40.283,76.3,0.00,Rutbah
33.067,107.033,76.1,0.00,Hanzhong
33.073,-16.35,62.4,0.12,Porto Santo
33.1,112.483,72.6,0.00,Nanyang
33.115,139.786,68.4,0.00,Hachijojima
33.117,139.783,67.3,0.16,Hachijojima
33.128,-117.28,56.0,0.00,Mc Clellan Palomar
33.2,126.267,64.8,0.00,Mosulpo (Kor-Afb)
33.212,-87.616,66.2,1.46,Tuscaloosa Municipal Arpt
33.221,-92.814,64.0,2.87,S. Ar Rgnl At Gdwin Fld Ap
33.233,131.617,69.0,0.00,Oita
33.237,-107.268,61.9,0.00,Nogales (Amos)
33.24,-119.458,52.2,0.00,San Nicolas Island Naval Outlying Field
33.25,126.567,66.2,0.00,Seogwipo
33.25,134.183,67.2,0.00,Murotomisaki
33.267,44.233,77.8,0.00,Baghdad Intl Airport
33.3,-117.35,60.2,0.00,Marine Corps Air Station
33.3,-111.667,73.0,0.00,Williams Gateway Airport
33.308,-104.508,64.2,0.00,Roswell International Air Center Ap
33.317,130.417,75.6,0.00,Metabaru (Jasdf)
33.333,118.667,70.2,0.00,Hongze Hu (Lake)
33.364,-81.963,65.9,0.04,Augusta Regional At Bush Field Ap
33.367,-7.59,60.8,0.00,Mohammed V
33.367,35.583,65.5,0.00,Merdjayoun
33.4,104.917,76.8,0.00,Wudu
33.412,36.516,65.9,0.00,Damascus Intl
33.417,109.15,71.6,0.00,Chen-An
33.428,-112.004,74.9,0.00,Phoenix Sky Harbor Intl Airport
33.433,48.283,62.9,0.00,Khorram Abad
33.45,108.25,72.9,0.00,Wen-Huang-Ping
33.45,135.75,68.7,0.00,Shionomisaki
33.456,-93.988,66.9,1.22,Texarkana Regional Airport-Webb Field
33.467,101.483,45.8,0.00,Jigzhi
33.479,131.737,68.7,0.00,Oita
33.483,38.667,63.0,0.00,Jabal Ettanf
33.496,-90.087,66.6,0.63,Greenwood Leflore
33.505,-5.153,54.7,0.00,Ifrane
33.511,6.777,78.8,0.00,Guemar
33.511,126.493,67.7,0.00,Jeju Intl
33.517,126.533,65.4,0.00,Jeju
33.533,110.883,75.7,0.00,Shang-Nan
33.546,133.669,71.1,0.00,Kochi
33.55,-112.367,77.9,0.00,Luke Afb Airport
33.557,-7.66,61.3,0.00,Anfa
33.566,-86.745,65.3,1.38,Birmingham International Airport
33.567,133.55,68.9,0.00,Kochi
33.583,102.967,47.9,0.00,Ruo'Ergai
33.583,130.383,73.2,0.00,Fukuoka
33.586,130.451,73.4,0.00,Fukuoka
33.587,-85.856,67.4,1.69,Anniston Metropolitan Arpt
33.6,-102.05,59.1,0.71,Reese Afb/Lubbock
33.6,119.033,68.0,0.00,Qingjiang
33.619,-114.714,80.2,0.00,Blythe Airport
33.627,-116.159,77.2,0.00,Desert Resorts Rgnl Arpt
33.63,-84.442,64.4,0.28,Hartsfield-Jackson Atlanta Intl Ap
33.633,-95.45,67.3,0.00,Cox Fld
33.65,-118.0,60.1,0.00,Huntington Beach
33.65,-88.45,66.5,1.61,Columbus Afb Airport
33.662,135.364,72.5,0.00,Nanki Shirahama
33.666,-101.823,57.1,0.39,Lubbock International Airport
33.667,-117.733,57.4,0.00,El Toro Mcas
33.668,56.893,72.8,0.00,Tabas
33.68,-117.866,61.3,0.00,J. Wayne Apt-Orange Co Apt
33.683,-78.933,71.0,0.04,Myrtle Beach Intl Airport
33.685,131.04,66.6,0.00,Tsuiki
33.7,-117.833,55.8,0.00,Marine Corps Air Station
33.717,1.083,64.0,0.00,El-Bayadh
33.749,129.785,70.7,0.00,Iki
33.75,-118.233,64.0,0.00,Long Beach Naval Stn
33.75,99.65,39.6,0.00,Darlag
33.75,105.75,73.1,0.00,Cheng-Xian
33.75,120.3,66.2,0.00,Sheyang
33.767,-84.517,66.3,0.00,Fulton Co Arpt Brow
33.783,114.517,71.9,0.00,Xihua
33.783,115.733,70.3,0.00,Boxian
33.8,97.133,33.3,0.00,Qingshui-He
33.812,-118.146,61.6,0.00,Long Beach / Daugherty Field / Airport
33.816,-78.72,68.2,0.00,Grand Strand Airport
33.817,-106.667,67.1,0.00,Stallion Aaf  Nm
33.817,35.767,59.0,0.00,Dahr Baidar
33.821,35.488,69.1,0.00,Rafic Hariri Intl
33.827,132.7,68.4,0.00,Matsuyama
33.833,-116.5,86.1,0.00,Palm Springs Intl
33.836,130.947,68.5,0.00,Kitakyushu
33.85,132.783,71.1,0.00,Matsuyama
33.867,36.0,69.4,0.00,Rayack
33.875,10.775,68.8,0.00,Zarzis / Djerba
33.877,10.103,71.6,0.00,Gabes / Matmata
33.879,-5.515,62.3,0.00,Bassatine
33.883,130.653,67.4,0.00,Ashiya
33.9,-117.25,59.0,0.00,March Air Reserve Base
33.9,117.95,69.8,0.00,Suining
33.917,-84.517,67.2,2.05,Dobbins Air Reserve Base Airport
33.921,-80.801,66.2,0.01,Mc Entire Jngb
33.927,-4.978,62.6,0.00,Saiss
33.93,131.279,66.7,0.00,Yamaguchi Ube
33.938,-118.389,57.2,0.00,Los Angeles International Airport
33.94,8.111,70.2,0.00,Nefta
33.942,-81.118,66.6,0.00,Columbia Metropolitan Airport
33.948,-83.328,64.0,0.08,Athens/Ben Epps Airport
33.95,130.933,69.5,0.00,Shimonoseki
33.967,-80.467,69.8,0.12,Shaw Air Force Base
33.967,113.217,73.9,0.00,Jiaxian
33.979,-98.493,58.8,0.00,Sheppard Afb/Wichita Falls Muni Ap
34.0,134.633,70.4,0.00,Komatsujima (Jasdf)
34.033,36.717,64.4,0.00,Nabk
34.035,131.549,68.4,0.00,Hofu
34.045,131.052,67.4,0.00,Ozuki
34.051,-6.752,61.2,0.00,Rabat Sale Intl
34.067,-117.65,60.5,0.00,Ontario
34.067,134.567,69.3,0.00,Tokushima
34.067,136.2,66.8,0.00,Owase
34.083,111.067,71.6,0.00,Lushi
34.095,-117.235,61.9,0.00,San Bernardino International Airport
34.1,-105.667,55.2,0.00,Corona / Lincoln
34.1,95.033,34.2,0.00,Bie-Li-Xi-Du
34.1,102.617,49.1,0.00,Lang-Mu-Si
34.117,-119.117,56.1,0.51,Point Mugu
34.133,42.35,74.3,0.00,Hadithah
34.133,95.783,37.4,0.00,Qumarleb
34.133,134.607,67.4,0.00,Tokushima
34.138,49.847,61.5,0.00,Arak
34.15,132.233,69.0,0.00,Iwakuni
34.18,-91.934,65.1,2.76,Grider Field Airport
34.188,-79.731,67.2,0.16,Florence Regional Airport
34.198,129.292,70.0,0.00,Izuhara
34.201,-118.358,60.4,0.00,Burbank-Glendale-Pasa Arpt
34.21,-118.489,61.4,0.00,Van Nuys Airport
34.214,134.016,76.1,0.00,Takamatsu
34.217,-4.0,61.9,0.00,Taza
34.217,92.433,34.7,0.00,Tuotuohe
34.25,36.05,55.8,0.00,Al-Arz (Les Cedres)
34.257,-111.339,55.4,0.01,Payson
34.262,-88.771,69.7,0.00,Tupelo C D Lemons Arpt
34.267,-86.85,77.4,0.00,Folsom Fld
34.268,-77.9,68.0,0.12,Wilmington New Hanover County
34.283,117.15,67.8,0.00,Xuzhou
34.3,-103.8,52.7,0.00,Melrose Gunnery Ran
34.3,-97.017,63.6,0.00,Ardmore Municipal
34.3,-6.6,62.3,0.00,Kenitra (Rmaf)
34.317,134.05,69.4,0.00,Takamatsu
34.346,47.158,56.3,0.00,Shahid Ashrafi Esfahani
34.35,45.383,74.8,0.00,Khanaqin
34.35,107.133,71.9,0.00,Baoji
34.367,41.95,74.8,0.00,Anah
34.383,-103.317,53.9,0.08,Cannon Afb Airport
34.383,-89.533,72.4,0.00,Oxford University
34.4,115.633,69.8,0.00,Shangqiu
34.4,132.467,70.1,0.00,Hiroshima
34.417,40.917,73.4,0.00,Abukmal
34.417,116.333,70.2,0.00,Tang-Shan
34.422,8.823,64.6,0.00,Gafsa
34.426,-119.843,54.5,0.00,Santa Barbara Municipal Airport
34.427,-100.283,59.4,0.00,Childress Municipal Ap
34.436,132.919,70.9,0.00,Hiroshima
34.447,108.752,69.0,0.00,Xianyang
34.45,35.8,69.8,0.00,Tripoli
34.467,-93.083,60.2,0.00,Memorial Fld
34.483,110.083,55.1,0.00,Hua Shan
34.498,-82.71,65.2,0.16,Anderson Rgnl
34.52,113.841,69.0,0.00,Xinzheng
34.533,136.683,70.3,0.00,Akeno (Jasdf)
34.557,38.317,75.2,0.00,Palmyra
34.583,-117.383,69.7,0.00,Southern California Logistics Airport
34.583,105.75,66.7,0.00,Tianshui
34.59,32.988,66.2,0.00,Akrotiri
34.596,135.603,77.0,0.00,Yao
34.6,138.217,64.7,0.83,Omaezaki
34.629,-118.084,63.1,0.00,Pdle Prodn Flt/Tst Af Plt
34.633,137.1,68.9,0.00,Irako
34.644,-86.787,68.3,0.63,Huntsville Intl/C.T.Jones Field Airport
34.65,-99.267,61.8,0.00,Altus Afb Airport
34.65,-98.4,59.9,0.00,Henry Post Aaf Airport
34.652,-112.421,58.1,0.00,Prescott Municipal Ap
34.667,112.417,71.3,0.00,Luo-Yang
34.683,3.25,59.0,0.00,Djelfa/Tletsi
34.683,135.517,73.4,0.00,Osaka
34.708,-77.44,68.6,0.00,Jacksonville
34.717,104.883,55.9,0.00,Wu-Shan
34.718,10.691,64.9,0.00,Thyna
34.718,32.486,64.9,0.00,Pafos Intl
34.727,-92.239,65.7,0.00,Little Rock Adams Field
34.733,101.6,46.1,0.00,Henan
34.733,127.75,63.9,0.00,Yeosu
34.744,-118.724,59.7,0.00,Sandberg
34.744,-87.6,65.3,0.91,North West Alabama Regional Airport
34.75,-120.567,48.6,0.00,Vandenberg Afb
34.75,114.417,71.2,0.00,Kaifeng
34.75,137.703,69.8,0.00,Hamamatsu
34.75,139.367,64.2,0.71,Oshima
34.757,133.855,78.8,0.00,Okayama
34.782,139.36,67.6,0.00,Oshima
34.786,135.438,69.3,0.00,Osaka Intl
34.787,-1.924,58.1,0.00,Angads
34.793,5.738,71.2,0.00,Biskra / Mohamed Khider
34.8,107.867,70.6,0.00,Cui-Mu
34.8,138.183,68.0,0.00,Shizuoka Airport
34.813,138.298,69.8,0.00,Shizuhama
34.817,36.133,69.8,0.00,Safita
34.817,126.383,64.6,0.00,Mokpo
34.833,-92.25,65.7,8.27,Little Rock Wsfo
34.85,119.133,61.7,0.00,Ganyu
34.85,128.433,65.2,0.00,Tongyeong
34.854,-116.786,73.3,0.00,Barstow-Daggett Airport
34.882,-95.783,62.5,0.12,Mc Alester Regional Arpt
34.899,-120.449,55.1,0.00,Santa Maria Pub/Capt G A Hancock Ap
34.9,-117.867,63.7,0.00,Edwards Air Force Base
34.9,-76.883,68.7,0.00,Cherry Point Mcas
34.9,132.067,68.9,0.00,Hamada
34.906,-82.213,64.3,0.16,Greenville-Spartanburg Intl Airport
34.917,-92.15,65.2,0.63,Little Rock Afb Airport
34.917,-81.95,65.1,0.00,Spartanburg Downtown Memorial Airport
34.917,98.217,31.5,0.00,Madoi
34.933,136.583,70.2,0.00,Yokkaichi
34.983,-89.783,68.8,0.00,Olive Branch
34.983,-78.883,69.7,0.00,Fayetteville Rgnl G
34.983,139.867,64.4,0.00,Tateyama
34.987,139.829,65.9,0.00,Tateyama
34.989,-99.053,57.0,0.00,Hobart Municipal Airport
35.0,102.9,50.2,0.00,Hezuo
35.017,135.733,69.8,0.00,Kyoto
35.028,-110.721,53.8,0.00,Winslow-Lindbergh Regional Airport
35.033,101.467,38.8,0.00,Son-Ag
35.034,-85.2,67.3,0.71,Lovell Field Airport
35.042,-106.616,58.0,0.00,Albuquerque Intl Sunport Airport
35.05,118.35,67.0,0.00,Linyi
35.056,-89.987,66.8,0.47,Memphis International Airport
35.068,-77.048,67.7,0.00,Craven County Reg Airport
35.083,33.9,70.9,0.00,Ayios Nicolaos
35.083,128.083,67.4,0.00,Sacheon Ab
35.1,129.033,65.2,0.00,Busan
35.117,36.75,64.4,0.00,Hama
35.117,111.067,71.6,0.00,Yuncheng
35.126,126.809,67.7,0.00,Gwangju
35.133,-111.667,46.5,0.00,Flagstaff Airport
35.133,-78.933,70.4,0.01,Simmons Aaf Airport
35.133,128.7,69.0,0.00,Chinhae (Kor-Army)
35.144,-111.666,46.1,0.00,Flagstaff Pulliam Arpt
35.15,-6.1,64.0,0.00,Larache
35.15,33.283,66.2,0.00,Nicosia Airfield
35.165,-107.902,53.0,0.00,Grants-Milan Muni Airport
35.167,109.05,67.7,0.00,Tongchuan
35.167,126.9,67.5,0.00,Gwangju
35.167,128.033,68.2,0.00,Jinju
35.167,136.967,71.1,0.00,Nagoya
35.174,-79.009,68.1,0.00,Pope Afb Airport
35.177,-3.84,62.2,0.00,Cherif El Idrissi
35.18,128.938,66.7,0.00,Gimhae Intl
35.182,-103.603,51.5,0.00,Tucumcari Municipal Arpt
35.2,48.683,54.0,0.00,Nowjeh
35.217,93.083,33.2,0.00,Wudaoliang
35.224,-80.955,64.1,0.00,Charlotte/Douglas International Ap
35.23,-101.704,53.0,0.00,Amarillo Rick Husband Intl Airport
35.233,-75.622,67.0,0.00,Cape Hatteras
35.247,47.009,56.2,0.00,Sanandaj
35.25,-113.933,72.4,0.00,Kingman (Amos)    &
35.25,-85.85,63.1,0.59,Monteagle
35.25,115.433,68.2,0.00,Heze/Caozhou
35.255,136.924,71.4,0.00,Nagoya
35.267,59.217,63.7,0.00,Torbat-Heydarieh
35.267,100.65,41.8,0.00,Tongde
35.28,-2.956,60.6,0.00,Melilla
35.283,139.667,63.2,0.83,Yokosuka Naval Station
35.285,40.176,69.3,0.00,Deir Zzor
35.317,138.867,63.6,0.00,Fuji (Jasdf)
35.333,-94.363,64.5,0.12,Fort Smith Regional Airport
35.333,104.0,57.2,0.00,Lintao
35.34,25.18,63.1,0.00,Nikos Kazantzakis
35.344,-77.965,69.4,0.00,Seymour-Johnson Afb Airport
35.35,-89.867,65.2,0.33,Memphis Nas
35.383,105.0,56.7,0.00,Huajialing
35.389,-97.601,58.1,0.00,Will Rogers World Airport
35.394,136.87,70.1,0.00,Gifu
35.4,139.917,66.3,0.00,Kisarazu
35.414,132.89,76.0,0.00,Izumo
35.417,-97.383,57.9,0.00,Tinker Afb Airport
35.432,-82.538,61.9,0.59,Asheville Regional Airport
35.432,8.121,61.5,0.00,Cheikh Larbi Tebessi
35.433,119.533,61.1,0.00,Rizhao
35.433,133.333,70.2,0.00,Yonago
35.433,139.65,63.0,0.43,Yokohama
35.434,-119.054,74.3,0.00,Meadows Field Airport
35.45,135.317,68.0,0.00,Maizuru
35.45,139.45,66.0,0.00,Atsugi Nas
35.469,44.349,72.7,0.00,Kirkuk Ab
35.483,112.4,67.0,0.00,Yangcheng
35.483,134.233,70.2,0.00,Tottori
35.492,133.236,71.8,0.00,Miho
35.498,12.618,59.5,0.00,Lampedusa
35.514,-108.794,47.4,0.00,Gallup Municipal Airport
35.514,139.394,66.2,0.00,Kastner Aaf / Camp Zama Japan
35.517,137.817,68.0,0.02,Iida
35.53,134.167,74.0,0.00,Tottori
35.532,24.15,59.7,0.00,Souda
35.533,35.767,70.3,0.00,Lattakia
35.55,45.45,67.6,0.00,Sulymaniyah
35.55,106.667,66.0,0.00,Pingliang
35.55,118.75,63.5,0.00,Juxian
35.552,139.78,63.0,0.00,Tokyo Intl
35.567,116.85,66.9,0.00,Yanzhou
35.591,53.495,64.4,0.00,Semnan
35.593,-88.917,66.5,0.39,Mckellar-Sipes Rgnl Arpt
35.593,129.352,69.3,0.00,Ulsan
35.594,-5.32,60.8,0.00,Saniat Rmel
35.617,-106.089,51.3,0.00,Santa Fe Municipal Airport
35.624,-0.621,60.6,0.00,Es Senia / Ahmed Benbella
35.635,-77.383,67.1,0.24,Pitt Greenville
35.654,-105.142,45.5,0.00,Las Vegas Municipal Arpt
35.667,-75.9,72.3,0.00,Dare County Gunnery Range  Nc.
35.667,10.1,61.0,0.00,Kairouan
35.667,10.75,59.7,0.00,Monastir-Skanes
35.667,138.55,66.5,0.20,Kofu
35.67,-120.628,61.9,0.00,Paso Robles Municipal Arpt
35.683,139.767,65.5,0.43,Tokyo
35.688,-117.693,78.5,0.00,China Lake
35.689,51.313,59.0,0.00,Mehrabad Intl
35.7,139.4,68.7,0.00,Tachikawa (Jasdf)
35.727,-5.917,59.1,0.00,Tanger Ibn Batouta Intl
35.733,107.633,63.6,0.00,Xifengzhen
35.733,140.85,62.5,0.20,Choshi
35.743,-81.382,64.3,0.16,Hickory Rgnl
35.748,139.348,65.8,0.00,Yokota Ab
35.75,99.983,50.0,0.00,Xinghai
35.752,6.309,61.7,0.00,Batna / Mostepha Ben Boulaid
35.799,140.011,65.5,0.00,Shimofusa
35.818,-83.986,64.4,0.31,Mc Ghee Tyson Airport
35.833,-90.633,62.9,0.02,Jonesboro Muni
35.833,127.117,67.3,0.00,Jeonju
35.842,139.411,66.9,0.00,Iruma
35.85,71.833,57.2,0.47,Chitral
35.85,128.583,74.2,0.00,Camp Walker (H-805)
35.857,14.478,59.3,0.00,Luqa
35.883,128.617,71.2,0.00,Taegu Acc (Kor-Afb)
35.889,-5.347,60.1,0.00,Ceuta
35.892,-78.782,64.0,0.08,Raleigh-Durham International Ap
35.894,128.659,70.2,0.00,Daegu Ab
35.9,-82.817,66.4,0.00,Hot Springs (Awrs)
35.917,126.617,62.9,0.00,Kunsan Ab
35.933,39.017,69.2,0.00,Raqqa
35.951,-85.081,62.7,0.30,Crossville Mem Whit
35.967,-89.95,62.2,0.43,Arkansas International Airport
35.967,105.717,62.2,0.00,Xi-Ji
35.988,129.42,70.4,0.00,Pohang Gyeongju
36.0,-89.409,63.2,0.43,Dyersburg Municipal Arpt
36.002,126.763,61.3,0.00,Gunsan
36.01,-94.169,58.5,0.39,Drake Field Airport
36.017,-102.55,49.5,0.16,Dalhart Municipal
36.017,106.283,63.1,0.00,Guyuan
36.033,101.433,61.7,0.00,Hey-In
36.033,129.383,71.1,0.00,Pohang
36.033,140.2,67.5,0.00,Kasumigaura (Jasdf)
36.05,103.883,67.3,0.00,Lanzhou
36.05,114.133,65.4,0.00,Anyang
36.072,-115.163,72.0,0.00,Mccarran International Airport
36.097,-79.943,64.0,0.16,Piedmont Triad International Airport
36.119,-86.689,64.0,0.67,Nashville International Airport
36.15,-97.083,59.4,0.00,Stillwater Rgnl
36.151,-5.35,60.8,0.00,Gibraltar
36.168,57.595,61.5,0.00,Sabzevar
36.181,37.224,70.8,0.00,Aleppo Intl
36.181,140.415,65.0,0.00,Hyakuri
36.183,118.15,62.3,0.00,Yiyuan
36.199,-95.887,60.1,0.87,Tulsa International Airport
36.2,133.333,67.9,0.00,Saigo
36.213,1.332,64.0,0.00,Ech Cheliff / Chlef
36.217,127.983,66.7,0.08,Chupungnyeong
36.233,115.667,67.0,0.00,Xinxian
36.235,59.641,59.9,0.00,Mashhad Intl / Shahid Hashemi Nejad Intl
36.24,50.047,56.1,0.00,Ghazvin
36.25,117.1,49.5,0.00,Tai Shan
36.25,137.967,65.1,0.00,Matsumoto
36.261,-76.175,66.3,0.16,Monroe Co
36.266,120.374,62.8,0.00,Liuting / Qingdao Intl
36.267,-93.157,57.0,0.51,Boone Co
36.267,121.383,55.0,0.00,Qian-Li Island
36.274,23.017,57.2,0.00,Kithira / Alexandros Aristotelous Onassis
36.276,6.62,52.5,0.00,Mohamed Boudiaf Intl
36.297,-99.769,55.1,0.00,Gage/Shattuck
36.3,2.233,56.8,0.00,Miliana
36.3,98.1,52.0,0.00,Doulan
36.3,127.4,64.4,0.00,Taejon
36.306,43.147,69.3,0.00,Mosul
36.317,41.833,72.1,0.00,Sinjar
36.333,-119.95,66.6,0.00,Naval Air Station
36.333,-97.917,57.4,0.43,Vance Afb
36.333,102.833,66.2,0.00,Minhe
36.35,100.783,55.1,0.00,Gonghe
36.383,33.933,72.6,0.00,Silifke
36.395,136.407,66.5,0.00,Komatsu
36.4,139.067,68.2,0.00,Maebashi
36.405,28.086,60.3,0.00,Diagoras
36.417,54.95,56.8,0.00,Shahrud
36.417,94.9,58.5,0.00,Golmud
36.417,128.167,72.5,0.00,Sangju
36.45,96.467,56.9,0.00,Nuo-Mu-Hong
36.473,-82.404,62.9,0.00,Bristol Tri City Airport
36.483,8.8,55.7,0.00,Jendouba
36.5,-6.25,59.7,0.00,Cadiz Obs
36.5,40.75,65.6,0.00,Hassakah
36.515,139.871,71.8,0.00,Utsunomiya
36.517,126.317,66.1,0.00,Anmyeondo
36.533,61.217,62.6,0.12,Saragt
36.55,106.15,67.1,0.00,Qi-Ying
36.573,-79.335,67.1,0.20,Danville Regional Airport
36.573,36.154,77.4,0.00,Iskenderun
36.583,-121.833,53.7,0.00,Monterey Peninsula
36.583,104.683,65.9,0.00,Jingyuan
36.583,136.633,66.0,0.00,Kanazawa
36.6,109.5,62.6,0.00,Yan An
36.617,101.767,58.7,0.00,Xining / Caojiapu
36.633,127.45,60.8,0.04,Cheongju
36.648,137.188,74.8,0.00,Toyama
36.65,-6.35,60.5,0.00,Rota Naval Air Station
36.664,-121.608,54.9,0.00,Salinas Muni
36.667,-87.483,57.9,0.24,Campbell Aaf Airport
36.667,138.2,63.1,0.00,Nagano
36.675,-4.499,60.0,0.00,Malaga
36.683,-121.767,53.4,0.00,Fritzsche Aaf
36.683,15.133,57.9,0.00,Cozzo Spadaro
36.683,116.983,64.6,0.00,Jinan/Tsinan
36.691,3.215,56.6,0.00,Houari Boumediene
36.7,38.95,66.2,0.00,Tel Abiadh
36.712,5.07,58.6,0.00,Soummam Abane Ramdane
36.717,52.65,58.1,0.00,Babulsar
36.733,-91.85,55.9,0.71,West Plains  Mo
36.733,24.433,58.1,0.00,Milos
36.737,-97.102,58.4,0.24,Ponca City Muni
36.741,-104.502,43.4,0.00,Raton Municipal Crews Field A
36.744,-108.229,50.3,0.00,Four Corners Regional Arpt
36.745,-6.06,58.7,0.00,Jerez
36.767,-96.017,58.4,0.00,Bartlesville Muni
36.767,107.2,68.0,0.00,Hung-Te
36.767,119.183,59.0,0.00,Weifang
36.767,121.167,60.0,0.00,Haiyang
36.767,126.5,59.0,0.00,Seosan
36.774,48.359,52.7,0.00,Zanjan
36.78,-119.719,69.6,0.00,Fresno Yosemite International Airport
36.783,99.083,50.0,0.00,Cha-Ka
36.817,-76.033,61.2,0.16,Oceana Nas
36.817,11.969,57.2,0.00,Pantelleria
36.822,7.809,56.3,0.00,Annaba / Rabah Bitat
36.833,21.7,59.2,0.00,Methoni
36.844,-2.37,60.5,0.00,Almeria
36.85,11.083,59.5,0.00,Kelibia
36.851,10.227,58.2,0.00,Carthage
36.867,118.333,60.4,0.00,Lin-Zi
36.899,30.8,63.5,0.01,Antalya
36.903,-76.192,60.1,0.20,Norfolk International Airport
36.91,50.68,56.5,0.00,Ramsar
36.917,-94.017,56.6,0.63,Monette
36.933,-111.45,60.1,0.47,Page Muni (Amos)  &
36.933,6.95,59.4,0.00,Skikda
36.933,126.45,55.3,0.00,Mangilsan (Kor-Afb)
36.937,-76.289,56.2,0.00,Norfolk Nas
36.947,37.479,59.0,0.00,Oguzeli / Gaziantep
36.95,-116.05,61.0,0.00,Yucca Flats Test S T
36.95,140.9,61.8,0.02,Onahama
36.965,-86.424,59.0,0.31,Bow Grn-Warren Co. Rgnl Ap
36.967,127.033,62.1,0.00,A 511 / Desiderio Aaf-Pyeongtaek / Camp Humphreys Rok
36.971,-25.171,58.9,0.55,Santa Maria
36.983,120.65,60.8,0.00,Laiyang
37.0,-8.95,58.8,0.00,Sagres
37.0,35.417,70.7,0.00,Incirlik Ab
37.014,-7.966,58.6,0.00,Faro
37.021,41.191,65.2,0.00,Kamishly
37.033,-100.95,50.0,0.00,Liberal Muni
37.033,111.917,57.9,0.00,Jiexiu
37.033,126.75,57.4,0.00,Koon-Ni Range
37.056,-88.774,60.0,0.31,Paducah Barkley Field
37.067,82.717,73.1,0.00,Minfeng
37.067,92.867,53.1,0.00,T'A-Erh-Ting
37.067,112.983,58.2,0.00,Yushe
37.083,-76.36,59.1,0.04,Langley Afb Airport
37.083,14.217,54.9,0.00,Gela
37.087,-84.077,60.9,0.00,Cape Girardeau Rgnl
37.091,127.03,60.5,0.00,Osan Ab
37.1,25.367,62.8,0.00,Naxos
37.1,138.25,65.2,0.00,Takada
37.133,-76.6,61.4,0.00,Felker Army Airfield
37.133,-76.483,57.5,0.02,Newport News Willia
37.133,-3.617,59.2,0.00,Granada / Armilla
37.133,38.767,67.1,0.00,Sanliurfa
37.133,79.933,73.7,0.00,Hotan
37.133,104.217,64.9,0.00,Ching-T'Ai
37.133,109.65,58.1,0.00,Zi-Chang
37.14,-107.76,49.0,0.00,Durango-La Plata Co
37.14,27.67,63.0,0.00,Imsik
37.15,108.383,60.0,0.04,Pin-Kou-Men
37.152,-94.495,56.5,0.12,Joplin Regional Airport
37.175,-5.616,61.0,0.00,Moron Ab
37.183,114.367,65.9,0.00,Xingtai
37.189,-3.777,57.5,0.00,Granada
37.2,102.867,47.1,0.00,Wushaoling
37.217,28.367,55.2,0.00,Mugla
37.225,-89.571,60.9,0.22,Cape Girardeau Rgnl
37.239,127.007,59.0,0.00,Suwon
37.24,-93.39,55.7,0.43,Springfield-Branson Regional Airport
37.245,9.791,57.0,0.00,Sidi Ahmed Air Base
37.262,-104.338,45.6,0.08,Perry Stokes Airport
37.267,126.983,59.2,0.00,Suwon
37.28,-107.87,35.2,0.31,Durango Aviation Weather Reporti
37.287,67.31,68.3,0.12,Termez
37.296,-81.208,60.2,0.04,Mercer Co
37.3,-108.633,51.2,0.00,Cortez Muni
37.317,-79.974,60.7,0.16,Roanoke Regional/Woodrum Field Ap
37.321,-79.207,59.6,0.39,Lynchburg Rgnl/Preston Glenn Fld Ap
37.333,100.133,44.3,0.00,Gangca
37.35,126.917,65.5,0.00,Sv Ri San
37.359,-121.924,66.6,0.00,N Y. Mineta Sn Jo Intl Apt
37.367,-6.0,61.1,0.00,Sevilla/Tablada
37.367,97.367,53.6,0.00,Delingha
37.367,101.617,48.7,0.00,Hao-Men
37.367,115.383,66.2,0.00,Nangong
37.371,-118.358,61.3,0.00,Bishop Airport
37.383,-120.567,69.8,0.00,Castle Afb
37.383,136.9,65.3,0.12,Wajima
37.4,14.917,59.0,0.00,Catania/Sigonella
37.4,122.683,51.5,0.00,Chengshantou
37.406,-122.048,66.0,0.00,Moffett Federal Airfield
37.418,-5.893,59.6,0.00,Sevilla
37.433,116.317,62.9,0.00,Dezhou
37.433,127.117,59.3,0.00,Seoul East(Kor-Afb)
37.439,-105.861,43.5,0.00,San Luis Valley Regional Airport
37.45,-106.8,73.2,0.00,Pagosa Springs Wol
37.45,122.033,54.1,0.00,Weihai
37.467,15.066,58.3,0.00,Catania Fontanarossa
37.467,49.467,55.4,0.00,Anzali
37.467,53.967,61.2,0.04,Esenguly
37.467,110.25,59.5,0.00,Suide
37.467,126.633,55.8,0.00,Incheon
37.483,105.683,66.5,0.00,Zhongning
37.483,130.9,63.9,0.00,Ulleungdo
37.483,139.917,57.2,0.00,Wakamatsu
37.5,34.05,57.6,0.05,Eregli/Konya
37.5,71.5,46.4,0.71,Khorog
37.5,111.1,57.5,0.00,Lishi
37.5,117.533,58.1,0.00,Huimin
37.5,129.133,60.3,0.00,Donghae Radar
37.512,-77.323,60.5,0.55,Richmond International Airport
37.522,126.979,61.5,0.00,H 264 Heliport
37.531,22.404,53.4,0.00,Tripolis
37.55,118.733,57.7,0.00,Yongan
37.558,126.791,57.2,0.00,Gimpo
37.567,43.767,48.9,0.00,Hakkari
37.567,126.967,57.7,0.00,Seoul City
37.591,-83.314,56.0,0.39,Jackson Carroll Arpt
37.6,62.183,62.6,0.00,Bajramaly
37.617,-109.467,49.1,2.76,Blanding
37.617,-97.267,56.0,0.20,Mcconnell Afb Airport
37.617,78.283,77.0,0.00,Pishan
37.617,120.317,55.7,0.00,Longkou
37.62,-122.365,59.8,0.00,San Francisco International Airport
37.624,-120.951,74.4,0.00,Mdsto Cty-Co H Sham Fd Apt
37.648,-97.43,56.6,0.20,Wichita Eisenhower National
37.668,45.069,49.4,0.00,Uromiyeh
37.67,-95.484,58.2,0.16,Chanute Martin Johnson Apt
37.706,-112.146,40.0,0.00,Bryce Canyon Airport
37.709,-113.094,46.6,0.00,Cedar City Regional Arpt
37.721,-122.221,61.4,0.00,Metro Oakland Intl Airport
37.733,-122.317,62.5,0.00,Alameda(Usn)
37.741,-25.698,59.0,0.08,Ponta Delgada
37.747,112.628,60.1,0.00,Wusu
37.75,-92.15,56.8,0.20,Waynesville Regional Airport At Forney Field
37.75,26.867,62.4,0.01,Samos Island
37.754,128.944,65.4,0.00,Gangneung
37.767,-89.25,62.1,0.00,Southern Illinois
37.767,-80.333,55.9,0.00,White Sulphur Sprng
37.767,140.467,64.0,0.02,Fukushima
37.769,-99.968,46.8,0.24,Dodge City Regional Airport
37.771,128.868,64.9,0.00,Gangneung
37.775,-0.812,58.8,0.00,Murcia San Javier
37.783,29.083,59.0,0.00,Denizli
37.783,126.85,60.0,0.00,Yeongdongri
37.784,-81.123,57.5,0.12,Raleigh County Memorial Airport
37.785,30.582,56.4,0.04,Isparta
37.8,107.383,58.8,0.00,Yanchi
37.817,113.567,65.8,0.00,Yangquan
37.833,65.2,70.2,0.00,Kerki Intl
37.842,-4.849,59.8,0.00,Cordoba
37.85,95.367,46.9,0.00,Da-Qaidam
37.858,-80.399,54.9,0.00,Greenbrier Valley
37.882,23.735,62.9,0.00,Athinai
37.884,127.718,59.2,0.00,A 306
37.889,-121.226,69.3,0.00,Stockton Metropolitan Airport
37.894,40.201,60.9,0.00,Diyarbakir
37.9,-85.967,56.0,0.39,Godman Aaf Airport
37.9,127.733,58.1,0.00,Chuncheon
37.9,139.017,61.1,0.16,Niigata
37.911,12.488,57.8,0.00,Trapani Birgi
37.917,41.95,61.7,0.00,Siirt
37.917,127.05,59.5,0.00,Camp Casey/Tongduch
37.921,21.293,58.2,0.00,Andravida
37.927,-100.725,49.7,0.00,Garden City Regional Arpt
37.933,124.667,51.9,0.00,Baengnyeongdo Ab
37.937,-75.466,57.1,0.00,Wallops Flight Facility Airport
37.95,-79.833,44.1,0.00,Ingalls Fld
37.95,128.317,57.2,0.00,Hyun Ni (Kor-Army)
37.95,139.117,65.7,0.00,Niigata Airport
37.951,-1.23,64.2,0.00,Alcantarilla
37.967,126.567,55.9,0.00,Kaesong
37.979,32.562,58.9,0.08,Konya
37.987,58.361,63.5,0.00,Ashgabat
38.033,125.7,54.3,0.04,Haeju
38.033,138.233,59.4,0.20,Aikawa
38.041,-84.606,56.0,0.51,Blue Grass Airport
38.044,-87.521,60.6,0.12,Evansville Regional Airport
38.049,-103.513,48.9,0.01,La Junta Municipal Airport
38.05,138.417,63.5,0.00,Sado
38.051,-117.09,53.1,0.00,Tonopah Airport
38.064,23.556,64.3,0.00,Elefsis
38.065,-97.861,54.6,0.00,Hutchinson Municipal Arpt
38.067,-122.5,64.2,0.00,Hamilton Aaf
38.067,114.35,62.4,0.00,Shijiazhuang
38.071,15.652,60.6,0.00,Reggio Calabria
38.079,-7.932,54.3,0.20,Beja
38.111,13.313,59.9,0.00,Boccadifalco
38.131,-91.768,58.1,0.12,Rolla/Vichy Airport
38.134,46.235,50.0,0.00,Tabriz Intl
38.137,-78.455,57.2,0.75,Charlottesville Albemarle Arpt
38.14,140.917,56.9,0.00,Sendai
38.15,85.55,67.1,0.00,Qiemo/Qarqan
38.167,120.783,54.2,0.51,Tuoji Island
38.176,13.091,58.6,0.00,Palermo
38.181,-85.739,57.7,0.31,Louisville Intl-Standiford Field Ap
38.2,15.55,58.0,0.00,Messina
38.228,-85.664,57.1,0.00,Bowman Field Airport
38.233,100.25,49.5,0.00,Babao
38.233,127.967,59.3,0.00,Wonju Ab
38.233,140.917,60.6,0.00,Kasuminome (Jasdf)
38.25,-78.05,72.9,0.00,Orange Co
38.25,90.85,53.6,0.00,Mangnai
38.25,140.35,58.6,0.12,Yamagata
38.251,128.565,59.3,0.00,Sokcho
38.267,-121.933,67.6,0.00,Travis Air Force Base
38.267,-78.9,51.8,0.00,Shenandoah Valley Rg
38.267,109.783,56.5,0.00,Yulin
38.267,140.9,59.3,0.20,Sendai
38.282,-0.558,58.0,0.00,Alicante
38.289,-104.506,47.4,0.00,Pueblo Memorial Airport
38.3,-76.417,60.5,0.00,Naval Air Station
38.329,-96.195,57.7,0.71,Emporia Municipal Airport
38.333,116.833,63.3,0.00,Cangzhou
38.341,-75.51,55.4,0.00,Salisbury Ocean Cit
38.365,-82.555,53.7,0.35,Tri-State/M.J.Fergus
38.371,-110.715,53.5,0.00,Hanksville
38.379,-81.59,57.5,0.51,Yeager Airport
38.383,117.35,60.4,0.00,Huanghua
38.4,112.717,58.1,0.00,Xinxian
38.405,141.22,58.5,0.00,Matsushima
38.412,140.371,65.3,0.00,Yamagata
38.417,-113.017,47.9,0.00,Milford Municipal Ap
38.427,44.974,52.2,0.00,Khoy
38.433,77.267,69.4,0.00,Shache
38.433,141.3,61.9,0.00,Ishinomaki
38.435,38.091,59.1,0.00,Erhac / Malatya
38.467,99.55,39.6,0.00,Yeh-Niu-Kou
38.467,102.183,56.3,0.00,Jin-Chang
38.467,106.317,61.2,0.00,Yinchuan (City)
38.468,43.332,46.0,0.00,Van
38.483,106.217,60.1,0.00,Yinchuan / Hedong
38.5,-107.883,41.3,0.12,Montrose
38.504,-77.305,59.1,0.08,Quantico Mcaf
38.507,-121.495,68.4,0.00,Sacramento Executive Airport
38.513,27.01,61.0,0.00,Cigli
38.517,-122.817,64.9,0.00,C M Schulz Sonoma Co
38.517,-107.894,50.3,0.00,Montrose Rgnl
38.517,-5.117,57.2,0.00,Hinojosa Del Duque
38.517,125.767,53.9,0.00,Sariwon
38.533,-106.05,43.3,0.98,Salida/Alexander
38.543,68.825,61.3,0.59,Dushanbe
38.55,-89.85,63.6,0.00,Scott Air Force Base/Midamerica Airport
38.567,-121.3,65.6,0.00,Mather Field
38.567,-7.9,51.8,0.00,Evora
38.6,-106.92,36.2,0.00,Gunnison Aviation Weather Report
38.607,39.291,57.8,0.00,Elazig
38.633,103.083,64.0,0.00,Minqin
38.65,-88.967,61.7,0.00,Salem-Leckrone
38.657,-90.656,63.7,0.00,Spirit Of St Louis Airport
38.667,-121.4,67.6,0.00,Sacramento Mcclellan Afb
38.678,-104.757,40.4,0.24,Butts Aaf Airport
38.683,29.4,50.2,0.04,Usak
38.696,-121.59,67.6,0.00,Sacramento Intl Airport
38.7,13.183,53.6,0.00,Ustica Island
38.717,-93.55,59.7,0.16,Whiteman Afb Airport
38.717,-77.183,54.5,0.02,Davison Aaf Airport
38.726,30.601,54.7,0.12,Afyon
38.733,48.833,54.9,0.00,Lankaran
38.733,115.483,65.1,0.00,Baoding
38.75,112.7,57.7,0.00,Yuanping
38.753,-90.374,61.2,0.00,Lambert-St Louis International Ap
38.762,-27.091,57.9,0.35,Lajes
38.77,35.495,51.2,0.08,Erkilet / Kayseri
38.781,-9.136,57.0,0.39,Lisboa
38.8,-97.65,54.9,0.08,Salina Municipal Airport
38.8,98.417,42.0,0.00,Tuo-Le
38.8,101.083,60.8,0.00,Shan-Dan
38.809,27.834,59.0,0.20,Akhisar
38.81,-104.688,40.6,0.51,City Of Colorado Springs Municipal Ap
38.817,-92.218,58.6,0.00,Columbia Regional Airport
38.817,-76.867,55.8,0.12,Andrews Air Force Base Airport
38.833,93.383,52.6,0.00,Lenghu
38.844,-94.56,59.2,0.00,Richard Gebaur
38.847,-77.035,59.6,0.20,Ronald Reagan Washington Natl Ap
38.873,1.373,58.4,0.00,Ibiza
38.876,-98.809,50.6,0.00,Russell Municipal Airport
38.883,-120.0,49.9,0.39,Lake Tahoe
38.883,22.433,61.3,0.00,Lamia
38.89,-79.855,51.9,0.02,Elkins-Rand Co-J.Rand Field Airport
38.891,-6.821,54.5,0.24,Talavera La Real / Badajoz
38.917,139.85,57.2,0.39,Sakata
38.925,20.765,58.8,0.00,Aktion
38.935,-77.447,54.7,0.59,Washington Dulles International Ap
38.949,-1.864,57.5,0.00,Albacete
38.95,-95.664,59.2,0.02,Forbes Field Airport
38.95,113.517,32.3,0.00,Wutai Shan
38.966,121.539,55.6,0.12,Zhoushuizi
38.968,24.487,65.2,0.00,Skiros
38.983,-89.167,60.1,0.00,Vandalia Faa Airport
38.983,-3.917,52.2,0.00,Ciudad Real
38.983,56.283,60.4,0.02,Gyzylarbat
38.997,17.08,56.0,0.00,Crotone
39.033,88.167,69.0,0.00,Ruoqiang
39.044,-84.672,52.9,0.00,Cincinnati/Northern Kentucky Intl Ap
39.05,-96.767,60.7,0.00,Marshall Army Airfield
39.05,106.4,57.9,0.00,Shizuishan/Dawukou
39.05,123.217,55.1,0.00,Haiyang Dao
39.057,26.598,63.3,0.04,Mitilini
39.067,26.883,60.2,0.00,Dikili
39.073,-95.626,61.0,0.00,Philip Billard Municipal Airport
39.083,-76.767,53.6,0.00,Tipton Airport
39.083,63.6,65.8,0.39,Chardzhev
39.083,100.283,62.1,0.00,Zhangye
39.1,-121.567,70.0,0.00,Yuba Co
39.1,53.1,52.7,0.08,Ogryda
39.1,107.983,53.2,0.00,Otog Qi
39.1,117.167,63.6,0.00,Tianjin
39.103,-84.419,54.0,0.00,Cina Muni Apt/Lukn Fd Apt
39.126,-123.201,66.3,0.00,Ukiah Municipal Airport
39.133,-121.433,67.9,0.00,Beale Air Force Base
39.133,-96.667,60.5,0.00,Manhattan Rgnl
39.133,-86.617,53.3,0.00,Monroe Co
39.133,-75.467,58.1,0.00,Dover Afb Airport
39.134,-108.54,49.9,0.16,Grand Junction Regional Airport
39.173,-76.684,56.0,0.00,Baltimore-Washington Intl Airport
39.183,36.067,48.4,0.35,Gemerek
39.183,127.433,56.1,0.04,Wonsan
39.2,-81.27,49.2,0.08,Oak Ridge
39.223,-106.869,33.0,0.00,Aspen Pitkin Co Sard
39.224,125.67,53.9,0.00,Pyongyang Intl
39.25,-106.3,30.3,0.08,Leadville/Lake Co.
39.251,9.054,55.3,0.00,Elmas
39.275,-103.666,39.1,0.28,Limon Municipal Airport
39.277,-120.71,57.6,0.00,Blue Canyon - Nyack Arpt
39.283,-80.217,51.6,0.00,Harrison Marion Rgn
39.283,-7.417,48.5,0.31,Portalegre
39.295,-114.847,43.2,0.00,Ely Airport/Yelland Field/Airport
39.297,-94.731,59.7,0.00,Kansas City International Airport
39.317,-76.4,56.0,0.00,Martin State
39.317,58.6,59.9,0.02,Erbent
39.32,-120.133,61.5,0.24,Truckee-Tahoe
39.33,-112.58,53.1,0.08,Delta
39.354,8.972,56.0,0.00,Decimomannu
39.366,-75.078,55.8,0.00,Millville Municipal Arpt
39.367,-101.693,42.9,0.63,Renner Field/Goodland Mini Airport
39.367,-94.917,64.6,0.00,Sherman Aaf
39.367,111.217,59.3,0.00,Hequ
39.376,-99.83,47.8,0.00,Hill City Municipal Arpt
39.383,102.833,66.2,0.00,Lai-Yen-Ch'Ih
39.404,-77.945,53.5,0.67,Etrn Wv Rgnl/Shpherd Fd Ap
39.417,-118.717,59.5,0.00,Fallon Nas
39.429,141.135,61.8,0.00,Hanamaki
39.433,118.9,54.9,0.00,Leting
39.45,-87.3,59.1,0.00,Terre Haute Hulman Regional A
39.452,-74.567,53.7,0.00,Atlantic City International Airport
39.467,-6.333,52.7,0.08,Caceres
39.484,-119.771,48.4,5.91,Reno/Tahoe International Airport
39.489,-0.482,55.4,0.00,Valencia
39.5,-117.08,46.0,0.00,Austin
39.53,-107.8,50.4,0.00,Rifle Aviation Weather Reporting
39.543,76.02,66.9,0.00,Kashi / Laining
39.55,2.733,53.3,0.00,Palma De Mallorca
39.551,-97.651,52.4,0.00,Blosser Municipal Airport
39.583,15.883,50.0,0.04,Bonifati (Cape)
39.595,47.196,50.7,0.00,Fuzuli
39.602,19.912,57.9,0.00,Ioannis Kapodistrias Intl
39.616,140.219,57.9,0.00,Akita
39.617,-110.75,46.4,0.00,Price/Carbon(Ramos)
39.619,27.926,57.4,0.04,Balikesir
39.65,-106.917,41.1,0.31,Eagle Co Regional Airport
39.65,-79.921,47.0,0.16,Mgtn Rgnl-W L B Hart Fd Ap
39.65,22.466,60.8,0.00,Larisa
39.65,118.1,59.9,0.00,Tangshan
39.65,141.967,56.6,0.31,Miyako
39.667,-31.117,55.8,0.63,Corvo Island
39.667,76.167,54.6,0.00,Ar-Tux
39.673,-75.601,57.4,0.00,Wilmington New Cast
39.7,141.167,54.7,0.59,Morioka
39.701,66.984,55.8,0.08,Samarkand
39.71,39.527,52.6,0.04,Erzincan
39.717,-104.75,37.9,0.28,Buckley Air Force Base
39.717,140.1,53.8,0.51,Akita
39.725,-86.282,57.3,0.00,Indianapolis International Airport
39.75,-104.867,41.4,0.94,Denver Wsfo
39.75,8.467,54.7,0.00,Cape Frasca
39.767,98.483,60.8,0.00,Jiuquan/Suzhou
39.774,-94.923,62.1,0.00,Rosecrans Memorial Airport
39.783,-121.85,77.0,0.00,Chico California Map
39.783,105.75,59.7,0.00,Jartai
39.784,30.582,53.3,0.51,Eskisehir
39.8,78.567,71.3,0.00,Bachu
39.814,36.903,46.4,0.55,Sivas
39.817,-82.933,51.0,0.00,Rickenbacker Intl Airport
39.817,18.35,55.6,0.00,Santa Maria Di Leuc
39.833,-84.05,50.7,0.00,Wright-Patterson Afb Airport
39.833,-83.833,47.0,0.00,Springfield Beckley
39.833,109.983,52.5,0.00,Dongsheng
39.833,114.567,50.4,0.00,Yu Xian
39.845,-89.684,56.7,0.00,Abraham Lincoln Capital Airport
39.863,4.219,56.4,0.00,Menorca
39.873,-75.227,56.8,0.20,Philadelphia International Airport
39.883,-4.05,56.3,0.00,Toledo
39.906,-84.219,51.8,0.00,J.M.Cox Dayton International Airport
39.917,44.05,50.7,0.00,Igdir
39.933,9.717,56.1,0.00,Cape Bellavista
39.933,25.25,61.1,0.04,Limnos Island Arpt
39.933,127.55,55.6,0.20,Hamheung
39.937,-91.192,58.2,0.00,Quincy Rgnl Baldwin
39.944,-81.892,47.9,0.12,Zanesville Municipal Arpt
39.95,-105.833,29.6,0.02,Fraser
39.95,32.689,53.6,0.55,Etimesgut
39.957,41.17,42.3,0.04,Erzurum
39.991,-82.877,50.7,0.00,Port Columbus International Airport
40.017,-74.6,58.6,0.00,Mcguire Afb Airport
40.017,15.283,53.1,0.04,Cape Palinuro
40.02,-124.07,63.4,0.00,Shelter Cove
40.033,-88.267,54.2,0.00,Univ Of Illinois Wi
40.033,-74.35,56.2,0.00,Naes/Maxfield Field
40.033,52.983,50.9,0.04,Turkmenbashi
40.05,124.333,55.0,0.04,Dandong
40.067,-2.133,52.9,0.00,Cuenca
40.068,-118.569,53.7,0.00,Lovelock Derby Field
40.079,-75.013,57.9,0.00,Ne Philadelphia Airport
40.079,32.566,52.1,0.75,Akinci / Murted
40.08,116.585,61.5,0.00,Beijing - Capital International Airport
40.083,113.417,52.4,0.00,Datong
40.097,-92.543,56.8,0.00,Kirksville Regional Arpt
40.1,124.383,55.6,0.04,Sinuiju
40.128,32.995,50.5,0.91,Esenboga
40.138,26.427,58.3,0.00,Canakkale
40.15,94.683,65.1,0.00,Dunhuang
40.152,-122.254,70.9,0.00,Red Bluff Municipal Arpt
40.167,-103.217,36.3,1.57,Colorado Plains Rgnl Arpt
40.176,-80.647,46.4,0.00,Wheeling Ohio County Arpt
40.183,-112.933,53.3,0.00,Dugway Pg Utah/Michales Aaf
40.183,25.9,62.4,0.00,Gokceada
40.183,29.067,58.8,0.67,Bursa
40.196,-76.772,52.2,0.00,Harrisburg Intl
40.199,-87.596,70.3,0.00,Vermilion Co
40.2,-100.583,43.1,0.04,Mccook Rgnl
40.2,-75.15,55.2,0.00,Willow Grove Nas
40.2,-8.417,55.1,0.04,Coimbra
40.212,44.53,51.3,0.00,Yerevan-Arabkir
40.217,-76.851,51.3,0.00,Harrisburg Capital City Arpt
40.233,-85.383,54.1,0.00,Delaware Co Johnson
40.239,18.133,55.9,0.00,Lecce
40.267,97.033,60.5,0.00,Yumenzhen
40.277,-74.816,58.4,0.00,Trenton Mercer Airport
40.294,-3.724,55.3,0.00,Getafe
40.296,-78.32,46.7,0.20,Altoona-Blair County Arpt
40.3,-96.75,51.9,0.47,Beatrice Muni
40.316,-78.834,42.2,0.00,J Murtha Jtwn-Cmbra Co Apt
40.318,27.978,57.8,0.24,Bandirma
40.355,-79.922,47.6,0.00,Allegheny County Airport
40.367,-75.967,55.2,0.00,Reading Spaatz Field
40.367,71.75,58.6,0.00,Fergana Airport
40.4,99.8,61.2,0.00,Shuangchengtzu
40.4,118.95,58.2,0.00,Qinglong
40.412,-86.937,55.8,0.00,Purdue University Airport
40.417,-7.55,37.7,0.20,Penhas Douradas
40.417,115.5,55.9,0.00,Huailai
40.433,16.883,55.6,0.00,Marina Di Ginosa
40.441,-109.51,53.2,0.00,Vernal
40.467,50.317,57.2,0.00,Pirallahi
40.467,62.283,63.0,0.16,Darganata
40.468,50.047,53.2,0.00,Heydar Aliyev
40.483,-107.217,42.5,0.00,Hayden/Yampa (Awos)
40.485,-80.214,44.8,0.08,Pittsburgh International Airport
40.494,-3.567,50.9,0.00,Adolfo Suarez Madrid Barajas
40.497,-3.446,48.6,0.00,Torrejon
40.5,81.05,69.3,0.00,Alar
40.5,96.0,67.8,0.00,An-Xi
40.51,-101.62,39.8,0.08,Imperial Municipal Airport
40.518,-122.299,77.7,0.00,Redding Municipal Arpt
40.518,17.403,50.0,0.00,Taranto Grottaglie
40.52,22.971,58.9,0.12,Makedonia
40.53,-80.22,42.3,0.12,Pittsburgh Wsfo
40.533,79.533,70.2,0.00,Ch'I-Lan-Tai
40.533,141.517,52.3,0.00,Hachinohe
40.55,34.95,52.2,0.43,Corum
40.55,44.933,36.5,0.04,Sevan
40.556,141.466,52.6,0.00,Hachinohe
40.562,43.115,42.3,0.00,Kars Harakani
40.588,-105.042,39.8,1.46,Fort Collins Downtown
40.605,-98.428,47.3,0.00,Hastings Muni
40.612,-116.892,57.0,0.00,Battle Mountain Airport
40.617,14.917,54.5,0.00,Pontecagnano
40.632,8.291,53.4,0.00,Alghero
40.633,15.8,43.0,0.04,Potenza
40.633,87.7,74.9,0.00,Tikanlik
40.639,-73.764,59.4,0.00,John F Kennedy International Airport
40.65,-86.15,56.3,0.00,Grissom Arb
40.65,-75.448,52.2,0.00,Lehigh Valley International Airport
40.65,139.933,51.3,0.22,Fukaura
40.658,17.947,52.9,0.28,Casale / Brindisi
40.667,-4.683,46.4,0.01,Avila
40.667,122.2,55.4,0.00,Yingkou
40.667,129.2,44.1,0.00,Kimchaek/Songjin
40.668,-89.684,53.5,0.00,Greater Peoria Regional Airport
40.683,-74.169,60.0,0.00,Newark Liberty International Ap
40.705,141.372,49.8,0.00,Misawa Ab
40.717,-99.0,45.5,0.00,Kearney Muni
40.717,46.417,53.1,0.00,Gandja
40.717,98.617,61.8,0.00,Beishan (Mtns)
40.717,124.783,52.1,0.20,Kuandian
40.721,-114.036,53.7,0.00,Wendover Airport
40.733,31.6,50.0,0.39,Bolu
40.735,140.691,56.8,0.00,Aomori
40.75,104.5,56.4,0.00,Bayan Mod
40.767,107.4,54.1,0.00,Linhe
40.768,16.933,53.2,0.00,Gioia Del Colle
40.778,-111.969,51.7,0.00,Salt Lake City International Airport
40.779,-73.969,59.0,0.00,New York Central Park
40.779,-73.88,58.3,0.00,La Guardia Airport
40.783,-91.125,55.9,0.00,Southeast Iowa Rgnl
40.783,21.4,50.9,0.00,Florina
40.783,43.833,40.1,0.02,Gumri
40.783,55.333,54.5,0.04,Chagyl
40.783,114.883,55.9,0.00,Zhangjiakou
40.794,-73.102,55.6,0.00,Long Island Mac Art
40.8,-124.167,49.1,2.01,Eureka
40.8,-4.017,34.5,0.04,Navacerrada Puerto
40.817,0.5,59.5,0.00,Tortosa
40.817,140.767,49.5,0.12,Aomori
40.82,-82.518,47.1,0.00,Mansfield Lahm Rgnl
40.829,-115.789,47.5,0.00,Elko Municipal Arpt
40.829,35.522,53.2,0.20,Merzifon
40.85,-74.061,58.1,0.00,Teterboro Airport
40.85,-1.883,47.1,0.00,Molina De Aragon
40.85,14.3,52.9,0.28,Napoli/Capodichino
40.851,-96.748,50.4,0.01,Lincoln Municipal Airport
40.851,111.824,52.3,0.00,Baita
40.856,25.956,58.7,0.00,Dimokritos
40.869,141.378,70.8,0.00,Draughon Range
40.883,123.9,48.2,0.00,Caohekou
40.899,9.518,53.9,0.00,Olbia Costa Smeralda
40.9,-78.083,42.9,0.00,Philipsburg Airport
40.902,-117.808,47.6,0.00,Winnemucca Municipal Airport
40.917,12.95,52.5,0.04,Ponza Island
40.917,72.95,58.1,0.00,Dzhalal-Abad
40.918,-81.444,46.8,0.00,Akron-Canton Regional Airport
40.933,-1.3,46.4,0.00,Calamocha
40.933,78.45,59.9,0.00,Akqi
40.95,-4.133,50.7,0.00,Segovia
40.952,-5.502,47.0,0.04,Salamanca
40.961,-98.314,44.6,0.16,Central Nebraska Regional Airport
40.967,117.917,57.4,0.00,Chengde
40.967,126.6,51.5,0.04,Kanggye
40.971,-85.206,51.8,0.00,Fort Wayne International Airport
40.977,28.821,56.6,0.01,Ataturk
40.978,-124.109,50.1,0.00,Arcata Airport
40.983,27.55,58.2,0.00,Tekirdag
40.995,39.79,55.7,0.01,Trabzon
41.014,-83.669,47.3,0.00,Findlay Airport
41.033,57.767,58.1,0.51,Ekezhe
41.033,113.067,44.3,0.00,Jining
41.05,21.367,50.5,0.08,Bitola
41.05,52.917,52.9,0.00,Karabogazkel
41.061,14.082,53.2,0.00,Grazzanise
41.062,-73.705,54.1,0.00,Westchester County Airport
41.099,-102.986,36.7,0.16,Sidney Municipal Ap
41.108,-92.447,53.3,0.00,Ottumwa Industrial Airport
41.117,-111.967,48.0,0.00,Hill Afb Airport
41.117,-95.917,49.6,1.54,Offutt Afb Airport
41.117,8.317,52.5,0.12,Asinara Island
41.121,-100.669,42.5,0.00,North Platte Rgnl Ap Lee Bird Fd Ap
41.133,16.767,54.2,0.02,Bari
41.133,121.117,57.0,0.00,Jinzhou
41.147,1.167,58.2,0.00,Reus
41.15,126.217,51.8,0.16,Ji'An
41.158,-104.807,35.7,0.28,Cheyenne Airport
41.164,-73.127,55.7,0.00,Igor I Sikorsky Memorial Airport
41.179,-78.893,41.5,0.00,Du Bois-Jefferson Co Arpt
41.183,-75.417,47.8,0.02,Tobyhanna
41.196,-112.011,56.3,0.00,Ogden-Hinckley Airport
41.2,116.633,51.3,0.00,Fengning
41.217,9.4,52.2,0.00,Guardiavecchia
41.233,-89.617,48.2,0.00,Bradford/Rinkenberg
41.233,141.133,46.0,0.00,Ominato (Jasdf)
41.243,-76.922,47.8,0.00,Williamsport Regional Airport
41.248,-8.681,52.4,0.12,Porto
41.25,29.033,60.4,0.00,Kumkoy
41.253,-70.061,50.8,0.00,Nantucket Memorial Airport
41.255,-80.674,43.8,0.00,Youngstown-Warren Regional Airport
41.258,69.281,56.5,0.31,Yuzhny / Tashkent Islam Karimov Intl
41.264,-72.887,57.8,0.47,Tweed-New Haven Airport
41.273,-111.031,39.0,0.00,Evan-Uinta Co Burns Fld Ap
41.283,36.3,55.6,0.59,Samsun
41.297,2.078,51.7,0.00,Barcelona
41.31,-95.899,51.9,0.00,Omaha Eppley Airfield
41.317,-105.683,33.0,0.49,Laramie Regional Airport
41.328,-72.049,58.8,0.00,Groton-New London Airport
41.333,-122.333,57.1,0.00,Mount Shasta
41.334,-75.727,46.6,0.00,Wilkes-Barre/Scranton Intl Airport
41.367,-96.017,50.5,0.28,Omaha
41.367,102.367,57.7,0.00,Guaizihu
41.383,-79.867,48.3,0.00,Venango Regional Airport
41.4,-70.617,58.9,0.00,Marthas Vineyard
41.4,128.167,45.7,0.00,Hyesan
41.406,-81.852,46.4,0.00,Cleveland-Hopkins International Ap
41.417,22.25,64.4,0.00,Demir Kapija
41.417,43.483,41.9,0.08,Akhalqalaqi
41.417,128.183,45.5,0.28,Changbai
41.433,-99.65,44.7,0.00,Broken Bow Muni
41.433,15.533,52.9,0.00,Gina Lisa
41.433,76.0,52.5,0.12,Naryn
41.45,-97.333,48.3,0.00,Columbus Muni
41.45,31.8,57.9,0.47,Zonguldak / Caycuma
41.45,44.55,49.6,0.00,Bolnisi
41.45,106.383,54.1,0.00,Hails
41.465,-90.523,53.1,0.00,Quad City International Airport
41.483,43.867,35.6,0.04,Radionovka
41.5,-120.533,57.5,0.00,Alturas
41.517,-81.683,46.5,0.51,Burke Lakefront
41.517,-5.733,48.2,0.00,Zamora
41.534,-93.653,55.4,0.00,Des Moines International Airport
41.541,15.718,53.1,0.01,Amendola
41.542,12.909,54.6,0.00,Latina
41.55,23.267,54.1,0.12,Sandanski
41.55,120.45,55.7,0.00,Chaoyang
41.567,14.65,46.2,0.00,Campobasso
41.567,108.517,51.4,0.00,Haliut
41.583,-71.417,58.9,0.00,Quonset Point Nas
41.587,-83.806,48.9,0.00,Toledo Express Airport
41.594,-109.053,37.9,0.14,Rock Springs Arpt
41.61,41.6,57.2,0.04,Batumi
41.626,-73.882,53.9,0.00,Dutchess County Airport
41.633,-4.75,45.9,0.00,Valladolid
41.633,0.6,55.0,0.00,Lerida
41.633,13.3,50.4,0.00,Frosinone (It-Afb)
41.65,25.383,55.1,0.39,Kurdjali
41.65,42.317,52.2,0.00,Khulo
41.659,12.445,55.0,0.00,Pratica Di Mare
41.666,-1.042,52.2,0.00,Zaragoza Ab
