lat,lon,temp,precip,name
-90.0,0.0,-82.5,0.00,Amundsen-Scott
-77.967,-38.8,0.5,0.00,Belgrano 1 Arg-Base
-77.883,166.733,0.5,0.00,Mcmurdo Sound Naf
-70.3,-2.35,-21.1,0.00,Sanae Saf-Base
-67.667,45.85,0.5,0.00,Molodeznaja
-64.883,-62.883,29.3,0.00,Brown Arg-Base
-64.233,-56.717,19.4,0.00,Base Marambio (Centro Met. Antartico)
-63.467,-56.283,24.1,0.00,Petrel Arg-Base
-63.4,-56.983,28.4,0.00,Base Esperanza
-60.733,-44.733,32.3,0.00,Base Orcadas
-52.55,169.15,43.1,0.00,Campbell Island
-51.609,-69.313,39.5,0.00,Rio Gallegos
-50.017,-68.579,48.6,0.00,Santa Cruz
-49.307,-67.803,49.3,0.00,San Julian
-46.875,37.86,44.6,0.00,Marion Island
-46.412,168.313,49.7,0.00,Invercargill
-46.167,166.633,51.2,0.00,Puysegur Pt (Lgt-H)
-45.785,-67.466,52.4,0.00,Comodoro Rivadavia
-45.767,170.733,48.5,0.00,Taiaroa Head
-43.867,169.0,55.0,0.00,Haast
-43.81,-176.457,56.1,0.00,Chatham Islands
-43.5,147.15,55.0,0.00,Cape Bruny Lighthouse
-43.489,172.532,49.7,0.00,Christchurch Intl
-43.211,-65.27,53.1,0.00,Almirante Zar
-42.908,-71.139,43.5,0.00,Esquel
-42.883,147.333,55.3,0.00,Hobart (Ellerslie Road)
-42.836,147.51,54.5,0.00,Hobart
-42.717,170.983,55.7,0.00,Hokitika Aerodrome
-41.75,171.6,54.1,0.00,Westport Harbour
-41.733,174.2,53.2,0.00,Cape Campbell
-41.545,147.214,56.0,0.00,Launceston
-41.3,173.217,52.3,0.00,Nelson Aerodrome
-41.283,174.767,48.5,0.00,Wellington
-41.25,-71.617,34.4,0.00,Catedral 2000
-41.151,-71.158,48.3,0.00,San Carlos De Bariloche
-41.0,148.35,63.1,0.00,Larapuna (Eddystone Point)
-40.869,-63.0,54.5,0.00,Gobernador Castello
-40.833,145.083,59.0,0.00,Smithton Aerodrome
-40.783,-65.1,54.0,0.00,San Antonio Oeste Aero
-40.55,173.0,53.6,0.00,Farewell Spit
-40.206,175.388,51.3,0.00,Ohakea
-39.467,175.683,41.5,0.00,Waiouru
-39.467,176.867,55.0,0.00,Napier/Airport
-39.117,146.417,61.7,0.00,Wilsons Promontory Lighthouse
-39.017,174.183,52.6,0.00,New Plymouth Aerodr
-38.949,-68.156,53.8,0.00,Presidente Peron
-38.85,143.517,61.7,0.00,Cape Otway Lighthouse
-38.767,-72.637,50.0,0.00,Maquehue
-38.667,177.983,55.9,0.00,Gisborne Aerodrome
-38.483,-58.833,57.6,0.00,Necochea Airport
-38.387,-60.33,54.1,0.00,Tres Arroyos
-38.099,147.149,61.0,0.00,East Sale
-37.934,-57.573,57.4,0.00,Mar Del Plata
-37.867,144.75,61.3,0.00,Laverton Raaf
-37.817,144.967,63.0,0.00,Melbourne Regional Office
-37.733,140.783,57.2,0.00,Mount Gambier Aero
-37.673,144.843,59.6,0.00,Melbourne Intl
-37.667,144.85,59.9,0.00,Melbourne Intl Arpt
-37.667,176.2,58.6,0.00,Tauranga Aerodrome
-37.567,149.9,62.6,0.00,Gabo Island Lighthouse
-37.237,-59.228,55.4,0.00,Tandil
-37.008,174.792,60.3,0.00,Auckland Intl
-36.9,149.9,64.4,0.00,Merimbula Airport
-36.883,145.183,65.6,0.00,Mangalore Airport
-36.75,-59.833,52.4,0.00,Azul Airport
-36.588,-64.276,49.9,0.00,Santa Rosa
-36.35,-57.733,57.8,0.00,Dolores Airport
-36.317,141.633,60.8,0.00,Nhill Aerodrome
-35.845,-61.858,54.1,0.00,Comodoro P Zanni
-35.494,-69.574,53.8,0.00,Malargue
-35.367,-57.283,51.7,0.00,Punta Indio B.A.
-35.333,136.117,62.3,0.00,Neptune Island
-35.307,149.195,60.6,0.00,Canberra
-35.165,147.466,64.5,0.00,Wagga Wagga
-35.067,173.283,59.9,0.00,Kaitaia Aerodrome
-34.972,-57.895,58.4,0.00,La Plata
-34.95,138.533,60.6,0.00,Adelaide
-34.949,150.537,63.1,0.00,Nowra
-34.945,138.531,61.3,0.00,Adelaide Intl
-34.941,117.802,64.1,0.00,Albany Airport
-34.93,138.58,62.9,0.00,Adelaide (West Terrace)
-34.833,20.017,65.3,0.00,Cape Agulhas
-34.822,-58.536,52.2,0.00,Ministro Pistarini
-34.61,-58.613,57.3,0.00,El Palomar
-34.588,-68.403,56.5,0.00,San Rafael
-34.583,-58.483,58.2,0.00,Buenos Aires (Obs)
-34.559,-58.416,56.7,0.00,Aeroparque Jorge Newbery
-34.546,-60.931,51.0,0.00,Junin
-34.501,-58.604,58.1,0.00,Don Torcuato
-34.433,172.683,62.0,0.00,Cape Reinga
-34.367,115.133,66.8,0.00,Cape Leeuwin
-34.35,18.5,62.6,0.00,Cape Point
-34.2,24.833,65.5,0.00,Cape St. Francis
-34.183,22.15,63.3,0.00,Mossel Bay (Lgt-H)
-34.135,-63.362,51.5,0.00,Laboulaye
-34.0,137.533,65.8,0.00,Warburto Point
-33.985,25.617,66.7,0.35,Port Elizabeth Intl / Chief Dawid Stuurman Intl
-33.95,151.2,66.8,0.00,Sydney Intl Airport
-33.946,151.177,67.1,0.00,Sydney Intl
-33.924,150.988,64.7,0.00,Sydney Bankstown
-33.85,148.65,65.8,0.00,Cowra Airport Comparison
-33.85,151.2,66.4,0.00,Sydney (Observatory Hill)
-33.833,121.893,62.8,0.00,Esperance
-33.73,-65.387,63.3,0.00,Villa Reynolds
-33.65,-71.617,52.8,0.00,Santo Domingo
-33.601,150.781,64.4,0.00,Richmond
-33.383,149.117,54.5,0.00,Orange Airport Comparison
-33.273,-66.356,61.0,0.00,San Luis
-33.085,-64.261,54.4,0.00,Rio Cuarto Area De Material
-33.01,-58.613,57.0,0.00,Gualeguaychu
-32.904,-60.785,53.3,0.00,Rosario
-32.833,17.85,66.6,0.00,Cape Columbine
-32.832,-68.793,60.8,0.00,El Plumerillo
-32.795,151.834,65.2,0.00,Williamtown
-32.684,-62.158,55.4,0.00,Marcos Juarez
-32.217,148.575,63.1,0.00,Dubbo
-32.183,-64.383,57.6,0.00,Embalse Rio Tercero
-32.133,133.7,60.8,0.00,Ceduna Amo
-31.983,141.467,60.8,0.00,Broken Hill (Patton Street)
-31.97,141.45,61.9,0.00,Brokenhillp.O. (Rly Station
-31.945,-65.146,63.0,0.00,Villa Dolores
-31.94,115.967,63.5,0.00,Perth Intl
-31.933,115.967,63.8,0.00,Perth Intl/Belmont
-31.917,115.867,66.2,0.00,Perth Metro
-31.795,-60.48,56.4,0.00,General Urquiza
-31.718,-52.328,59.3,0.00,Pelotas / Joao Simoes Lopes Neto
-31.712,-60.812,59.0,0.00,Sauce Viejo
-31.571,-68.418,60.9,0.00,San Juan
-31.542,159.079,68.0,0.00,Lord Howe Island Aero
-31.483,145.833,62.4,0.00,Cobar Mo
-31.391,-54.112,61.0,0.00,Comandante Gustavo Kraemer
-31.333,-66.6,64.4,0.00,Chepes
-31.324,-64.208,54.9,0.00,Ambrosio L V Taravella
-31.297,-57.997,59.4,0.00,Comodoro Pierrestegui
-31.144,136.817,64.0,0.00,Woomera
-31.08,150.85,67.5,0.00,Tamworthamo/Mo.From1966
-30.833,128.1,60.9,0.00,Forrest Airport
-30.789,121.462,56.9,0.00,Kalgoorlie Boulder
-30.47,138.42,65.1,0.00,Leigh Creek Aero
-30.321,153.116,66.0,0.00,Coffs Harbour
-30.272,-57.64,60.3,0.00,Monte Caseros
-30.033,145.95,63.5,0.00,Bourke Airport Aws
-29.994,-51.171,65.8,0.00,Salgado Filho
-29.97,30.951,67.1,0.59,Durban Intl
-29.916,-71.2,52.9,0.00,La Florida
-29.883,-61.95,62.6,0.04,Ceres
-29.782,-57.038,59.2,0.00,Rubem Berta
-29.771,-57.979,60.3,0.00,Curuzu Cuatia
-29.711,-53.688,60.7,0.00,Santa Maria
-29.689,-57.152,59.7,0.04,Paso De Los Libres
-29.467,149.85,66.9,0.00,Moree
-29.382,-66.796,61.5,0.00,La Rioja
-29.25,-177.933,67.7,0.00,Raoul Island Kermadec Islands
-29.233,16.867,60.4,0.00,Port Nolloth
-29.183,-59.7,60.0,0.31,Reconquista Aero
-29.1,-59.217,60.8,0.16,Goya Airport
-29.093,26.302,53.6,0.24,Bloemfontein Intl / Bram Fischer Intl
-28.803,24.765,56.5,0.63,Kimberley
-28.796,114.708,70.5,0.00,Geraldton
-28.705,121.891,62.9,0.00,Murrin Murrin
-28.596,-70.756,57.6,2.01,Vallenar
-28.596,-65.752,65.3,0.00,Catamarca
-28.567,16.533,67.1,0.00,Alexander Bay
-28.517,150.317,69.4,0.00,Goondiwindi Airport
-28.5,32.4,68.5,14.57,Cape St. Lucia
-28.399,21.26,61.2,0.00,Upington
-28.067,145.683,67.1,0.00,Cunnamulla Post Office
-28.038,-67.58,59.6,0.00,Tinogasta
-28.0,143.817,67.1,0.00,Thargomindah Post O
-27.766,-64.31,64.0,0.00,Santiago Del Estero
-27.67,-48.547,65.7,0.00,Hercilio Luz
-27.617,-144.333,76.2,0.00,Rapa
-27.55,135.45,59.8,0.00,Oodnadatta Airport
-27.45,-59.056,58.9,0.47,Resistencia
-27.446,-58.762,61.4,0.00,Corrientes
-27.417,153.067,70.7,0.00,Brisbane Airport
-27.411,151.735,69.1,0.00,Oakey
-27.386,-55.971,61.2,0.55,Posadas
-27.383,153.117,70.2,0.00,Brisbane Intl Arpt
-27.296,-70.414,59.0,0.00,Chamonate
-26.85,-58.317,62.6,0.00,Pilar
-26.833,-65.2,61.6,0.00,Tucuman/Teniente Be
-26.757,-60.493,64.2,0.08,Presidencia Roque Saenz Pena / Termal
-26.614,118.537,64.5,0.00,Meekatharra Airport
-26.55,148.783,70.7,0.00,Roma Airport
-26.54,18.111,65.3,0.00,Keetmanshoop
-26.413,146.263,70.3,0.00,Charleville
-26.333,-70.607,60.4,0.00,Chanaral
-26.213,-58.228,61.6,0.00,Formosa
-26.139,28.246,54.5,0.02,Johannesburg Intl
-25.89,28.171,59.0,0.00,Pretoria(Met)
-25.737,-54.473,62.3,0.00,Cataratas Del Iguazu
-25.596,-54.487,60.4,0.00,Cataratas Intl
-25.533,-54.6,61.7,0.00,Ciudad Del Este
-25.528,-49.176,64.1,0.00,Afonso Pena
-25.517,-48.517,69.1,0.16,Paranagua
-25.417,142.65,66.7,0.00,Windorah Post Office
-25.24,-57.519,61.7,0.00,Silvio Pettirossi Intl
-25.038,46.956,72.9,0.00,Tolagnaro
-25.033,128.3,61.6,0.00,Giles Meteorological Office
-24.9,152.317,74.9,0.00,Bundaberg Aero
-24.888,113.67,72.4,0.00,Carnarvon Airport
-24.856,-65.486,57.6,0.00,Salta
-24.75,-65.433,49.1,0.00,Vaqueros South
-24.721,-60.549,62.6,0.00,Alferez Armando Rodriguez
-24.667,25.917,67.1,0.02,Gaborone
-24.393,-65.098,66.8,0.00,Jujuy
-24.117,152.717,75.7,0.00,Lady Elliot Island
-24.017,21.883,68.9,0.00,Tshane
-23.925,-46.288,77.2,0.00,Base Aerea De Santos
-23.867,29.45,63.1,0.02,Polokwane
-23.85,151.267,74.1,0.00,Gladstone Radar
-23.8,133.917,58.8,0.00,Alice Springs Arpt
-23.627,-46.655,70.2,0.00,Congonhas Deputado Freitas Nobre
-23.444,-70.445,60.3,0.00,Cerro Moreno Intl / Andres Sabella Intl
-23.43,144.28,75.3,0.00,Longreachamo.
-23.417,119.8,65.5,0.00,Newman Aero
-23.382,150.475,74.6,0.00,Rockhampton
-23.365,-149.524,79.1,0.00,Tubuai Mataura
-23.334,-51.13,68.3,0.00,Londrina / Governador Jose Richa
-23.233,-45.833,73.9,0.00,Sao Jose Dos Campos
-23.153,-64.329,69.8,0.00,Oran
-23.133,-134.967,77.3,0.00,Mangareva
-23.007,-47.135,70.9,0.00,Viracopos
-22.932,-43.719,76.5,0.00,Santa Cruz / Campo Nero Moura
-22.922,-42.074,70.1,0.00,Cabo Frio
-22.91,-43.163,77.2,0.00,Santos Dumont
-22.883,14.433,57.2,0.00,Walvis Bay (Pelican Point)
-22.875,-43.385,76.9,0.00,Campo Delio Jardim De Mattos
-22.813,-42.093,82.7,0.00,Sao Pedro Da Aldeia / Tenente Jorge Henrique Moller
-22.809,-43.244,75.7,0.00,Galeao Antonio Carlos Jobim
-22.5,-68.9,59.0,0.00,Calama
-22.483,-44.083,75.2,0.00,Volta Redonda
-22.48,17.471,65.8,0.00,Hosea Kutako Intl
-22.345,-49.054,70.8,0.02,Bauru
-22.267,166.45,75.0,0.00,Noumea
-22.25,118.333,73.3,0.00,Wittenoom
-22.217,30.0,76.1,0.00,Beitbridge
-22.175,-51.425,68.9,0.00,Presidente Prudente
-22.015,166.213,75.9,0.00,Noumea La Tontouta
-21.985,-47.335,71.9,0.00,Campo Fontenelle
-21.961,-63.652,63.2,0.00,Yacuiba
-21.917,-46.383,66.0,0.00,Caldas
-21.82,114.17,77.5,0.00,Northwest Cape (Navy Alpha)
-21.698,-41.302,79.9,0.00,Bartolomeu Lisandro
-21.67,115.12,76.4,0.00,Onslowamo
-21.667,150.267,75.2,0.00,Middle Percy Island
-21.633,115.117,76.1,0.00,Onslow
-21.267,-43.761,69.8,0.00,Major Brigadeiro Doorgal Borges
-21.203,-159.806,76.8,0.35,Rarotonga Intl
-21.159,27.468,66.2,0.20,P.G. Matante International Airport
-21.133,-175.183,76.7,0.17,Nukualofa
-21.117,149.217,74.9,0.00,Mackay Mo
-21.05,29.367,66.7,0.00,West Nicholson
-20.933,165.317,77.0,0.00,Poindimie (Nlle-Caledonie)
-20.777,-51.565,72.8,0.00,Urubupunga
-20.775,167.24,77.0,0.00,Lifou Ouanaham
-20.7,-46.333,72.9,0.00,Furnas/Private
-20.667,-178.717,76.4,0.00,Ono-I-Lau Aws
-20.667,140.5,66.4,0.00,Cloncurry Airport
-20.664,139.489,64.4,0.00,Mount Isa
-20.546,164.256,77.4,0.00,Koumac
-20.535,-70.181,60.8,0.00,Diego Aracena Intl
-20.533,-70.183,65.0,0.00,Iquique
-20.469,-54.673,67.0,2.05,Campo Grande
-20.378,118.626,75.0,0.00,Port Hedland Intl
-20.258,-40.286,79.8,0.00,Goiabeiras / Eurico De Aguiar Salles Intl
-20.233,169.767,77.6,0.00,Aneityum
-20.133,-157.35,78.5,0.00,Mauke Island
-20.05,-63.567,63.5,0.00,Camiri
-20.021,28.627,71.6,0.00,J M Nkomo Intl / Bulawayo
-20.02,148.21,77.0,0.00,Bowen Airport Aws
-19.973,23.431,72.5,0.16,Maun
-19.917,138.117,65.8,0.00,Camooweal Township
-19.9,-144.949,80.3,0.00,Hereheretue
-19.851,-43.951,72.9,0.00,Pampulha Carlos Drummond De Andrade
-19.777,-174.341,77.0,5.16,Haapai
-19.75,-47.917,71.0,0.00,Uberaba
-19.65,-43.883,74.6,0.00,Lagoa Santa Airport
-19.633,134.183,72.4,0.00,Tennant Creek Airport
-19.602,18.123,69.8,0.00,Grootfontein
-19.455,169.224,76.1,0.00,Tanna
-19.253,146.765,76.7,0.00,Townsville
-19.25,146.767,76.6,0.00,Townsville(Civ/Mil)
-19.133,179.75,78.2,0.96,Matuku Aws
-19.067,-169.917,75.2,1.65,Alofi
-19.05,178.167,78.8,2.01,Vunisea
-19.007,-65.289,52.7,0.00,Juana Azurduy De Padilla
-18.831,-159.764,80.0,0.16,Aitutaki
-18.717,125.967,68.0,0.00,Fitzroy Crossing Ca
-18.65,-173.983,77.5,6.81,Vavau
-18.349,-70.339,71.0,2.01,Chacalluta
-18.233,-178.8,77.9,0.83,Lakemba Island
-18.233,127.667,71.0,0.00,Halls Creek Airport
-18.075,-140.946,80.3,0.00,Hao
-18.067,-163.183,82.4,0.00,Palmerston *
-18.053,-70.276,68.0,0.00,Coronel Carlos Ciriani Santa Rosa Intl
-18.043,178.559,74.0,3.98,Nausori Intl
-17.963,-67.076,54.2,0.00,Juan Mendoza
-17.945,122.232,73.7,0.00,Broome Intl
-17.93,31.094,66.2,0.00,Robert Gabriel Mugabe Intl / Harare
-17.812,-63.171,66.2,0.00,El Trompillo
-17.755,177.443,77.0,6.06,Nadi Intl
-17.75,168.3,79.4,0.00,Port Vila/Bauerfld
-17.652,-39.253,80.0,0.00,Caravelas
-17.554,-149.607,80.6,0.00,Tahiti Faa A
-17.467,24.3,80.6,0.00,Sesheke
-17.421,-66.177,62.8,0.00,Jorge Wilstermann Intl
-17.37,123.67,76.2,0.00,Derby Airport
-17.3,123.617,75.2,0.00,Derby
-17.017,128.217,70.7,0.00,Warmun
-17.0,178.7,77.4,0.83,Nabouwalu
-16.886,145.755,77.0,0.00,Cairns Intl
-16.883,145.767,76.7,0.00,Cairns Airport
-16.833,27.067,73.9,0.00,Choma
-16.767,-153.95,82.4,0.00,Mopelia
-16.707,-43.819,79.0,0.00,Mario Ribeiro
-16.7,177.583,77.6,1.38,Yasawa
-16.632,-49.221,73.1,0.00,Santa Genoveva
-16.513,-68.192,39.3,0.00,El Alto Intl
-16.444,-151.751,80.3,0.00,Bora Bora Motu Mute
-16.417,167.8,81.2,0.02,Lamap/Malekoula Isl
-16.341,-71.583,63.0,0.00,Rodriguez Ballon
-16.288,149.965,78.8,0.00,Willis Island
-16.27,133.38,76.4,0.00,Dalywaters Police Station
-16.133,-179.983,77.6,1.33,Udu Point Aws
-15.9,-52.233,80.8,0.00,Aragarcas
-15.863,-47.913,69.9,0.00,Presidente Juscelino Kubitschek
-15.653,-56.117,73.8,0.00,Marechal Rondon
-15.501,167.223,77.9,1.83,Santo Pekoa Intl
-15.483,128.117,84.2,0.00,Wyndham
-15.467,-70.158,48.6,0.00,Juliaca / Inca Manco Capac Intl
-15.433,145.183,77.9,0.00,Cooktown Mission
-15.383,-75.167,68.6,0.00,San Juan De Marcona
-15.355,-38.999,81.5,0.00,Hotel Transamerica / Comandatuba
-14.867,-66.75,70.4,0.00,San Borja/Capt Germ
-14.819,-64.918,73.7,0.00,Tte Av Jorge Henrich Arauz
-14.8,-138.817,82.4,0.00,Puka-Puka Atoll
-14.8,-39.067,78.8,0.00,Ilheus
-14.7,-52.35,81.6,0.00,Nova Xavantina
-14.483,-145.033,81.5,0.00,Takaroa
-14.483,-67.483,73.0,0.00,Rurrenabaque
-14.331,-170.714,82.9,0.00,Tafuna/Pago Pago International Ap
-14.25,31.283,79.2,0.00,Petauke
-13.983,33.783,73.0,0.00,Lilongwe/Airport
-13.85,167.55,78.8,0.08,Sola/Vanua Lava Isl
-13.8,-171.783,80.9,0.02,Apia/Upolu Island
-13.767,-65.45,75.2,0.00,Santa Ana
-13.75,143.117,79.2,0.00,Coen Airport
-13.745,-76.22,68.6,0.00,Pisco Intl
-13.536,-71.939,54.5,0.00,Teniente Alejandro Velasco Astete Intl
-13.267,-70.667,70.2,2.17,Quincemil
-13.267,-43.417,83.8,0.00,Bom Jesus Da Lapa Aeroporto
-13.155,-74.204,60.4,0.00,Coronel Fap Alfredo Mendivil Duarte
-13.067,-64.667,74.8,0.00,San Joaquin
-12.911,-38.331,80.2,0.00,Deputado Luis Eduardo Magalhaes
-12.783,143.3,75.3,0.00,Lockhart River Airport
-12.614,-69.229,68.7,2.36,Padre Aldamiz
-12.5,177.05,80.0,2.13,Rotuma Island
-12.415,130.877,81.1,0.00,Darwin Intl
-12.405,16.947,68.5,0.00,Kuito
-12.188,96.834,26.8,0.00,Cocos Keeling Islands
-12.033,135.567,78.8,0.00,Elcho Island
-12.022,-77.114,67.2,0.00,Jorge Chavez Intl
-11.1,28.85,77.0,0.00,Mansa
-11.017,-66.117,77.0,0.08,Riberalta / Cap Av Selin Zeitun Lopez
-10.951,142.459,70.5,0.00,Bamaga Injinoo
-10.917,-37.05,80.8,0.31,Aracaju
-10.915,-165.839,83.9,0.00,Pukapuka Arpt
-10.75,179.5,80.6,1.18,Niulakita
-10.719,-48.4,79.5,0.55,Porto Nacional
-10.7,165.8,80.0,0.00,Santa Cruz Island
-10.567,142.217,79.4,0.00,Thursday Island
-10.172,123.671,82.0,0.00,El Tari
-10.05,-161.1,82.4,0.39,Rakahanga Atoll
-9.967,-67.8,75.6,0.00,Rio Branco
-9.879,-76.205,74.9,0.00,Alferez Fap D F Fernandini
-9.8,-139.033,78.5,0.00,Hiva-Oa
-9.511,-35.792,76.9,0.04,Zumbi Dos Palmares
-9.433,147.217,78.4,0.00,Port Moresby W.O.
-9.417,159.967,77.3,0.00,Honiara
-9.362,-40.569,78.4,0.00,Senador Nilo Coelho
-9.347,-77.598,63.7,0.00,Comandante Fap German Arias Graziani
-9.334,-54.965,75.0,2.76,Cachimbo / Campo De Provas Brigadeiro Veloso
-9.2,-171.917,81.3,0.39,Nukunono
-9.15,-78.524,72.7,0.00,Teniente Jaime A De Montreuil Morales
-9.133,-75.95,79.7,0.00,Tingo Maria
-9.017,-158.067,82.1,0.35,Penrhyn Island
-8.783,160.733,80.2,0.00,Auki
-8.749,115.167,80.6,0.00,Denpasar Ngurah Rai
-8.517,179.217,84.6,0.00,Funafuti Intl Arpt
-8.378,-74.574,80.2,0.08,Cap Fap David Abensur Rengifo Intl
-8.328,157.263,79.2,0.00,Munda
-8.126,-34.924,80.6,0.00,Guararapes Gilberto Freyre Intl
-8.081,-79.109,69.9,0.00,Capitan Fap Carlos Martinez De Pinillos
-7.97,-14.394,83.5,0.00,Ascension Aux Af
-7.733,109.017,82.0,0.00,Cilacap
-7.346,108.247,83.8,0.00,Cibeureum
-7.32,-47.459,81.7,0.00,Carolina / Brig Lysias Augusto Rodrigues
-7.3,72.4,79.7,0.00,Diego Garcia Naval Air Station
-7.27,-35.896,74.1,0.00,Presidente Joao Suassuna
-7.233,177.15,83.3,0.31,Nui
-7.217,112.717,84.2,0.00,Surabaya/Perak
-7.169,-76.729,83.6,0.12,Juanjui
-7.139,-78.489,61.6,0.00,Gen Fap Armando Revoredo Iglesias
-7.1,-34.867,76.2,0.00,Joao Pessoa
-6.983,110.383,83.8,0.00,Jenderal Ahmad Yani
-6.787,-79.828,71.9,0.00,Cap Fap Jose A Quinones Gonzales Intl
-6.509,-76.373,81.0,0.00,Cadete Guillermo Del Castillo Paredes
-6.3,106.567,88.2,0.00,Tangerang/Budiarto Arpt
-6.267,106.891,84.5,0.00,Halim Perdanakusuma Intl
-6.233,-57.777,80.3,0.12,Jacareacanga
-6.202,-77.856,64.4,0.00,Chachapoyas
-6.183,106.833,86.9,0.00,Jakarta/Observatory
-6.15,106.85,81.8,0.00,Jakarta/Kemayoran
-6.033,-76.967,76.1,0.00,Moyobamba
-5.911,-35.248,75.7,1.97,Campo Augusto Severo
-5.894,-76.118,74.8,1.06,Moises Benzaquen Rengifo / Yurimaguas
-5.667,176.133,82.0,0.01,Nanumea Island
-5.369,-49.138,76.6,0.00,Maraba / Joao Correa Da Rocha
-5.206,-80.616,80.8,0.00,Capitan Fap Guillermo Concha Iberico
-5.202,-37.364,80.9,0.00,Dix Sept Rosado
-5.062,119.554,82.4,0.00,Sultan Hasanuddin Intl
-5.06,-42.823,78.4,0.43,Senador Petronio Portella
-4.816,11.887,79.2,0.00,Pointe Noire / Antonio Agostinho Neto
-4.577,-81.254,76.1,0.00,Capitan Fap Victor Montes Intl
-4.2,12.7,79.5,0.00,Dolisie
-4.2,152.183,80.6,0.00,Rabaul
-4.193,-69.943,81.5,0.00,Alfredo Vasquez Cobo
-3.864,102.339,85.1,0.00,Fatmawati Soekarno
-3.855,-32.423,79.6,0.00,Fernando De Noronha
-3.785,-73.309,86.3,0.00,Coronel Francisco Secada Vignetta Intl
-3.776,-38.533,77.3,0.00,Pinto Martins Intl
-3.553,-80.381,83.1,0.00,Cap Fap Pedro Canga Rodriguez
-3.146,-59.986,81.8,0.00,Campo Ponta Pelada
-2.894,-41.732,76.8,0.00,Parnaiba Prefeito Dr Joao Silva Filho
-2.746,107.755,81.1,0.00,H As Hanandjoeddin
-2.667,176.833,82.4,0.00,Arorae Island
-2.617,16.217,77.9,0.00,M'Pouya
-2.585,-44.234,76.4,0.00,Marechal Cunha Machado Intl
-2.422,-54.793,83.2,0.24,Santarem / Maestro Wilson Fonseca
-2.17,106.13,77.5,0.00,Pangkalpinang / Depati Amir
-1.733,-52.233,84.2,0.00,Porto De Moz
-1.638,103.644,79.7,0.00,Sultan Thaha
-1.379,-48.476,77.0,0.00,Val De Cans Julio Cezar Ribeiro Intl
-0.9,169.533,82.9,0.00,Banaba
-0.833,12.717,72.5,0.28,Lastoursville
-0.712,8.754,80.6,0.00,Port Gentil
-0.704,10.246,76.3,0.00,Lambarene
-0.35,102.333,77.9,0.00,Rengat/Japura Arpt
-0.151,109.404,81.5,0.00,Supadio
0.051,-51.072,81.4,0.00,Macapa / Alberto Alcolumbre
0.378,6.712,80.2,0.00,Sao Tome Intl
0.459,9.412,78.8,0.28,Leon M Ba
0.579,12.891,73.9,0.00,Makokou
0.783,11.533,74.3,0.00,Mitzic
0.831,127.381,81.9,0.00,Babullah
0.862,-77.672,53.6,0.00,San Luis
1.36,103.91,80.5,0.00,Paya Lebar
1.382,173.147,83.3,0.02,Bonriki Intl
1.393,-77.291,69.4,0.00,Antonio Narino
1.485,110.347,81.1,0.00,Kuching Intl
1.817,-78.75,80.2,0.12,Tumaco/La Florida
2.033,-56.117,83.1,0.02,Sipaliwini
2.067,-50.85,82.4,0.16,Amapa
2.076,11.493,79.3,0.00,Bitam
2.262,111.985,86.5,0.00,Sibu
2.263,102.252,79.9,0.00,Malacca
2.454,-76.609,68.9,0.00,Guillermo Leon Valencia
2.846,-60.69,85.6,0.00,Boa Vista / Atlas Brasil Cantanhede
3.124,113.02,83.0,0.00,Bintulu
3.131,101.549,77.4,0.00,Sultan Abdul Aziz Shah Intl
3.367,-57.333,78.4,0.04,Coeroeni
3.543,-76.382,77.4,0.91,Alfonso Bonilla Aragon Intl
3.558,98.672,83.4,0.00,Polonia / Kualanamu Intl
3.775,103.209,80.8,0.00,Kuantan
3.783,-56.15,75.2,0.16,Tafelberg
4.1,-76.233,75.9,0.00,Tulua/Farfan
4.168,-73.614,83.8,0.00,Vanguardia
4.217,100.7,80.9,0.00,Sitiawan
4.283,-74.8,83.6,0.02,Girardot/Santiago Villa
4.322,113.987,82.1,0.00,Miri
4.398,18.519,75.7,0.00,Bangui M Poko
4.422,-75.133,81.1,0.00,Perales
4.453,-75.766,73.0,0.79,El Eden
4.517,-75.517,50.0,0.39,El Paso/La Linea
4.702,-74.147,58.0,0.24,El Dorado Intl
4.733,22.833,77.9,0.59,Bangassou
4.813,-75.74,69.3,0.02,Matecana
4.82,-52.36,78.0,0.00,Rochambeau / Cayenne Felix Eboue
4.896,-1.775,82.8,0.00,Takoradi
5.03,-75.465,64.9,0.01,La Nubia
5.05,21.2,77.9,1.46,Alindao
5.261,-3.926,81.5,0.02,Abidjan Felix Houphouet Boigny Intl
5.297,100.277,82.7,0.00,Penang Intl
5.453,-55.188,77.8,0.00,Johan A Pengel Intl
5.567,-57.783,82.4,0.00,Ebini
5.605,-0.167,83.3,0.00,Kotoka Intl
5.901,118.059,83.2,0.00,Sandakan
5.937,116.051,79.6,0.00,Kota Kinabalu Intl
5.95,-57.03,81.3,0.00,Nickerie
6.05,121.0,84.7,0.00,Jolo
6.05,125.1,80.6,0.00,Gen. Santos
6.083,-0.25,82.9,1.54,Koforidua
6.117,81.133,81.8,0.00,Hambantota
6.166,1.255,82.0,0.00,Gnassingbe Eyadema Intl
6.167,102.293,82.2,0.00,Sultan Ismail Petra
6.22,-75.591,74.1,0.08,Olaya Herrera
6.357,2.384,83.3,0.00,Card Bernardin Gadin De Cadjehoun Intl
6.5,-58.25,78.2,0.00,Georgetown
6.52,101.743,84.2,0.02,Narathiwat
6.533,21.983,76.6,0.94,Bria
6.577,3.321,82.4,1.54,Murtala Muhammed
6.785,101.154,82.8,0.08,Pattani
6.8,-58.15,80.6,0.00,Georgetown
6.822,79.886,81.5,0.00,Colombo Ratmalana
6.922,122.06,79.3,0.00,Zamboanga Intl
6.933,100.393,80.3,0.00,Hat Yai Intl
6.967,80.767,61.6,0.00,Nuwara Eliya
7.01,-74.715,77.0,0.00,Otu Remedios
7.024,-73.807,81.9,0.00,Yariguies
7.067,125.6,80.9,0.12,Davao
7.1,-72.8,77.4,0.00,Bucarahalga
7.1,4.833,81.1,0.00,Ondo
7.167,2.067,82.8,0.00,Bohicon
7.181,79.866,83.0,0.00,Bandaranaike Intl Colombo
7.187,100.608,80.7,1.06,Songkhla
7.333,134.483,82.3,0.00,Babelthuap/Koror Air
7.35,149.2,81.5,4.33,Puluwat Atoll Aws   Caroline Is.
7.433,3.9,81.0,0.00,Ibadan
7.467,151.85,78.2,0.08,Chuuk International Airport
7.509,99.617,81.2,0.59,Trang
7.583,1.117,79.7,0.00,Atakpame/Akpaka
7.706,81.679,83.8,0.00,Batticaloa
7.883,98.4,80.0,2.76,Phuket
8.033,79.833,85.4,0.00,Puttalam
8.113,98.317,77.2,2.17,Phuket Intl
8.117,-76.733,80.2,0.00,Turbo/Gonzalo Mejia
8.391,-82.435,86.4,0.00,Enrique Malek Intl
8.471,99.956,80.0,0.00,Cha Ian
8.483,124.65,82.1,0.00,Cagayan De Oro
8.539,81.182,83.4,0.00,China Bay
8.601,123.334,82.4,0.04,Dipolog
8.616,-13.195,82.1,0.00,Freetown Lungi
8.733,167.733,80.3,1.89,Bucholz Aaf Kwajalein Kmr Atol Ap
8.824,-75.826,85.1,0.00,Los Garzones
8.917,-79.6,83.2,0.00,Howard
8.983,1.15,81.1,0.08,Sokode
9.071,-79.383,82.8,0.00,Tocumen Intl
9.133,99.136,79.5,0.04,Surat Thani
9.285,-74.846,83.3,0.00,Baracoa
9.333,-75.283,86.5,0.04,Corozal/Las Brujas
9.334,123.3,81.4,0.00,Dumaguete
9.35,2.617,83.5,0.00,Parakou
9.467,100.05,83.0,0.00,Ko Samui
9.483,138.083,81.6,0.00,Yap International Airport
9.6,105.967,81.9,0.87,Ba-Xuyen/Soc Trang
9.617,6.533,86.4,0.00,Minna
9.65,-74.833,83.8,0.67,San Marc S
9.664,123.853,85.3,0.04,Tagbilaran
9.742,118.759,80.6,0.00,Puerto Princesa
9.778,98.585,78.5,0.35,Ranong
9.783,125.483,77.9,2.95,Surigao
9.8,80.067,84.2,0.00,Kankasanturai
9.958,-83.022,78.4,0.00,Limon Intl
9.967,-84.833,87.1,0.00,Puntarenas
9.967,98.583,78.4,0.00,Victoria Point
9.994,-84.209,73.6,0.00,Juan Santamaria Intl
10.0,105.083,78.0,3.15,Rach Gia
10.05,105.767,78.8,0.16,Phong Dinh/Can Tho
10.083,105.717,79.9,0.08,Can Tho
10.15,-85.45,81.9,0.00,Nicoya / Miguel Angel Castillo Zumbado
10.283,9.817,90.0,0.00,Sir Abubakar Tafawa Balewa Intl
10.283,22.783,90.5,0.00,Birao
10.317,1.383,86.9,0.00,Natitingou
10.333,-3.183,86.4,0.24,Gaoua
10.367,0.467,89.6,0.00,Mango/Sansanne
10.383,114.367,86.3,0.00,Nansha Dao
10.442,-75.513,82.0,0.00,Rafael Nunez
10.595,-61.337,78.4,0.22,Piarco
10.603,-66.991,76.7,0.00,Simon Bolivar Intl
10.711,99.362,83.6,0.00,Chumphon
10.713,122.541,83.7,0.00,Iloilo
10.765,78.71,88.5,0.00,Tiruchirappalli
10.819,106.652,82.8,0.08,Tan Son Nhat Intl
10.85,121.0,86.4,0.16,Cuyo
10.89,-74.781,83.3,0.00,Ernesto Cortissoz
10.933,108.1,85.1,0.28,Phan Thiet
10.967,106.817,83.5,0.00,Saigon/Bien/Hoa
11.031,77.044,86.7,0.00,Coimbatore
11.13,7.686,86.7,0.00,Zaria
11.133,2.933,90.7,0.00,Kandi
11.16,-4.331,84.6,0.91,Bobo Dioulasso
11.228,125.028,79.7,0.16,Daniel Z Romualdez
11.25,75.783,87.1,0.00,Kozhikode
11.35,-5.683,92.3,0.00,Sikasso
11.526,-72.926,77.9,0.00,Almirante Padilla
11.598,122.752,84.7,0.00,Roxas
11.633,108.95,83.7,0.00,Phan Rang
11.75,-2.933,93.6,0.04,Boromo
11.767,79.767,84.6,0.00,Cuddalore
11.767,102.883,81.2,1.30,Khlong Yai
11.783,124.883,78.8,0.20,Catbalogan
11.786,34.337,97.2,0.00,Damazin
11.788,99.805,83.7,0.00,Prachuap
11.883,3.45,95.4,0.00,Gaya
11.895,-15.654,81.5,0.00,Bissau Oswaldo Vieira Intl
12.033,0.367,95.4,0.00,Fada N'Gourma
12.134,15.034,94.6,0.00,Ndjamena Hassan Djamous
12.141,-86.168,83.0,0.00,Managua Intl / Augusto Cesar Sandino Intl
12.183,-14.667,88.2,0.00,Bafata
12.189,-68.96,80.6,0.00,Hato
12.25,109.2,83.3,0.00,Nha Trang
12.353,-1.512,95.5,0.00,Ouagadougou
12.369,123.629,82.4,0.08,Masbate
12.502,124.636,84.2,0.00,Catarman
12.556,-16.282,74.8,0.00,Ziguinchor
12.583,122.283,83.2,0.00,Romblon
12.584,-81.711,82.7,0.31,Gustavo Rojas Pinilla
12.6,102.117,80.1,0.08,Chanthaburi
12.636,99.952,83.9,0.00,Hua Hin
12.683,100.983,81.3,0.08,Sattahip
12.683,101.0,83.0,0.39,U-Taphao Intl(Navy)
12.916,5.207,94.3,0.00,Sadiq Abubakar Iii Intl
12.917,79.15,89.6,0.00,Vellore
12.961,74.89,84.7,0.00,Mangalore
12.967,77.583,82.8,0.00,Bangalore
12.994,80.181,86.6,0.00,Chennai Intl
13.083,109.283,82.4,0.02,Tuy-Hoa
13.153,30.233,99.5,0.00,El Obeid
13.157,123.746,80.0,0.47,Legazpi
13.167,32.667,95.4,0.00,Kosti/Rabak
13.167,100.8,83.1,0.12,Ko Sichang
13.3,-87.183,91.7,0.00,Choluteca
13.367,100.983,81.8,0.20,Chon Buri/Sattahip / Suvarnabhumi Intl
13.417,121.183,84.5,0.00,Calapan/Mindoro Isl
13.482,2.184,92.8,0.00,Diori Hamani
13.483,144.8,80.8,0.94,Guam Wfo
13.567,-89.833,83.6,0.00,Acajutla/Sonsonate
13.567,-2.417,91.9,0.00,Ouahigouya
13.567,144.917,79.2,1.22,Andersen Afb
13.576,124.206,78.2,0.31,Virac
13.699,-89.12,80.3,0.00,Ilopango Intl
13.733,-60.953,81.8,0.00,Hewanorra Intl
13.733,100.567,81.3,0.51,Bangkok Metropolis
13.737,-13.653,93.6,0.00,Tambacounda
13.767,109.217,83.2,0.43,Quy Nhon
13.779,8.984,94.1,0.00,Zinder
13.8,5.25,96.8,0.00,Birni-N'Konni
13.913,100.607,81.9,0.00,Bangkok Intl / Don Mueang Intl
13.936,-90.836,88.3,0.00,San Jose
13.95,109.05,82.2,0.00,Phu Cat
14.0,108.017,74.5,0.00,Pleiku Ab/Cu-Hanh
14.005,108.017,77.9,0.00,Pleiku
14.017,99.533,83.8,0.02,Kanchana Buri
14.017,121.6,82.1,0.00,Tayabas
14.02,-60.993,82.0,0.00,George F L Charles
14.033,-0.033,92.8,0.00,Dori
14.033,35.4,99.5,0.00,Gedaref/Azaza
14.047,-83.387,81.5,0.51,Puerto Cabezas
14.061,-87.217,74.7,0.00,Toncontin Intl
14.078,101.38,83.0,0.20,Khao E To
14.129,122.98,81.1,0.12,Daet
14.147,-16.051,87.3,0.00,Kaolack
14.2,1.45,95.0,0.00,Tillabery
14.25,13.117,93.2,0.00,N'Guigmi
14.417,101.533,68.9,0.00,Khao Kheo
14.45,79.983,85.3,0.00,Nellore
14.467,100.133,80.6,1.38,Suphan Buri
14.509,121.02,82.6,0.04,Ninoy Aquino Intl
14.521,-91.697,87.2,0.00,Retalhuleu
14.583,-90.527,66.9,0.00,La Aurora
14.583,77.633,90.0,0.00,Pbo Anantapur
14.591,-61.003,77.3,1.81,Le Lamentin
14.65,121.05,84.9,1.14,Science Garden
14.74,-17.49,68.4,0.00,Leopold Sedar Senghor Intl
14.75,98.633,86.0,0.00,Thong Phaphum
14.75,121.65,83.7,0.00,Infanta
14.8,100.617,86.4,0.63,Lop Buri
14.8,120.267,84.7,0.02,Subic Bay Weather
14.876,5.265,97.9,0.00,Tahoua
14.883,-92.3,87.1,0.08,Tapachula/Airport
14.883,100.667,85.1,0.00,Lop Buri/Koke Kathi
14.883,103.5,83.0,0.12,Surin
14.9,-85.933,82.7,0.00,Catacamas
14.935,102.079,78.6,0.00,Khorat
15.05,100.917,86.4,0.00,Moung Khom/Chandy R
15.117,105.767,80.6,0.00,Pakse
15.117,145.733,82.5,0.04,Saipan/Isley (Cgs)
15.133,108.783,80.9,0.00,Quang Ngai
15.186,120.56,80.9,0.00,Clark Intl / Diosdado Macapagal Intl
15.23,103.253,81.5,1.61,Buri Ram
15.233,-9.35,94.1,0.00,Nioro Du Sahel
15.233,100.283,86.0,0.00,Ta Khli  Thailand Ab
15.251,104.87,80.8,1.50,Ubon Ratchathani
15.261,-83.781,79.3,0.00,Puerto Lempira
15.267,101.2,81.7,0.00,Bua Chum
15.317,-91.467,68.6,0.00,Huehuetenango
15.317,103.683,82.8,0.24,Tha Tum
15.333,119.967,77.5,0.00,Iba/Luzon Island
15.381,73.831,84.9,0.00,Goa Intl
15.417,75.633,87.8,0.00,Gadag
15.433,45.333,83.9,0.00,Marib
15.483,73.817,84.9,0.00,Goa/Panjim
15.547,-61.3,80.6,0.24,Melville Hall
15.589,32.553,101.8,0.00,Khartoum
15.657,101.105,82.8,0.00,Wichian Buri
15.673,100.137,84.5,0.00,Nakhon Sawan
15.73,121.5,83.7,0.00,Baler
15.731,-88.584,83.1,0.00,Puerto Barrios
15.733,120.933,82.6,0.00,Munoz
15.742,-86.853,81.0,0.00,Goloson Intl
15.776,-87.476,78.8,0.00,Tela
15.8,102.033,84.6,0.00,Chaiyaphum
15.859,74.618,82.4,0.00,Belgaum
16.044,108.199,79.2,0.00,Danang Intl
16.051,-16.463,68.9,0.00,Saint Louis Ousmane Masseck Ndiaye
16.07,103.646,83.0,0.00,Rob Muang
16.265,-61.532,76.9,0.24,Le Raizet
16.317,-89.417,73.0,0.00,Poptun
16.375,120.62,67.1,0.16,Baguio
16.402,107.703,81.3,0.00,Phubai
16.467,-95.1,83.1,0.00,Ixtepec
16.467,102.784,82.9,0.00,Khon Kaen
16.53,80.797,89.6,0.00,Vijayawada
16.533,104.717,84.2,0.00,Mukdahan
16.557,104.76,81.0,0.00,Savannakhet
16.65,102.967,84.8,0.00,Khon Kaen/Nam Phung
16.665,74.289,86.0,0.00,Kolhapur
16.676,101.195,81.1,0.04,Phetchabun
16.7,98.545,80.9,0.00,Mae Sot
16.73,-3.008,90.1,0.00,Tombouctou
16.733,-169.533,78.1,0.24,Johnston Atoll Airport
16.741,-22.949,67.6,0.00,Amilcar Cabral Intl
16.75,-99.75,81.7,0.00,Acapulco  Gro
16.75,-93.133,80.9,0.98,Francisco Sarabia / Tuxtla Gutierrez Intl
16.783,100.279,85.0,0.00,Phitsanulok
16.833,112.333,80.3,0.00,Xisha Dao
16.896,99.253,85.4,0.00,Tak
16.9,96.183,88.9,0.00,Mingaladon
16.917,-89.883,84.4,0.00,Flores/Santa Elena
16.967,7.967,96.5,0.00,Agadez / Mano Dayak
16.983,73.333,85.7,0.00,Ratnagiri
17.033,54.083,83.1,0.00,Salalah
17.039,54.091,83.1,0.00,Salalah
17.05,-96.717,69.5,0.00,Oaxaca  Oax.
17.137,-61.793,78.4,0.00,V C Bird Intl
17.15,104.133,83.6,0.00,Sakon Nakhon
17.233,99.05,84.2,0.51,Bhumibol Dam
17.283,-62.733,79.2,0.00,Basseterre
17.311,-62.719,79.7,0.00,Robert L Bradshaw
17.367,102.8,87.3,0.00,Udorn Ab (Usaf)
17.386,102.788,82.4,0.00,Udon Thani
17.4,-83.933,80.0,0.00,Islas Del Cisne
17.417,104.783,83.3,0.00,Nakhon Phanom
17.452,78.461,89.2,0.00,Begumpet Airport / Hyderabad Intl
17.539,-88.308,85.1,0.00,Philip S W Goldson Intl
17.555,120.356,83.6,0.00,Vigan
17.617,100.1,86.4,0.00,Uttaradit
17.628,75.935,95.5,0.00,Solapur
17.638,121.731,85.7,0.02,Tuguegarao
17.65,-101.45,83.3,2.72,Zihuatanejo
17.7,33.967,96.4,0.00,Atbara
17.717,83.217,86.0,0.01,Vishakhapatnam Ctlz
17.867,102.75,83.0,0.00,Nong Khai
17.936,-76.788,79.6,0.00,Norman Manley Intl
17.988,102.563,83.0,0.00,Wattay Intl
18.017,-92.95,83.2,0.91,Villahermosa      &
18.098,-15.948,68.7,0.00,Nouakchott
18.132,100.165,84.2,0.00,Phrae
18.15,-94.417,82.2,0.08,Coatzacoalcos     &
18.167,97.933,82.7,0.00,Mae Sariang
18.178,120.532,84.9,0.00,Laoag Intl
18.217,109.583,78.5,0.00,Sanya
18.251,-71.12,79.7,0.04,Maria Montez Intl
18.255,-65.641,79.2,0.00,Naval Station Roosevelt Roads Ceiba
18.271,99.504,84.2,0.00,Lampang
18.336,-64.98,81.0,0.75,Cyril E King Airport
18.417,-66.0,80.2,0.00,San Juan Intl Arpt
18.43,-69.669,75.6,0.55,De Las Americas Intl
18.433,-69.883,76.7,1.38,Santo Domingo
18.433,-66.011,80.5,0.00,San Juan L M Marin Intl Ap
18.504,-77.913,79.2,0.00,Sangster Intl
18.505,-88.327,80.5,0.00,Chetumal Intl
18.533,73.85,85.3,0.00,Pune
18.55,31.85,96.3,0.00,Karima
18.58,-72.293,82.9,0.00,Toussaint Louverture Intl / Port Au Prince Intl
18.617,-99.25,90.1,0.00,Tequesquitengo
18.65,-91.783,84.6,0.91,Ciudad Del Carmen
18.683,12.917,93.7,0.00,Bilma
18.767,98.963,83.9,0.00,Chiang Mai Intl
18.808,100.783,81.3,0.00,Nan
18.9,145.6,81.1,0.12,Pagan Island Aws  Mariana Is.
19.05,-69.383,74.7,0.00,Sabana De La Mar
19.089,72.868,87.3,0.00,Chhatrapati Shivaji Maharaj Intl
19.1,108.617,77.2,0.00,Dongfang
19.117,100.8,78.3,0.00,Tha Wang Pha
19.15,-104.567,85.1,0.91,Manzanillo Intl   &
19.2,-96.133,79.1,0.98,Veracruz/Gen Jara
19.233,110.467,77.6,0.00,Qionghai
19.283,166.65,76.4,0.00,Wake Island Airfld
19.301,97.976,84.2,0.00,Mae Hong Son
19.397,-102.039,76.6,0.00,Licenciado Y Gen Ignacio Lopez Rayon / Uruapan
19.406,-70.605,76.1,0.00,Cibao Intl
19.433,-99.133,63.4,0.00,Aerop Internacional Mexico  D F
19.517,109.583,75.9,0.00,Danxian
19.583,37.217,84.6,0.00,Port Sudan
19.683,-79.883,50.0,0.00,Cayman Brac
19.719,-155.053,71.1,0.00,Hilo International Airport
19.758,-70.57,78.5,0.00,Gregorio Luperon Intl
19.85,-101.026,64.4,0.00,General Francisco J Mujica Intl / Morelia Intl
19.85,-77.233,79.2,0.00,Cabo Cruz  Granma
19.863,75.398,91.1,0.00,Aurangabad
19.885,99.827,81.8,0.00,Chiang Rai
19.9,-75.15,76.9,0.00,Guantanamo Bay Naval Air Station
20.0,110.25,75.8,0.00,Haikou
20.033,-75.633,62.2,0.08,Gran Piedra   Santiago De Cuba
20.083,-98.367,59.7,0.00,Tulancingo
20.133,92.873,87.3,0.00,Sittwe
20.243,0.977,81.5,0.00,Tessalit
20.244,85.818,88.7,0.00,Bhubaneshwar / Biju Patnaik Intl
20.451,121.98,78.8,0.04,Basco
20.517,-86.933,80.8,0.00,Cozumel (Fam) Q Roc
20.6,-103.383,75.3,0.00,Guadalajara
20.667,116.717,77.3,0.00,Dongsha Dao
20.683,-105.25,76.2,0.00,Puerto Vallarta
20.699,77.059,92.1,0.00,Akola
20.783,-156.95,72.1,0.00,Lanai
20.85,88.25,83.8,0.00,Sandheads
20.9,-156.429,75.1,0.00,Kahului Airport
20.9,70.367,83.5,0.00,Veraval
20.933,-17.03,64.4,0.00,Nouadhibou
20.937,-89.658,83.5,1.06,Licenciado Manuel Crescencio Rejon Int / Merida Intl
20.95,-97.4,79.5,0.00,Tuxpan.Ver.
20.967,-92.317,78.8,0.00,Triangulos Reefs
21.017,-86.867,85.7,0.00,Cancun Intl
21.033,109.117,74.3,0.00,Wei-Zhou Island
21.067,-101.55,73.1,0.00,Leon/San Carlos
21.15,-157.1,77.3,0.00,Molokai (Amos)
21.2,72.833,90.0,0.00,Surat
21.217,110.4,76.3,0.00,Zhanjiang
21.317,-158.067,74.5,0.00,Kalaeloa Arpt
21.324,-157.929,74.8,0.00,Honolulu International Airport
21.42,-77.848,74.8,0.39,Ignacio Agramonte Intl
21.45,-157.768,75.1,0.00,Kaneohe Mcas
21.45,-71.15,80.3,0.00,Turks Island
21.483,109.1,73.9,0.00,Beihai
21.487,-158.028,73.0,0.00,Wheeler Army Airfield
21.5,39.2,80.8,0.00,Jeddah Intl
21.5,101.583,72.5,0.00,Mengla
21.733,112.767,77.3,0.00,Shangchuan Dao
21.867,111.967,77.2,0.00,Yangjiang
21.917,-80.167,74.8,0.94,Cantarrana   Cienfuegos
21.95,108.617,75.5,0.00,Qinzhou
21.984,-159.341,74.4,0.00,Lihue Airport
22.0,100.783,76.1,0.00,Jinghong
22.0,120.75,81.6,0.00,Hengchun
22.033,-159.783,75.8,0.00,Barking Sands Pacific Missile Range Fac Arpt
22.041,120.73,79.5,0.00,Hengchun
22.05,-98.8,89.6,0.00,Tamuin/Villa Tamuin
22.067,-81.033,77.0,0.00,Playa Giron  Matanzas
22.15,113.592,75.9,0.00,Macau Intl
22.254,-100.931,65.5,0.00,Ponciano Arriaga Intl / San Luis Potosi Intl
22.267,112.783,78.4,0.00,Tai-Shan
22.283,-97.85,80.0,0.00,Tampico
22.3,73.25,92.8,0.00,Baroda
22.3,114.167,75.2,0.00,Hong Kong Observatory
22.309,70.78,82.9,0.00,Rajkot
22.309,113.915,76.3,0.00,Hong Kong Intl
22.35,110.933,76.3,0.00,Xinyi
22.367,106.75,77.0,0.00,Longzhou
22.417,120.55,81.0,0.00,Chia Tung
22.45,70.083,82.4,0.00,Jamnagar
22.5,103.95,77.9,0.00,He-Kou
22.517,-78.45,76.1,0.00,Cayo Coco   Ciego De Avila
22.55,-83.3,77.9,0.00,Paso Real De San Diego  Pinar Del Rio
22.567,99.933,76.7,0.00,Lancang
22.577,120.35,81.5,0.00,Kaohsiung Intl
22.608,108.172,74.4,0.00,Wuxu
22.617,101.817,69.8,0.20,Jiangcheng
22.639,113.811,76.7,0.00,Baoan Intl
22.655,88.447,88.1,0.00,Netaji Subhash Chandra Bose Intl
22.672,120.462,83.3,0.00,Pingtung South
22.683,-12.7,74.3,0.00,F Derik
22.7,120.482,80.2,0.00,Pingtung North
22.722,75.801,90.2,0.00,Devi Ahilyabai Holkar
22.75,121.15,79.5,0.00,Taidong
22.767,81.9,88.2,0.00,Pendra Road
22.767,100.983,72.1,0.12,Simao
22.783,115.367,71.1,0.00,Shanwei
22.783,120.262,78.7,0.00,Gangshan
22.793,121.182,78.5,0.00,Jhihhang
22.8,5.433,71.4,1.97,Tamanrasset
22.813,86.169,93.2,0.00,Jamshedpur
22.95,120.206,79.4,0.00,Tainan
22.989,-82.409,77.0,0.00,Jose Marti Intl
23.0,120.217,82.4,0.00,Tainan
23.017,-81.517,75.2,0.08,Matanzas
23.034,-81.435,79.3,0.00,Juan Gualberto Gomez Intl
23.05,112.467,76.5,0.00,Gaoyao
23.077,72.635,91.8,0.00,Ahmedabad / Sardar Vallabhbhai Patel Intl
23.178,80.052,91.1,0.00,Jabalpur
23.287,77.337,88.2,0.00,Bhopal / Raja Bhoj
23.288,69.67,86.8,0.00,Bhuj
23.3,105.95,76.4,0.00,Napo
23.314,85.322,93.9,0.00,Birsa Munda
23.392,113.299,78.5,0.00,Baiyun Intl
23.4,110.083,74.9,0.00,Guiping
23.4,116.683,73.2,0.00,Shantou / Chaoshan
23.45,103.333,66.7,0.28,Mengzi
23.462,120.393,75.5,0.00,Chiayi
23.483,111.3,72.1,0.00,Wuzhou
23.517,119.567,73.7,0.00,Magong
23.567,99.083,81.2,0.00,Mengding
23.569,119.628,73.7,0.00,Magong / Penghu
23.6,101.983,79.7,0.08,Yuanjiang
23.7,-15.867,65.4,0.00,Villa Cisneros(Mil)
23.742,-99.17,85.8,0.00,Ciudad Victoria   Tamps.
23.767,90.383,88.4,0.00,Dacca/Tezgaon
23.8,114.733,77.4,0.00,Heyuan
23.867,-166.283,77.0,0.00,French Frigate Shoals
23.883,113.517,79.2,0.00,Fogang
23.9,106.6,78.0,0.00,Baise
23.95,100.217,72.1,0.00,Lincang
23.964,32.82,92.2,0.00,Aswan Intl
24.0,97.85,79.7,0.00,Ruili
24.017,121.617,77.6,0.00,Hualian
24.023,121.618,75.7,0.00,Hualien
24.05,-104.6,73.1,1.89,Durango  Dgo.
24.067,105.067,68.7,0.00,Guangnan
24.167,-110.3,78.3,0.91,La Paz  Bcs
24.179,23.314,89.6,0.00,Kufra
24.183,120.65,75.2,0.00,Taichung
24.186,120.654,74.7,0.00,Taichung
24.2,110.517,78.1,0.00,Mengshan
24.265,120.621,72.7,0.00,Taichung Intl / Ching Chuang Kang Ab
24.283,116.067,73.9,0.00,Mei Xian
24.29,153.979,74.8,0.00,Minami Torishima
24.293,9.452,75.6,0.00,Tiska
24.345,124.187,75.6,0.00,New Ishigaki
24.35,109.4,75.6,0.00,Liuzhou
24.367,114.483,72.1,0.00,Lianping
24.428,118.359,71.4,0.00,Shang Yi / Kinmen
24.533,103.767,63.3,0.00,Luxi
24.544,118.128,74.1,0.00,Gaoqi
24.553,39.705,92.4,0.00,Prince Mohammad Bin Abdulaziz
24.557,-81.755,77.0,18.07,Key West International Airport
24.567,80.833,90.5,0.00,Satna
24.583,-81.683,76.8,0.00,Key West Nas
24.583,73.7,86.9,0.00,Udaipur
24.633,117.65,76.1,0.00,Zhangzhou
24.667,113.6,74.2,0.00,Shaoguan
24.7,108.05,72.9,0.00,Hechi
24.722,46.725,81.3,0.00,King Salman Ab
24.75,121.767,75.5,0.00,Ilan
24.76,93.897,75.7,0.00,Imphal
24.765,-107.475,81.1,0.00,Culiacan Intl
24.783,125.295,74.7,0.00,Miyako
24.784,141.323,78.8,0.00,Iwoto
24.8,112.367,76.0,0.00,Lianzhou
24.8,118.583,71.6,0.00,Jin-Jiang
24.818,120.939,73.7,0.00,Hsinchu
24.907,67.161,83.8,0.00,Jinnah Intl
24.95,115.65,73.9,0.00,Xunwu
24.983,98.5,62.6,0.04,Tengchong
24.992,102.744,63.3,0.00,Wujiaba / Changshui
25.017,101.517,66.5,0.00,Chuxiong
25.039,-77.466,74.1,0.00,Nassau Intl / Lynden Pindling Intl
25.05,121.217,72.6,0.00,Taoyuan
25.056,121.243,72.7,0.00,Taoyuan
25.067,121.533,72.1,0.00,589690
25.069,121.552,72.1,0.00,Songshan
25.1,117.017,75.5,0.00,Longyan
25.117,99.183,66.9,0.00,Baoshan
25.218,110.039,73.7,0.00,Liangjiang
25.433,105.183,66.0,0.08,Xingren
25.433,106.767,75.2,0.00,Luodian
25.483,-80.383,72.1,0.43,Homestead Afb Airport
25.517,119.783,68.5,0.00,Pingtan
25.568,-103.411,82.4,0.91,Torreon Intl
25.583,103.833,62.2,0.53,Zhanyi
25.617,111.6,75.2,0.00,Daoxian
25.633,122.067,72.2,0.00,Pengjia Yu
25.7,100.183,63.5,0.00,Dali
25.717,118.1,59.5,0.00,Jiuxian Shan
25.733,101.867,82.4,0.00,Yuanmou
25.733,112.967,73.9,0.00,Chenzhou
25.75,71.383,92.8,0.00,Barmer
25.767,-97.533,80.2,0.10,Matamoros Intl
25.788,-80.317,74.4,0.08,Miami International Airport
25.8,-109.117,84.7,0.00,Los Mochis (City)
25.833,107.55,66.2,0.00,Dushan
25.847,131.263,74.7,0.20,Minami Daito
25.85,114.95,76.5,0.00,Ganzhou
25.85,116.367,73.1,0.00,Changting
25.866,-100.237,73.7,0.98,Del Norte Intl
25.914,-97.423,76.0,0.00,Brownsville/S Padre Island Intl Ap
25.967,108.533,72.5,0.00,Rongjiang
25.967,117.35,72.9,0.00,Yong'An
26.072,-80.154,73.0,0.00,Fort Lauderdale Hol
26.083,119.283,72.7,0.00,Fuzhou
26.106,91.586,82.1,0.00,Guwahati Intl / Lokpriya Gopinath Bordoloi Intl
26.133,34.25,79.1,0.00,Kosseir
26.16,119.958,66.3,0.00,Nangan
26.167,109.783,67.7,0.04,Tongdao
26.167,119.933,68.4,0.00,Mazu
26.183,117.617,69.8,0.00,Sanming
26.184,-98.254,76.5,0.00,Mc Allen Miller Intl Arpt
26.196,127.646,71.2,0.00,Naha
26.199,36.476,78.2,0.00,Wejh
26.2,127.683,69.3,0.55,Naha
26.228,-97.654,80.4,0.00,Valley International Arpt
26.233,111.617,74.6,0.00,Lingling
26.251,73.049,90.4,0.00,Jodhpur
26.265,50.152,76.1,0.00,King Abdulaziz Ab
26.267,50.617,76.8,0.00,Bahrain/Muharraq
26.267,116.65,74.3,0.00,Ning-Hua
26.267,127.75,69.9,0.00,Okinawa Marine Corps Air Station
26.293,78.228,93.8,0.00,Gwalior
26.356,127.768,68.8,1.38,Kadena Ab
26.4,103.25,61.9,0.04,Huize
26.4,117.783,59.5,0.00,Sha-Xian
26.539,106.801,69.1,0.00,Longdongbao
26.559,-78.696,74.4,0.00,Grand Bahama Intl
26.585,-81.861,74.0,0.00,Fort Myers Page Field
26.633,118.15,72.1,0.00,Nanping
26.65,102.25,63.6,0.00,Huili
26.685,-80.099,75.0,0.00,West Palm Beach Intl Arpt
26.733,110.633,68.0,0.28,Wugang
26.74,83.45,86.4,0.00,Gorakhpur
26.75,-80.95,77.5,0.00,Clewiston
26.761,80.889,94.7,0.00,Lucknow / Chaudhary Charan Singh Intl
26.8,113.533,71.6,0.00,Chaling
26.824,75.812,87.0,0.00,Jaipur
26.833,100.217,59.2,0.00,Lijing
26.85,116.333,72.4,0.00,Guangchang
26.867,104.283,53.3,0.04,Weining
26.933,112.583,72.5,0.00,Hengyang
26.955,64.133,57.7,0.00,Panjgur
26.967,108.667,64.1,0.04,Sansui
26.987,14.473,78.4,0.00,Sebha
27.0,120.7,64.9,0.00,Taishan
27.05,118.317,71.2,0.00,Jian'Ou
27.092,142.191,75.5,0.00,Chichi Jima Bonin Island
27.117,114.967,74.3,0.00,Ji'An
27.152,-13.219,65.4,0.00,Hassan I
27.156,77.961,87.8,0.00,Agra
27.183,111.45,68.3,0.12,Shaoyang
27.233,2.5,70.2,0.00,In-Salah
27.3,105.233,57.2,0.04,Bijie
27.3,112.7,61.6,0.00,Nanyue
27.333,103.75,56.8,0.04,Zhaotong
27.333,117.467,69.8,0.00,Shaowu
27.333,120.2,71.9,0.00,Fuding
27.383,-82.55,72.7,0.00,Sarasota Bradenton
27.426,128.701,72.1,0.00,Okierabu
27.433,-99.567,81.2,0.94,Nuevo Laredo
27.438,41.686,74.9,0.00,Hail
27.45,109.683,67.7,0.04,Zhijiang
27.45,112.2,70.2,0.16,Shuang-Feng
27.483,-109.917,78.8,0.00,Ciudad Obregon  Son
27.5,-97.817,71.1,0.00,Kingsville Nas
27.583,116.65,69.8,0.00,Nancheng
27.617,-99.517,77.9,0.00,Laredo Intl Arpt
27.633,121.05,65.3,0.00,Dong-Gua Island
27.65,-81.333,73.7,0.00,Avon Park Gunnery R
27.653,-80.243,71.1,0.00,Vero Beach Muni
27.683,-97.283,75.3,0.00,Corpus Christi Nas
27.7,106.883,74.2,0.00,Zunyi
27.733,89.083,37.0,0.00,Pagri
27.741,-98.025,73.2,0.00,Alice International Arpt
27.774,-97.512,75.2,0.00,Corpus Christi International Airport
27.8,114.383,70.8,0.00,Yichun
27.815,-17.887,64.4,0.00,Hierro
27.833,66.633,85.1,0.00,Khuzdar
27.85,-82.517,70.8,0.00,Mac Dill Afb Airport
27.9,-82.683,71.7,0.00,St Petersburg Clear
27.9,102.267,64.2,0.04,Xichang
27.917,-110.883,81.6,0.24,Guaymas-In-Sonora
27.917,118.533,68.0,0.00,Pucheng
27.932,-15.387,63.2,0.00,Gran Canaria
27.95,108.25,71.2,0.00,Sinan
27.95,117.833,59.0,0.00,Qixian Shan
27.962,-82.54,69.3,0.00,Tampa International Airport
28.017,120.667,69.8,0.00,Wenzhou
28.05,115.533,70.7,0.00,Qingjiang/Zhangshuz
28.052,9.643,62.9,0.00,In Amenas
28.1,119.083,68.9,0.00,Longquan
28.133,121.217,65.3,0.00,Yu-Huan
28.15,111.633,70.1,0.00,Mei-Cheng-Zhen
28.2,-177.383,66.5,0.00,Henderson Field Airport
28.2,113.083,69.8,0.00,Changsha/Datuopu
28.233,-80.6,72.8,0.00,Patrick Afb Airport
28.267,109.683,70.2,0.00,Qian-Zhou-Zhen
28.317,-16.5,48.2,0.00,Izana
28.365,36.619,77.4,0.00,Tabuk / Prince Sultan Bin Abdulaziz
28.367,-97.667,72.4,0.00,Chase Naval Air Station
28.394,129.553,69.7,0.04,Naze/Funchatoge
28.417,92.467,49.6,0.00,Lhunze
28.422,79.451,90.3,0.00,Bareilly
28.431,129.713,72.9,0.00,Amami
28.434,-81.325,68.0,0.00,Orlando International Airport
28.45,-16.25,64.0,0.00,Sta. Cruz De Tenerife
28.45,98.883,39.2,0.16,Deqen
28.45,119.917,72.1,0.00,Lishui
28.45,121.883,64.1,0.00,Dachen Dao
28.453,-13.864,63.6,0.00,Fuerteventura
28.457,-99.218,75.5,0.00,Cotulla-La Salle Co Arpt
28.467,110.4,69.8,0.00,Yuanling
28.483,-80.567,68.0,0.00,Cocoa Beach Cape Kennedy Afs
28.483,-16.342,52.8,0.00,Tenerife Norte
28.483,117.983,68.0,0.00,Shangrao
28.545,-81.333,68.6,0.00,Atoka Muni
28.585,77.206,91.4,0.00,Safdarjung
28.617,121.417,69.3,0.00,Hongjia
28.626,-17.756,64.1,0.00,La Palma
28.633,87.083,42.1,0.00,Tingri
28.683,118.25,71.6,0.00,Yushan
28.7,-105.967,75.9,2.56,Chihuahua Intl    &
28.725,-96.254,69.1,0.00,Palacios Municipal Airport
28.75,113.617,67.6,0.08,Pingjiang
28.78,-81.244,68.8,0.00,Orlando Sanford Airport
28.8,104.6,73.9,0.02,Yibin
28.817,120.917,56.7,0.00,Kuocang Shan
28.833,108.767,68.8,0.00,Youyang
28.85,112.383,71.2,0.00,Yuanjiang
28.861,-96.93,70.5,0.00,Victoria Regional Airport
28.865,115.9,70.9,0.00,Changbei Intl
28.883,105.433,78.8,0.02,Luzhou
28.892,53.723,83.8,0.00,Fasa
28.945,-13.605,62.6,0.00,Lanzarote
28.967,118.867,69.8,0.00,Qu Xian
29.0,101.5,52.0,0.12,Jiulong
29.033,21.567,74.3,0.00,Jalo
29.033,114.583,66.7,0.20,Xiushui
29.05,100.3,47.5,0.02,Daocheng
29.05,111.683,72.9,0.00,Changde
29.083,-110.95,84.2,0.91,Hermosillo Intl   &
29.117,15.95,74.3,0.00,Hon
29.15,119.633,72.5,0.00,Jinhua
29.179,75.755,86.9,0.00,Hisar
29.183,-81.048,65.5,0.00,Daytona Beach Intl
29.2,121.95,69.0,0.00,Shipu
29.227,47.969,78.0,0.00,Kuwait Intl
29.237,0.276,69.1,0.00,Timimoun
29.25,88.883,55.4,0.00,Xigaze
29.273,-94.859,70.2,0.00,Scholes Intl At Glston Apt
29.3,-94.8,70.3,0.00,Galveston
29.3,117.2,66.4,0.00,Jingdezhen
29.333,-89.408,67.3,0.00,Baton Rouge Metro R
29.367,-100.783,75.7,0.00,Laughlin Afb Airport
29.369,-10.18,62.2,0.00,Sidi Ifni
29.378,-100.927,74.4,0.00,Del Rio International Airport
29.383,-98.583,70.8,0.00,Lackland Air Force Base (Kelly Field Annex)
29.383,113.083,71.3,0.00,Yueyang
29.4,110.167,71.1,0.00,Sangzhi
29.433,112.183,74.3,0.00,Anxiang
29.45,-90.267,70.9,0.00,South Laforche
29.517,103.333,41.0,0.04,Emei Shan
29.517,106.483,75.7,0.00,Chong-Qing
29.533,-98.262,69.3,0.00,Randolph Afb Airport
29.533,109.383,70.2,0.00,Laifeng
29.539,52.589,59.9,0.00,Shiraz Shahid Dastghaib Intl
29.544,-98.484,70.7,0.00,San Antonio International Airport
29.561,34.96,76.7,0.00,Eilat
29.567,48.2,74.3,0.00,Beacon N6
29.567,94.467,50.4,0.00,Nyingchi
29.583,105.05,74.0,0.00,Neijiang
29.583,111.3,73.4,0.00,Shi-Men
29.583,115.983,58.7,0.00,Lu Shan
29.6,120.817,69.0,0.00,Shengxian
29.617,-95.167,67.7,0.00,Ellington Field Airport
29.626,43.491,68.9,0.00,Rafha
29.638,-95.282,68.4,0.00,William P Hobby
29.667,91.133,54.7,0.00,Lhasa / Gonggar
29.692,-82.276,64.6,0.00,Gainesville Rgnl
29.717,113.883,72.5,0.00,Puqi
29.717,118.267,69.3,0.00,Tunxi
29.733,-85.033,61.3,0.00,Apalachicola Muni Airport
29.75,24.533,80.2,0.00,Gighbub
29.8,47.767,81.1,0.00,Umm Al-Aish
29.817,-90.017,65.1,0.00,New Orleans Nas
29.917,121.467,69.8,0.00,Ningbo
29.951,-94.021,65.2,0.00,Southeast Texas Regional Airport
29.98,-95.36,66.7,0.00,G Bush Intercontinental Ap/Houston Ap
29.983,103.0,72.0,0.00,Ya'An
29.997,-90.278,65.5,0.00,Louis Armstrong New Orleans Intl Ap
30.0,99.1,54.6,0.67,Batang
30.0,100.267,42.8,0.47,Litang
30.033,122.117,63.5,0.00,Dinghai
30.05,101.967,48.8,0.16,Kangding
30.067,-85.583,63.6,0.00,Tyndall Afb Airport
30.067,115.333,72.1,0.00,Qizhou
30.117,30.917,72.9,0.00,Cairo West
30.122,31.406,78.5,0.00,Cairo Intl
30.125,-93.228,64.5,0.00,Lake Charles Regional Airport
30.133,-2.167,66.2,0.00,Beni-Abbes
30.133,118.15,48.6,0.00,Huang Shan
30.152,9.715,66.2,0.00,Ghadames East
30.167,35.783,68.0,0.00,Ma'An
30.2,-97.683,68.0,0.00,Bergstrom Afb/Austi
30.2,110.667,65.1,0.00,Wu-Feng
30.205,-91.988,63.8,0.00,Lafayette Regional Airport
30.217,-81.883,63.8,0.00,Cecil Fld
30.228,120.432,66.0,0.00,Xiaoshan
30.233,-81.667,65.5,0.00,Jacksonville Nas
30.283,109.467,68.9,0.00,Enshi
30.317,78.033,83.8,0.00,Dehradun
30.321,-97.76,69.9,0.00,Austin/Mueller Muni
30.333,112.183,71.6,0.00,Jiangling
30.35,-87.317,64.3,0.00,Pensacola Nas
30.35,119.417,53.2,0.00,Tianmu Shan (Mtns)
30.371,-104.017,71.2,0.00,Marfa Ap
30.371,48.228,75.0,0.00,Abadan
30.381,-9.546,60.8,0.00,Inezgane
30.383,13.583,63.7,3.94,Gariat El-Sharghia
30.383,76.767,87.3,0.00,Ambala
30.393,-84.353,64.6,0.00,Tallahassee Regional Airport
30.4,-89.067,67.7,0.00,Gulfport Biloxi Int
30.4,-81.417,65.7,0.00,Mayport Naf
30.417,-88.917,63.8,0.00,Keesler Air Force Base
30.417,-86.683,61.1,0.00,Hurlburt Field Airport
30.483,-87.35,66.3,0.00,Pensacola Saufley Nas
30.483,-86.517,61.1,0.00,Eglin Afb Airport
30.495,-81.694,62.4,0.00,Jacksonville International Airport
30.5,101.483,43.8,0.71,Qian-Ning
30.533,38.9,78.0,0.00,Maarik
30.537,-91.147,63.2,0.00,Baton Rouge Metro R
30.547,130.95,70.2,0.00,Tanegashima
30.549,47.662,73.0,0.00,Basrah Intl
30.55,81.433,43.9,0.02,T'U-Ko-Erh-Ho-Kung
30.571,2.86,59.0,0.00,El Golea
30.579,103.947,68.6,0.00,Shuangliu
30.589,-96.365,68.5,0.00,Easterwood Fld
30.617,116.967,67.6,0.00,Anqing
30.617,121.083,63.5,0.00,Zha-Pu
30.65,-86.517,70.3,0.00,Duke Fld
30.683,107.8,73.1,0.00,Liangping
30.688,-88.246,61.4,0.00,Mobile Regional Airport
30.717,-87.017,62.6,0.00,Whiting Field Naval Air Station North
30.717,20.167,70.6,0.00,Agedabia
30.717,130.983,68.5,0.00,Tanegashima
30.733,111.367,72.1,0.00,Yichang
30.733,122.45,59.0,0.00,Shengsi
30.75,106.133,76.8,0.00,Gaoping
30.75,115.667,67.6,0.00,Yingshan
30.783,-86.517,61.6,0.00,Bob Sikes Airport
30.783,-83.277,64.4,0.00,Valdosta Regional Airport
30.783,110.267,58.5,0.00,Lu-Cong-Po
30.784,114.208,70.2,0.00,Tianhe
30.939,-6.909,62.4,0.00,Ouarzazate
30.95,88.633,37.4,0.00,Xainza
30.967,-83.2,65.3,0.00,Moody Afb/Valdosta
31.017,109.533,73.9,0.00,Fengjie
31.05,-93.183,65.3,0.00,Polk Army Airfield
31.067,-97.833,68.1,0.00,Robert Gray Aff Airport
31.133,-97.717,70.8,0.00,Fort Hood
31.133,-92.567,66.2,0.00,Claiborne Range  La. (Afs)
31.133,114.95,67.7,0.00,Macheng
31.15,-97.4,71.1,0.00,Draughon Miller Cen
31.15,97.167,48.9,0.20,Qamdo
31.152,-81.391,61.7,0.00,Malcolm Mc Kinnon Airport
31.167,112.633,70.1,0.00,Zhongxiang
31.183,-90.471,59.5,0.00,Mcom/Pike Co/J E Lws Fd Ap
31.184,29.949,69.0,0.00,Alexandria Intl
31.198,121.336,61.5,0.00,Hongqiao Intl
31.2,107.5,72.1,0.00,Da Xian
31.233,-110.983,68.7,0.00,Nogales-In-Sonora
31.233,34.267,60.8,0.00,Gaza International Airport
31.236,-94.754,65.8,0.00,Angelina County Airport
31.25,-81.467,60.0,0.00,Brunswick Golden Is
31.267,-85.717,62.0,0.00,Cairns Army Airfield (Fort Rucker)
31.287,34.723,69.4,0.00,Teyman
31.3,-113.55,70.2,0.00,Puerto Penasco  Son.
31.309,-86.394,53.9,0.00,Andalusia Opp
31.317,-92.55,62.5,0.00,Alexandria Int
31.317,-85.45,61.2,0.00,Dothan Rgnl
31.333,118.35,63.6,0.00,Wu-Hu
31.352,-100.495,71.5,0.00,San Angelo Regional/Maths Field Ap
31.367,90.017,33.8,0.00,Baingoin
31.368,130.845,65.9,0.00,Kanoya
31.395,-92.291,60.7,0.00,Esler Regional Airport
31.399,-9.683,60.8,0.00,Essaouira / Mogador Intl
31.4,116.333,63.1,0.00,Huoshan
31.417,95.6,45.5,0.04,Dengqen
31.433,119.483,61.3,0.00,Liyang
31.45,104.733,77.7,0.01,Mianyang
31.458,-109.606,69.3,0.00,Bisbee Douglas Intl
31.483,92.067,36.7,0.00,Nagqu
31.506,65.848,79.7,0.00,Kandahar
31.514,10.598,56.1,0.00,Nalut
31.536,-84.194,60.6,0.00,Sw Georgia Regional Arpt
31.536,-82.507,62.2,0.00,Alma/Bacon Co.
31.55,130.55,64.8,0.00,Kagoshima
31.583,105.967,74.3,0.00,Langzhong
31.588,-110.344,70.1,0.00,Sierra Vista Municipal-Libby Aaf Airport
31.607,-8.036,58.3,0.00,Menara
31.617,100.0,47.5,0.14,Garze
31.619,-97.228,68.1,0.00,Waco Regional Airport
31.633,-106.433,81.7,0.98,Ciudad Intl
31.646,-2.27,62.8,0.00,Bechar / Boudghene Ben Ali Lotfi
31.673,6.14,68.3,0.00,Oued Irara / Krim Belkacem
31.733,98.567,50.3,0.00,Dege
31.742,118.862,62.1,0.00,Lukou
31.767,119.95,60.8,0.00,Changzhou
31.78,-103.202,73.3,0.00,Winkler County Airport
31.78,117.298,62.9,0.00,Luogang / Xinqiao
31.8,-98.95,77.2,0.00,Brownwood Municipal
31.803,130.719,63.8,0.00,Kagoshima
31.811,-106.376,78.8,0.00,El Paso International Airport
31.831,-104.809,65.2,0.00,Guadalupe Pass
31.85,47.167,73.4,0.00,Amarah
31.85,102.7,49.3,0.00,Ma-Tang
31.861,-86.012,65.1,0.00,Troy Municipal Airport
31.865,35.219,69.3,0.00,Jerusalem
31.877,131.449,67.1,0.00,Miyazaki
31.883,-81.567,60.5,0.00,Ft Stewart/Wright
31.883,93.783,44.2,0.00,Sog Xian
31.9,102.233,59.5,0.12,Barkam
31.905,54.277,75.2,0.00,Yazd Shahid Sadooghi
31.933,131.417,67.1,0.00,Miyazaki
31.948,-102.209,72.5,0.00,Midland International Airport
31.95,44.317,68.7,0.00,Najaf
31.95,44.95,66.7,0.00,Diwaniya
31.973,35.992,63.1,0.00,Marka Intl
31.983,128.35,60.8,0.00,Meshima
32.011,34.887,69.0,0.00,Ben Gurion
32.033,110.767,64.9,0.00,Fangxian
32.067,108.033,68.8,0.00,Wanyuan
32.067,121.6,56.3,0.00,Lusi
32.084,131.451,63.8,0.00,Nyutabaru
32.097,20.269,66.8,0.00,Benina Airport
32.1,34.783,67.3,0.00,Sde-Dov (Tel-Aviv)
32.1,120.867,60.8,0.04,Nantong/Jinsha
32.131,-110.955,73.3,0.00,Tucson International Airport
32.131,-81.202,58.1,0.00,Savannah/Hilton Head Intl Airport
32.133,114.05,58.8,0.00,Xinyang
32.15,112.667,69.4,0.00,Zaoyang
32.161,37.149,64.8,0.00,Prince Hasan
32.167,-110.883,75.4,0.00,Davis-Monthan Afb Airport
32.167,115.617,62.3,0.00,Gushi
32.217,-101.517,72.8,0.00,Webb Afb
32.233,-101.5,75.0,0.00,Big Spring
32.243,15.021,67.4,0.00,Misurata
32.25,-107.717,74.7,0.00,Deming Muni
32.25,96.217,43.8,0.08,Nangqen
32.283,-9.233,57.9,0.00,Safi
32.283,100.333,36.6,0.04,Sertar
32.3,-86.408,56.8,0.00,Montgomery Rgnl (Dannelly Fd) Ap
32.3,84.05,38.8,0.00,Lumaringbo
32.306,10.382,63.3,0.00,Remada
32.321,-90.078,56.5,0.00,Jackson International Airport
32.334,-104.258,72.0,0.00,Cavern City Air Trml Arpt
32.335,-88.744,58.1,0.00,Key Field Airport
32.35,-86.983,59.2,0.00,Craig Fld
32.35,-85.0,58.0,0.00,Lawson Aaf Airport
32.354,-95.403,65.4,0.00,Tyler Pounds Regional Arpt
32.367,-64.683,68.9,0.00,Naval Atlantic Meterology & Oceanography Facility
32.383,-86.35,60.5,0.00,Maxwell Afb Airport
32.384,3.794,62.2,0.00,Noumerat Moufdi Zakaria
32.385,-94.712,61.2,0.00,Longview
32.4,48.383,75.5,0.00,Dezful
32.411,-99.682,70.5,0.00,Abilene Regional Airport
32.417,104.517,69.8,0.00,Pingwu
32.433,-99.85,72.2,0.00,Abilene Dyess Afb
32.433,111.733,66.2,0.00,Laohekou
32.447,-93.824,59.4,0.00,Shreveport Regional Airport
32.483,-80.717,57.5,0.00,Beaufort Mcas
32.5,-93.667,62.0,0.00,Barksdale Air Force Base
32.5,80.083,36.1,0.00,Shiquanhe
32.516,-92.041,59.6,0.00,Monroe Regional Airport
32.516,-84.942,59.9,0.00,Columbus Metro Airport
32.533,-116.983,56.7,0.00,Tijuana
32.539,38.195,65.1,0.00,H4
32.55,-88.567,55.5,0.00,Meridian Nas/Mc Cain Fd Ap
32.555,12.056,60.5,0.04,Zuara
32.567,-117.117,62.4,0.00,Naval Auxiliary Landing Fd
32.567,100.583,42.8,0.00,Luo-Xue
32.583,116.783,61.7,0.00,Shouxian/Shouyang
32.633,-116.467,57.0,0.35,Campo
32.633,-115.217,76.2,0.00,Mexicali
32.633,-108.167,67.2,0.00,Bisbee Douglas Intl
32.633,-83.6,57.5,0.00,Robins Afb Airport
32.664,13.159,58.6,0.31,Tripoli Intl
32.666,128.833,66.2,0.00,Fukue
32.667,-114.6,72.5,0.00,Yuma Marine Corps Air Station/Yuma Intl Airport
32.667,35.183,66.3,0.00,Ramat-David
32.667,103.6,51.4,0.08,Songpan
32.683,-16.767,59.8,0.00,Funchal/S.Catarina
32.683,-4.733,55.0,0.00,Midelt
32.685,-83.653,58.5,0.00,Middle Georgia Regional Airport
32.693,-103.213,70.7,0.51,Lea County Regional Airport
32.7,-117.2,59.9,0.00,North Island Nas
32.7,128.833,61.0,0.04,Fukue
32.717,109.033,69.5,0.00,Ankang
32.717,133.017,67.4,0.00,Shimizu
32.733,-96.967,69.4,0.00,Naval Air Station Operations
32.733,129.867,63.1,0.28,Nagasaki
32.734,-117.183,60.0,0.00,San Diego International Airport
32.751,51.862,66.2,0.00,Esfahan Shahid Beheshti Intl
32.767,-97.45,65.6,0.00,Fort Worth Naval Air Station Jrb/Carswell Field
32.782,-98.06,72.6,0.00,Mineral Wells Airport
32.783,22.583,68.6,0.00,Derna
32.783,119.45,58.6,0.00,Gaoyou
32.8,21.883,65.0,0.00,Shahat
32.8,110.8,69.8,0.00,Yun-Xian
32.817,-117.133,55.4,0.00,San Diego/Montgomer
32.817,130.7,62.8,0.39,Kumamoto
32.819,-97.361,70.5,0.00,Fort Worth Meacham
32.833,-116.967,56.6,0.00,Gillespie Fld
32.834,-115.579,69.0,0.00,Imperial Co
32.837,130.855,62.7,0.00,Kumamoto
32.85,-106.1,77.7,0.00,Holloman Afb
32.85,-79.95,56.2,0.00,Charleston Nas
32.85,117.3,58.7,0.00,Bengbu
32.85,120.283,57.9,0.00,Dongtai
32.852,-96.856,68.3,0.00,Dallas Love Field Airport
32.867,-117.133,53.9,0.00,San Diego Miramar Nas
32.867,115.733,62.2,0.00,Fuyang
32.883,-112.717,75.4,0.00,Gila Bend Af Aux
32.898,-97.019,66.8,0.00,Dallas/Ft Worth International Ap
32.898,59.266,68.0,0.00,Birjand
32.899,-80.041,54.3,0.00,Charleston Afb/International Airport
32.9,95.3,38.3,0.00,Zadoi
32.9,108.517,68.9,0.00,Han-Yin
32.917,129.914,63.0,0.00,Nagasaki
32.933,113.917,62.3,0.00,Zhumadian
32.967,35.5,59.9,0.00,Har-Knaan (Zefat)
33.017,96.95,41.3,0.08,Yushu
33.023,-118.588,56.4,0.00,Nalf/F. Sherman Fld Arpt
33.033,40.283,61.1,0.00,Rutbah
33.067,107.033,68.9,0.00,Hanzhong
33.073,-16.35,59.8,0.04,Porto Santo
33.1,112.483,64.6,0.00,Nanyang
33.115,139.786,64.0,0.00,Hachijojima
33.117,139.783,65.4,0.00,Hachijojima
33.128,-117.28,55.1,0.00,Mc Clellan Palomar
33.2,126.267,53.3,0.04,Mosulpo (Kor-Afb)
33.212,-87.616,57.0,0.00,Tuscaloosa Municipal Arpt
33.221,-92.814,57.4,0.67,S. Ar Rgnl At Gdwin Fld Ap
33.233,131.617,60.8,0.28,Oita
33.237,-107.268,74.2,0.00,Nogales (Amos)
33.24,-119.458,57.3,0.00,San Nicolas Island Naval Outlying Field
33.25,126.567,58.3,0.00,Seogwipo
33.25,134.183,65.5,0.08,Murotomisaki
33.267,44.233,67.6,0.00,Baghdad Intl Airport
33.3,-117.35,57.3,0.00,Marine Corps Air Station
33.3,-111.667,76.9,0.00,Williams Gateway Airport
33.308,-104.508,69.7,0.08,Roswell International Air Center Ap
33.317,130.417,63.7,0.00,Metabaru (Jasdf)
33.333,118.667,58.6,0.00,Hongze Hu (Lake)
33.364,-81.963,53.2,0.00,Augusta Regional At Bush Field Ap
33.367,-7.59,56.8,0.00,Mohammed V
33.4,104.917,71.4,0.00,Wudu
33.412,36.516,61.1,0.00,Damascus Intl
33.417,109.15,64.9,0.00,Chen-An
33.428,-112.004,76.6,0.00,Phoenix Sky Harbor Intl Airport
33.433,48.283,73.0,0.00,Khorram Abad
33.45,108.25,65.3,0.00,Wen-Huang-Ping
33.45,135.75,64.5,0.04,Shionomisaki
33.456,-93.988,54.8,0.00,Texarkana Regional Airport-Webb Field
33.467,101.483,36.7,0.00,Jigzhi
33.479,131.737,58.7,0.00,Oita
33.483,-90.985,59.2,0.00,Mid Delta Rgnl
33.483,38.667,61.6,0.00,Jabal Ettanf
33.496,-90.087,58.1,0.00,Greenwood Leflore
33.511,6.777,62.2,0.00,Guemar
33.511,126.493,54.9,0.00,Jeju Intl
33.517,126.533,56.5,0.00,Jeju
33.546,133.669,69.1,0.00,Kochi
33.55,-112.367,72.3,0.00,Luke Afb Airport
33.557,-7.66,59.5,0.00,Anfa
33.566,-86.745,55.2,0.00,Birmingham International Airport
33.567,133.55,65.3,0.16,Kochi
33.583,102.967,45.2,0.04,Ruo'Ergai
33.583,130.383,60.6,0.28,Fukuoka
33.586,130.451,60.0,0.00,Fukuoka
33.587,-85.856,56.1,0.00,Anniston Metropolitan Arpt
33.6,-102.05,73.8,0.00,Reese Afb/Lubbock
33.6,119.033,55.6,0.00,Qingjiang
33.619,-114.714,72.2,0.00,Blythe Airport
33.627,-116.159,69.3,0.00,Desert Resorts Rgnl Arpt
33.63,-84.442,54.9,0.00,Hartsfield-Jackson Atlanta Intl Ap
33.633,-95.45,62.7,0.00,Cox Fld
33.65,-118.0,51.6,0.00,Huntington Beach
33.65,-88.45,54.4,0.00,Columbus Afb Airport
33.662,135.364,70.5,0.00,Nanki Shirahama
33.666,-101.823,71.9,0.00,Lubbock International Airport
33.667,-117.733,52.6,0.00,El Toro Mcas
33.68,-117.866,55.7,0.00,J. Wayne Apt-Orange Co Apt
33.683,-78.933,57.4,0.00,Myrtle Beach Intl Airport
33.685,131.04,60.5,0.00,Tsuiki
33.7,-117.833,55.7,0.00,Marine Corps Air Station
33.749,129.785,63.3,0.00,Iki
33.75,99.65,37.7,0.00,Darlag
33.75,105.75,68.6,0.00,Cheng-Xian
33.75,120.3,54.3,0.00,Sheyang
33.767,-84.517,54.4,0.00,Fulton Co Arpt Brow
33.783,114.517,59.3,0.00,Xihua
33.783,115.733,56.9,0.00,Boxian
33.8,97.133,25.1,0.02,Qingshui-He
33.812,-118.146,57.3,0.00,Long Beach / Daugherty Field / Airport
33.816,-78.72,59.6,0.00,Grand Strand Airport
33.817,-106.667,77.1,0.00,Stallion Aaf  Nm
33.817,35.767,52.7,0.00,Dahr Baidar
33.821,35.488,63.4,0.00,Rafic Hariri Intl
33.827,132.7,60.7,0.00,Matsuyama
33.833,-116.5,70.1,0.00,Palm Springs Intl
33.836,130.947,59.2,0.00,Kitakyushu
33.85,132.783,60.3,0.51,Matsuyama
33.867,36.0,61.2,0.00,Rayack
33.875,10.775,60.0,0.04,Zarzis / Djerba
33.877,10.103,60.4,0.16,Gabes / Matmata
33.879,-5.515,54.5,0.00,Bassatine
33.883,130.653,57.7,0.00,Ashiya
33.9,-117.25,51.9,0.00,March Air Reserve Base
33.9,117.95,58.5,0.00,Suining
33.917,-84.517,57.4,0.00,Dobbins Air Reserve Base Airport
33.921,-80.801,52.4,0.00,Mc Entire Jngb
33.93,131.279,59.2,0.00,Yamaguchi Ube
33.933,-116.967,56.4,0.43,Beaumont
33.938,-118.389,56.1,0.00,Los Angeles International Airport
33.94,8.111,64.2,0.00,Nefta
33.942,-81.118,55.5,0.00,Columbia Metropolitan Airport
33.948,-83.328,54.3,0.00,Athens/Ben Epps Airport
33.95,130.933,58.6,0.08,Shimonoseki
33.967,-80.467,55.8,0.00,Shaw Air Force Base
33.979,-98.493,68.1,0.00,Sheppard Afb/Wichita Falls Muni Ap
34.0,134.633,65.7,0.00,Komatsujima (Jasdf)
34.033,36.717,51.3,0.00,Nabk
34.035,131.549,58.4,0.00,Hofu
34.045,131.052,59.7,0.00,Ozuki
34.051,-6.752,57.2,0.00,Rabat Sale Intl
34.067,-117.65,54.7,0.00,Ontario
34.067,134.567,64.0,0.28,Tokushima
34.067,136.2,60.6,1.85,Owase
34.074,139.56,62.6,0.00,Miyakejima
34.083,111.067,59.2,0.00,Lushi
34.095,-117.235,52.5,0.00,San Bernardino International Airport
34.1,95.033,32.5,0.00,Bie-Li-Xi-Du
34.1,102.617,43.9,0.00,Lang-Mu-Si
34.117,-119.117,55.4,0.00,Point Mugu
34.117,139.517,63.1,0.20,Miyakejima
34.133,95.783,31.7,0.04,Qumarleb
34.133,134.607,62.4,0.00,Tokushima
34.138,49.847,58.6,0.00,Arak
34.15,132.233,59.0,0.28,Iwakuni
34.18,-91.934,61.7,0.00,Grider Field Airport
34.188,-79.731,56.4,0.00,Florence Regional Airport
34.198,129.292,58.5,0.55,Izuhara
34.201,-118.358,55.4,0.00,Burbank-Glendale-Pasa Arpt
34.21,-118.489,54.1,0.00,Van Nuys Airport
34.21,62.228,71.6,0.00,Herat / Khwaja Abdullah Ansari Intl
34.214,134.016,66.2,0.00,Takamatsu
34.217,-4.0,56.5,0.00,Taza
34.217,92.433,26.6,0.00,Tuotuohe
34.233,135.167,64.9,0.75,Wakayama
34.262,-88.771,63.1,0.00,Tupelo C D Lemons Arpt
34.267,-86.85,74.6,0.00,Folsom Fld
34.268,-77.9,54.4,0.00,Wilmington New Hanover County
34.283,117.15,54.7,0.00,Xuzhou
34.3,-97.017,64.9,0.00,Ardmore Municipal
34.3,-6.6,59.9,0.00,Kenitra (Rmaf)
34.317,134.05,62.1,0.24,Takamatsu
34.346,47.158,62.6,0.00,Shahid Ashrafi Esfahani
34.35,107.133,58.5,0.00,Baoji
34.383,-103.317,70.0,0.00,Cannon Afb Airport
34.4,70.499,85.6,0.00,Jalalabad
34.4,115.633,65.3,0.00,Shangqiu
34.4,132.467,59.0,0.24,Hiroshima
34.417,40.917,63.3,0.00,Abukmal
34.417,116.333,56.8,0.00,Tang-Shan
34.422,8.823,58.6,0.00,Gafsa
34.426,-119.843,54.1,0.00,Santa Barbara Municipal Airport
34.427,-100.283,70.4,0.00,Childress Municipal Ap
34.436,132.919,61.3,0.00,Hiroshima
34.447,108.752,59.0,0.00,Xianyang
34.45,35.8,67.6,0.00,Tripoli
34.467,-93.083,60.8,0.00,Memorial Fld
34.483,110.083,45.9,0.00,Hua Shan
34.498,-82.71,54.9,0.00,Anderson Rgnl
34.52,113.841,59.2,0.00,Xinzheng
34.533,136.683,62.8,0.00,Akeno (Jasdf)
34.557,38.317,65.5,0.00,Palmyra
34.566,69.212,60.8,0.00,Kabul Intl
34.583,-117.383,52.0,0.00,Southern California Logistics Airport
34.583,105.75,61.7,0.00,Tianshui
34.59,32.988,64.4,0.00,Akrotiri
34.596,135.603,69.8,0.00,Yao
34.6,138.217,60.0,0.00,Omaezaki
34.644,-86.787,54.3,0.00,Huntsville Intl/C.T.Jones Field Airport
34.65,-99.267,70.3,0.00,Altus Afb Airport
34.65,-98.4,69.0,0.00,Henry Post Aaf Airport
34.652,-112.421,56.5,0.00,Prescott Municipal Ap
34.667,112.417,64.9,0.00,Luo-Yang
34.683,3.25,50.7,0.00,Djelfa/Tletsi
34.683,135.517,65.3,0.16,Osaka
34.7,135.217,64.0,0.08,Kobe
34.708,-77.44,52.8,0.00,Jacksonville
34.717,104.883,51.5,0.00,Wu-Shan
34.718,10.691,59.2,0.39,Thyna
34.718,32.486,65.4,0.00,Pafos Intl
34.727,-92.239,54.8,0.00,Little Rock Adams Field
34.733,101.6,41.6,0.00,Henan
34.733,127.75,55.9,0.00,Yeosu
34.744,-118.724,36.0,0.00,Sandberg
34.744,-87.6,54.0,0.00,North West Alabama Regional Airport
34.75,-120.567,52.3,0.00,Vandenberg Afb
34.75,114.417,59.0,0.00,Kaifeng
34.75,137.703,64.6,0.00,Hamamatsu
34.75,139.367,58.1,0.87,Oshima
34.757,133.855,64.2,0.00,Okayama
34.782,139.36,61.7,0.00,Oshima
34.786,135.438,62.8,0.00,Osaka Intl
34.787,-1.924,53.4,0.00,Angads
34.793,5.738,63.3,0.00,Biskra / Mohamed Khider
34.8,107.867,54.8,0.00,Cui-Mu
34.8,138.183,62.1,0.00,Shizuoka Airport
34.813,138.298,62.2,0.00,Shizuhama
34.817,36.133,64.4,0.00,Safita
34.817,126.383,51.6,0.00,Mokpo
34.833,-92.25,54.8,0.00,Little Rock Wsfo
34.85,119.133,53.2,0.00,Ganyu
34.854,-116.786,59.1,0.00,Barstow-Daggett Airport
34.882,-95.783,64.2,0.00,Mc Alester Regional Arpt
34.899,-120.449,51.7,0.00,Santa Maria Pub/Capt G A Hancock Ap
34.9,-117.867,51.9,0.00,Edwards Air Force Base
34.9,-76.883,52.7,0.00,Cherry Point Mcas
34.9,132.067,61.5,0.16,Hamada
34.906,-82.213,51.5,0.00,Greenville-Spartanburg Intl Airport
34.917,-92.15,55.2,0.00,Little Rock Afb Airport
34.917,-81.95,57.3,0.00,Spartanburg Downtown Memorial Airport
34.917,98.217,32.5,0.00,Madoi
34.983,-78.883,54.0,0.00,Fayetteville Rgnl G
34.983,139.867,63.1,0.47,Tateyama
34.987,139.829,64.5,0.00,Tateyama
34.989,-99.053,67.3,0.00,Hobart Municipal Airport
35.0,102.9,45.1,0.00,Hezuo
35.017,135.733,63.1,0.16,Kyoto
35.028,-110.721,62.2,0.00,Winslow-Lindbergh Regional Airport
35.033,101.467,38.8,0.00,Son-Ag
35.034,-85.2,50.9,0.00,Lovell Field Airport
35.042,-106.616,66.8,0.00,Albuquerque Intl Sunport Airport
35.05,118.35,53.1,0.00,Linyi
35.056,-89.987,56.6,0.00,Memphis International Airport
35.068,-77.048,54.4,0.00,Craven County Reg Airport
35.083,33.9,61.5,0.00,Ayios Nicolaos
35.083,128.083,55.0,0.00,Sacheon Ab
35.1,129.033,57.7,0.00,Busan
35.117,36.75,60.8,0.00,Hama
35.117,111.067,55.1,0.00,Yuncheng
35.126,126.809,49.5,0.00,Gwangju
35.133,-111.667,48.2,0.00,Flagstaff Airport
35.133,-78.933,54.9,0.00,Simmons Aaf Airport
35.133,128.7,64.4,0.00,Chinhae (Kor-Army)
35.144,-111.666,48.7,0.00,Flagstaff Pulliam Arpt
35.15,33.283,61.4,0.00,Nicosia Airfield
35.167,109.05,54.6,0.00,Tongchuan
35.167,126.9,52.7,0.00,Gwangju
35.167,128.033,57.7,0.00,Jinju
35.167,136.967,60.8,0.00,Nagoya
35.174,-79.009,51.9,0.00,Pope Afb Airport
35.177,-3.84,58.8,0.01,Cherif El Idrissi
35.18,128.938,54.3,0.00,Gimhae Intl
35.182,-103.603,72.4,0.00,Tucumcari Municipal Arpt
35.2,48.683,47.3,0.00,Nowjeh
35.217,93.083,26.0,0.02,Wudaoliang
35.224,-80.955,50.3,0.00,Charlotte/Douglas International Ap
35.23,-101.704,72.4,0.00,Amarillo Rick Husband Intl Airport
35.233,-75.622,52.3,0.04,Cape Hatteras
35.247,47.009,64.0,0.00,Sanandaj
35.25,115.433,55.6,0.00,Heze/Caozhou
35.255,136.924,62.1,0.00,Nagoya
35.267,100.65,44.6,0.00,Tongde
35.28,-2.956,61.0,0.00,Melilla
35.283,62.35,59.9,0.00,Gyshgy
35.283,139.667,61.1,0.00,Yokosuka Naval Station
35.285,40.176,60.8,0.00,Deir Zzor
35.317,69.017,41.5,0.00,North-Salang
35.317,138.867,54.9,0.00,Fuji (Jasdf)
35.333,-94.363,59.6,0.00,Fort Smith Regional Airport
35.333,104.0,56.3,0.00,Lintao
35.34,25.18,62.1,0.04,Nikos Kazantzakis
35.344,-77.965,54.6,0.00,Seymour-Johnson Afb Airport
35.35,-89.867,57.3,0.00,Memphis Nas
35.383,105.0,51.0,0.00,Huajialing
35.389,-97.601,63.4,0.00,Will Rogers World Airport
35.394,136.87,62.8,0.00,Gifu
35.4,139.917,64.0,0.00,Kisarazu
35.414,132.89,65.1,0.00,Izumo
35.417,-97.383,64.2,0.00,Tinker Afb Airport
35.432,-82.538,50.4,0.00,Asheville Regional Airport
35.432,8.121,51.1,0.00,Cheikh Larbi Tebessi
35.433,119.533,54.2,0.31,Rizhao
35.433,126.433,51.1,0.00,Yong Jung-Ri
35.433,139.65,62.2,0.12,Yokohama
35.434,-119.054,58.0,0.00,Meadows Field Airport
35.45,135.317,61.8,0.87,Maizuru
35.45,139.45,61.8,0.00,Atsugi Nas
35.483,112.4,59.0,0.00,Yangcheng
35.483,134.233,60.4,0.47,Tottori
35.492,133.236,59.8,0.00,Miho
35.498,12.618,58.3,0.31,Lampedusa
35.514,-108.794,53.9,0.00,Gallup Municipal Airport
35.514,139.394,64.0,0.00,Kastner Aaf / Camp Zama Japan
35.517,137.817,59.5,0.20,Iida
35.53,134.167,67.4,0.00,Tottori
35.532,24.15,59.9,0.08,Souda
35.533,24.15,63.9,0.00,Souda Bay Crete
35.533,35.767,65.1,0.00,Lattakia
35.55,106.667,52.0,0.00,Pingliang
35.55,118.75,51.4,0.08,Juxian
35.552,139.78,61.7,0.00,Tokyo Intl
35.567,116.85,52.3,0.00,Yanzhou
35.591,53.495,71.1,0.00,Semnan
35.593,-88.917,55.0,0.00,Mckellar-Sipes Rgnl Arpt
35.593,129.352,60.1,0.00,Ulsan
35.617,-106.089,64.2,0.00,Santa Fe Municipal Airport
35.624,-0.621,58.3,0.00,Es Senia / Ahmed Benbella
35.654,-105.142,60.5,0.00,Las Vegas Municipal Arpt
35.667,-75.9,50.1,0.00,Dare County Gunnery Range  Nc.
35.667,10.1,59.7,0.08,Kairouan
35.667,10.75,59.8,0.35,Monastir-Skanes
35.667,138.55,58.3,0.02,Kofu
35.67,-120.628,47.0,0.00,Paso Robles Municipal Arpt
35.683,139.767,62.7,0.39,Tokyo
35.688,-117.693,58.3,0.00,China Lake
35.689,51.313,58.7,0.00,Mehrabad Intl
35.7,139.4,64.4,0.00,Tachikawa (Jasdf)
35.727,-5.917,56.9,0.00,Tanger Ibn Batouta Intl
35.733,107.633,54.9,0.00,Xifengzhen
35.733,140.85,61.9,0.12,Choshi
35.743,-81.382,49.1,0.00,Hickory Rgnl
35.748,139.348,60.3,0.02,Yokota Ab
35.75,99.983,44.6,0.00,Xinghai
35.75,109.417,52.7,0.00,Luo-Chuan
35.799,140.011,64.2,0.00,Shimofusa
35.818,-83.986,52.8,0.00,Mc Ghee Tyson Airport
35.833,-90.633,54.2,0.00,Jonesboro Muni
35.833,127.117,51.8,0.00,Jeonju
35.842,139.411,61.0,0.00,Iruma
35.85,-77.883,51.5,0.00,Rocky Mount Wilson
35.85,128.583,62.8,0.94,Camp Walker (H-805)
35.857,14.478,56.7,0.04,Luqa
35.883,128.617,58.1,0.00,Taegu Acc (Kor-Afb)
35.889,-5.347,56.8,0.00,Ceuta
35.892,-78.782,50.6,0.00,Raleigh-Durham International Ap
35.894,128.659,54.7,0.00,Daegu Ab
35.9,-82.817,64.4,0.00,Hot Springs (Awrs)
35.917,126.617,49.3,0.31,Kunsan Ab
35.933,39.017,68.5,0.00,Raqqa
35.951,-85.081,49.4,0.00,Crossville Mem Whit
35.967,-89.95,54.1,0.00,Arkansas International Airport
35.967,105.717,49.6,0.00,Xi-Ji
35.988,129.42,58.4,0.47,Pohang Gyeongju
36.0,-89.409,59.0,0.00,Dyersburg Municipal Arpt
36.0,-5.6,60.8,0.00,Tarifa
36.002,126.763,48.9,0.00,Gunsan
36.01,-94.169,61.2,0.00,Drake Field Airport
36.017,-102.55,70.5,0.00,Dalhart Municipal
36.033,129.383,59.5,0.00,Pohang
36.033,140.2,64.7,0.00,Kasumigaura (Jasdf)
36.05,103.883,63.5,0.00,Lanzhou
36.05,114.133,54.6,0.00,Anyang
36.072,-115.163,65.4,0.00,Mccarran International Airport
36.097,-79.943,47.6,0.00,Piedmont Triad International Airport
36.117,128.317,59.5,0.00,Gumi
36.119,-86.689,52.2,0.00,Nashville International Airport
36.143,136.224,73.1,0.00,Fukui
36.151,-5.35,59.2,0.00,Gibraltar
36.168,57.595,63.7,0.00,Sabzevar
36.181,37.224,59.4,0.00,Aleppo Intl
36.181,140.415,62.3,0.00,Hyakuri
36.199,-95.887,64.7,0.00,Tulsa International Airport
36.2,133.333,58.4,0.24,Saigo
36.213,1.332,64.9,0.00,Ech Cheliff / Chlef
36.217,127.983,52.8,0.00,Chupungnyeong
36.233,115.667,56.2,0.00,Xinxian
36.235,59.641,52.9,0.00,Mashhad Intl / Shahid Hashemi Nejad Intl
36.24,50.047,55.4,0.00,Ghazvin
36.25,117.1,35.6,0.00,Tai Shan
36.25,137.967,60.4,0.00,Matsumoto
36.261,-76.175,51.7,0.02,Monroe Co
36.266,120.374,47.9,0.20,Liuting / Qingdao Intl
36.267,-93.157,58.0,0.00,Boone Co
36.274,23.017,57.2,0.00,Kithira / Alexandros Aristotelous Onassis
36.276,6.62,50.8,0.00,Mohamed Boudiaf Intl
36.297,-99.769,68.5,0.00,Gage/Shattuck
36.3,98.1,45.7,0.00,Doulan
36.3,127.4,49.6,0.01,Taejon
36.306,43.147,61.1,0.00,Mosul
36.333,-119.95,54.1,0.00,Naval Air Station
36.333,-97.917,63.7,0.00,Vance Afb
36.333,102.833,58.6,0.00,Minhe
36.35,100.783,51.8,0.00,Gonghe
36.383,33.933,64.8,0.00,Silifke
36.383,140.467,62.2,0.16,Mito
36.395,136.407,62.2,0.00,Komatsu
36.4,139.067,61.1,0.08,Maebashi
36.405,28.086,59.8,0.00,Diagoras
36.417,54.95,56.8,0.00,Shahrud
36.417,94.9,51.5,0.00,Golmud
36.45,96.467,52.6,0.00,Nuo-Mu-Hong
36.467,-6.2,58.6,0.00,San Fernando
36.473,-82.404,49.0,0.00,Bristol Tri City Airport
36.483,8.8,58.1,0.08,Jendouba
36.5,-6.25,58.6,0.00,Cadiz Obs
36.5,40.75,57.2,0.00,Hassakah
36.515,139.871,64.5,0.00,Utsunomiya
36.517,126.317,46.7,0.83,Anmyeondo
36.533,61.217,59.3,0.00,Saragt
36.55,106.15,53.2,0.00,Qi-Ying
36.55,139.867,60.4,0.00,Utsunomiya
36.573,-79.335,55.1,0.00,Danville Regional Airport
36.573,36.154,65.9,0.00,Iskenderun
36.583,-121.833,52.3,0.47,Monterey Peninsula
36.583,104.683,59.5,0.00,Jingyuan
36.583,136.633,62.2,1.02,Kanazawa
36.6,109.5,51.8,0.00,Yan An
36.617,101.767,53.6,0.00,Xining / Caojiapu
36.633,127.45,50.7,0.00,Cheongju
36.648,137.188,72.0,0.00,Toyama
36.65,-6.35,58.1,0.00,Rota Naval Air Station
36.664,-121.608,51.3,0.00,Salinas Muni
36.667,-87.483,52.6,0.00,Campbell Aaf Airport
36.667,68.917,75.7,0.00,Kunduz
36.667,138.2,62.6,0.00,Nagano
36.675,-4.499,58.5,0.00,Malaga
36.683,-121.767,51.8,0.00,Fritzsche Aaf
36.683,15.133,55.2,0.01,Cozzo Spadaro
36.683,116.983,54.7,0.00,Jinan/Tsinan
36.691,3.215,55.2,0.00,Houari Boumediene
36.7,38.95,63.7,0.00,Tel Abiadh
36.707,67.21,75.9,0.00,Mazar I Sharif / Mawlana Jalaluddin Muhammad Balkhi
36.712,5.07,61.9,0.00,Soummam Abane Ramdane
36.717,52.65,53.1,0.00,Babulsar
36.717,137.2,62.2,0.35,Toyama
36.733,-91.85,54.1,0.00,West Plains  Mo
36.733,24.433,58.7,0.00,Milos
36.737,-97.102,68.5,0.00,Ponca City Muni
36.741,-104.502,62.3,0.00,Raton Municipal Crews Field A
36.744,-108.229,57.1,0.00,Four Corners Regional Arpt
36.745,-6.06,56.1,0.00,Jerez
36.767,-96.017,66.3,0.00,Bartlesville Muni
36.767,107.2,50.8,0.00,Hung-Te
36.767,119.183,50.7,0.00,Weifang
36.767,121.167,44.3,0.31,Haiyang
36.767,126.5,45.9,0.00,Seosan
36.774,48.359,53.2,0.00,Zanjan
36.78,-119.719,52.9,0.00,Fresno Yosemite International Airport
36.783,99.083,47.2,0.00,Cha-Ka
36.817,-76.033,50.9,0.31,Oceana Nas
36.817,11.969,54.8,0.39,Pantelleria
36.822,7.809,57.2,0.00,Annaba / Rabah Bitat
36.833,21.7,62.3,0.00,Methoni
36.844,-2.37,60.3,0.00,Almeria
36.85,11.083,57.5,0.20,Kelibia
36.851,10.227,58.5,0.12,Carthage
36.899,30.8,58.9,0.00,Antalya
36.903,-76.192,51.4,0.20,Norfolk International Airport
36.91,50.68,51.2,0.00,Ramsar
36.917,-94.017,15.6,0.00,Monette
36.933,6.95,59.0,0.00,Skikda
36.933,126.45,40.3,0.02,Mangilsan
36.937,-76.289,48.7,0.09,Norfolk Nas
36.947,37.479,56.3,0.00,Oguzeli / Gaziantep
36.95,-116.05,50.8,0.00,Yucca Flats Test S T
36.95,140.9,56.5,0.12,Onahama
36.965,-86.424,51.4,0.00,Bow Grn-Warren Co. Rgnl Ap
36.967,127.033,52.8,0.51,A 511 / Desiderio Aaf-Pyeongtaek / Camp Humphreys Rok
36.971,-25.171,57.2,0.00,Santa Maria
36.983,35.283,71.2,0.00,Adana Civil
37.0,-8.95,57.2,0.00,Sagres
37.0,35.417,64.6,0.00,Incirlik Ab
37.014,-7.966,56.0,0.00,Faro
37.021,41.191,59.9,0.00,Kamishly
37.033,-100.95,79.1,0.00,Liberal Muni
37.033,111.917,52.3,0.08,Jiexiu
37.056,-88.774,52.9,0.00,Paducah Barkley Field
37.067,92.867,51.5,0.00,T'A-Erh-Ting
37.067,112.983,47.1,0.00,Yushe
37.083,-76.36,49.3,0.12,Langley Afb Airport
37.083,14.217,55.9,0.17,Gela
37.087,-84.077,48.7,0.00,Cape Girardeau Rgnl
37.091,127.03,49.6,0.00,Osan Ab
37.1,25.367,62.0,0.02,Naxos
37.1,138.25,66.9,0.00,Takada
37.117,70.517,74.8,0.00,Feyzabad
37.133,-76.6,53.3,0.02,Felker Army Airfield
37.133,-76.483,49.6,0.06,Newport News Willia
37.133,38.767,58.7,0.00,Sanliurfa
37.133,104.217,56.8,0.00,Ching-T'Ai
37.133,109.65,49.1,0.00,Zi-Chang
37.14,-107.76,56.2,0.00,Durango-La Plata Co
37.14,27.67,63.0,0.02,Imsik
37.15,108.383,47.6,0.00,Pin-Kou-Men
37.152,-94.495,67.4,0.00,Joplin Regional Airport
37.175,-5.616,58.5,0.00,Moron Ab
37.183,114.367,57.2,0.00,Xingtai
37.189,-3.777,54.8,0.02,Granada
37.2,102.867,44.1,0.00,Wushaoling
37.217,28.367,50.8,0.02,Mugla
37.225,-89.571,52.8,0.00,Cape Girardeau Rgnl
37.239,127.007,48.0,0.00,Suwon
37.24,-93.39,58.3,0.00,Springfield-Branson Regional Airport
37.245,9.791,58.0,0.08,Sidi Ahmed Air Base
37.262,-104.338,65.6,0.00,Perry Stokes Airport
37.267,126.983,47.8,0.00,Suwon
37.28,-107.87,48.4,0.08,Durango Aviation Weather Reporti
37.287,67.31,71.6,0.00,Termez
37.296,-81.208,45.5,0.01,Mercer Co
37.3,-108.633,61.5,0.00,Cortez Muni
37.317,-79.974,50.5,0.00,Roanoke Regional/Woodrum Field Ap
37.321,-79.207,51.1,0.00,Lynchburg Rgnl/Preston Glenn Fld Ap
37.333,100.133,41.9,0.00,Gangca
37.35,59.633,56.3,0.00,Kaka
37.35,126.917,49.9,0.00,Sv Ri San
37.359,-121.924,52.0,0.00,N Y. Mineta Sn Jo Intl Apt
37.367,-6.0,58.3,0.00,Sevilla/Tablada
37.367,97.367,50.0,0.00,Delingha
37.367,101.617,45.6,0.00,Hao-Men
37.371,-118.358,50.1,0.00,Bishop Airport
37.383,-120.567,50.5,0.16,Castle Afb
37.383,136.9,59.5,1.54,Wajima
37.4,-121.133,58.9,0.00,Crows Landing
37.4,14.917,54.8,0.00,Sigonella
37.4,122.683,43.6,0.31,Chengshantou
37.406,-122.048,56.5,0.02,Moffett Federal Airfield
37.418,-5.893,56.1,0.04,Sevilla
37.433,116.317,53.6,0.00,Dezhou
37.439,-105.861,52.9,0.00,San Luis Valley Regional Airport
37.446,127.114,42.7,0.04,Seoul Ab
37.45,-106.8,74.4,0.00,Pagosa Springs Wol
37.467,15.066,54.0,0.12,Catania Fontanarossa
37.467,49.467,51.1,0.00,Anzali
37.467,53.967,54.8,0.00,Esenguly
37.467,110.25,51.8,0.00,Suide
37.467,126.633,44.6,0.00,Incheon
37.483,69.383,80.6,0.31,Parkhar
37.483,105.683,54.4,0.00,Zhongning
37.483,130.9,52.3,0.00,Ulleungdo
37.483,139.917,61.2,0.00,Wakamatsu
37.5,34.05,54.2,0.00,Eregli/Konya
37.5,71.5,61.7,0.04,Khorog
37.5,111.1,48.5,0.00,Lishi
37.5,117.533,52.8,0.00,Huimin
37.5,129.133,53.4,0.16,Donghae Radar
37.512,-77.323,52.7,0.00,Richmond International Airport
37.517,66.017,66.2,0.00,Carsanga
37.522,126.979,52.0,0.00,H 264 Heliport
37.531,22.404,48.7,0.04,Tripolis
37.533,126.967,44.8,0.12,Sinyongsan
37.558,126.791,45.0,0.00,Gimpo
37.567,43.767,44.6,0.00,Hakkari
37.567,126.967,46.2,0.02,Seoul City
37.591,-83.314,54.2,0.00,Jackson Carroll Arpt
37.6,62.183,61.7,0.02,Bajramaly
37.617,-109.467,51.9,0.12,Blanding
37.617,-97.267,61.1,0.00,Mcconnell Afb Airport
37.617,120.317,46.1,0.08,Longkou
37.62,-122.365,50.2,0.08,San Francisco International Airport
37.624,-120.951,55.0,0.00,Mdsto Cty-Co H Sham Fd Apt
37.648,-97.43,62.1,0.00,Wichita Eisenhower National
37.668,45.069,45.5,0.00,Uromiyeh
37.67,-95.484,62.0,0.00,Chanute Martin Johnson Apt
37.706,-112.146,49.7,0.00,Bryce Canyon Airport
37.709,-113.094,58.2,0.00,Cedar City Regional Arpt
37.721,-122.221,51.0,0.12,Metro Oakland Intl Airport
37.733,-122.317,54.1,0.00,Alameda(Usn)
37.733,-87.167,54.5,0.00,Owensboro Daviess C
37.741,-25.698,53.9,0.08,Ponta Delgada
37.747,112.628,52.1,0.00,Wusu
37.75,-92.15,62.7,0.00,Waynesville Regional Airport At Forney Field
37.75,26.867,59.3,0.20,Samos Island
37.754,128.944,52.3,0.00,Gangneung
37.767,-89.25,61.0,0.00,Southern Illinois
37.767,-80.333,44.2,0.00,White Sulphur Sprng
37.767,140.467,63.5,0.00,Fukushima
37.769,-99.968,68.3,0.00,Dodge City Regional Airport
37.771,128.868,54.3,0.00,Gangneung
37.775,-0.812,60.4,0.00,Murcia San Javier
37.783,29.083,54.8,0.02,Denizli
37.783,126.85,50.7,0.51,Yeongdongri
37.784,-81.123,42.5,0.00,Raleigh County Memorial Airport
37.785,30.582,47.7,0.08,Isparta
37.8,107.383,48.7,0.00,Yanchi
37.833,65.2,64.8,0.00,Kerki Intl
37.842,-4.849,57.9,0.00,Cordoba
37.85,95.367,44.4,0.00,Da-Qaidam
37.858,-80.399,51.1,0.00,Greenbrier Valley
37.882,23.735,59.6,0.00,Athinai
37.884,127.718,57.2,0.24,A 306
37.889,-121.226,52.6,0.16,Stockton Metropolitan Airport
37.894,40.201,54.0,0.00,Diyarbakir
37.9,-85.967,54.2,0.00,Godman Aaf Airport
37.9,127.733,50.5,0.00,Chuncheon
37.9,139.017,64.2,0.00,Niigata
37.911,12.488,56.5,0.04,Trapani Birgi
37.917,41.95,55.1,0.00,Siirt
37.917,127.05,52.0,0.20,Camp Casey/Tongduch
37.921,21.293,56.8,0.00,Andravida
37.927,-100.725,70.3,0.00,Garden City Regional Arpt
37.933,83.65,71.6,0.00,Andir
37.933,124.667,40.8,0.12,Baengnyeongdo Ab
37.937,-75.466,51.7,0.00,Wallops Flight Facility Airport
37.95,-79.833,44.5,0.00,Ingalls Fld
37.95,128.317,54.5,0.00,Hyun Ni (Kor-Army)
37.95,139.117,67.8,0.00,Niigata Airport
37.951,-1.23,62.6,0.00,Alcantarilla
37.967,126.567,45.6,0.00,Kaesong
37.979,32.562,51.5,0.00,Konya
37.987,58.361,56.9,0.00,Ashgabat
38.033,125.7,42.8,0.01,Haeju
38.033,138.233,60.5,0.08,Aikawa
38.041,-84.606,47.5,0.00,Blue Grass Airport
38.044,-87.521,50.6,0.00,Evansville Regional Airport
38.049,-103.513,73.4,0.00,La Junta Municipal Airport
38.05,138.417,70.4,0.00,Sado
38.051,-117.09,42.9,0.00,Tonopah Airport
38.064,23.556,57.6,0.00,Elefsis
38.065,-97.861,63.2,0.00,Hutchinson Municipal Arpt
38.067,-122.5,52.0,0.00,Hamilton Aaf
38.067,114.35,55.1,0.00,Shijiazhuang
38.071,15.652,55.2,0.00,Reggio Calabria
38.079,-7.932,51.3,0.00,Beja
38.111,13.313,54.1,0.00,Boccadifalco
38.131,-91.768,57.1,0.00,Rolla/Vichy Airport
38.134,46.235,47.4,0.00,Tabriz Intl
38.137,-78.455,51.1,0.00,Charlottesville Albemarle Arpt
38.14,140.917,54.8,0.00,Sendai
38.15,85.55,74.4,0.00,Qiemo/Qarqan
38.151,21.426,58.0,0.00,Araxos
38.167,120.783,44.9,0.08,Tuoji Island
38.176,13.091,56.2,0.39,Palermo
38.181,-85.739,50.1,0.00,Louisville Intl-Standiford Field Ap
38.2,15.55,54.5,0.31,Messina
38.228,-85.664,52.2,0.00,Bowman Field Airport
38.233,100.25,45.5,0.00,Babao
38.233,127.967,46.1,0.47,Wonju Ab
38.233,140.917,58.1,0.00,Kasuminome (Jasdf)
38.25,-78.05,65.3,0.00,Orange Co
38.25,90.85,46.4,0.00,Mangnai
38.25,140.35,58.5,0.00,Yamagata
38.251,128.565,46.4,0.00,Sokcho
38.267,-121.933,49.9,0.20,Travis Air Force Base
38.267,-78.9,50.5,0.00,Shenandoah Valley Rg
38.267,109.783,49.7,0.00,Yulin
38.267,140.9,55.9,0.00,Sendai
38.282,-0.558,59.2,0.00,Alicante
38.289,-104.506,69.3,0.00,Pueblo Memorial Airport
38.3,-76.417,51.4,0.00,Naval Air Station
38.317,-88.867,56.0,0.00,Mount Vernon
38.319,27.159,58.1,0.00,Gaziemir
38.329,-96.195,62.2,0.00,Emporia Municipal Airport
38.333,116.833,53.6,0.00,Cangzhou
38.34,23.565,52.6,0.00,Tanagra
38.341,-75.51,50.4,0.00,Salisbury Ocean Cit
38.365,-82.555,48.2,0.00,Tri-State/M.J.Fergus
38.371,-110.715,66.3,0.00,Hanksville
38.379,-81.59,47.3,0.00,Yeager Airport
38.405,141.22,54.5,0.00,Matsushima
38.412,140.371,66.7,0.00,Yamagata
38.417,-113.017,58.8,0.00,Milford Municipal
38.427,44.974,51.3,0.00,Khoy
38.433,56.3,50.9,0.00,Garryqala
38.433,57.417,57.7,0.00,Bakherden
38.433,77.267,68.5,0.00,Shache
38.433,141.3,57.9,0.00,Ishinomaki
38.435,38.091,47.1,0.00,Erhac / Malatya
38.467,99.55,36.0,0.00,Yeh-Niu-Kou
38.467,102.183,52.3,0.00,Jin-Chang
38.468,43.332,38.7,0.00,Van
38.483,106.217,50.0,0.39,Yinchuan / Hedong
38.5,-107.883,52.8,0.00,Montrose
38.504,-77.305,52.3,0.00,Quantico Mcaf
38.507,-121.495,49.5,0.00,Sacramento Executive Airport
38.513,27.01,57.1,0.04,Cigli
38.517,-122.817,49.6,0.00,C M Schulz Sonoma Co
38.517,-107.894,63.1,0.00,Montrose Rgnl
38.517,-28.633,61.0,0.00,Horta (Acores)
38.517,-5.117,54.6,0.00,Hinojosa Del Duque
38.517,125.767,42.3,0.00,Sariwon
38.533,-106.05,59.2,0.00,Salida/Alexander
38.533,54.3,50.5,0.00,Bygdaili
38.55,-89.85,54.7,0.00,Scott Air Force Base/Midamerica Airport
38.567,-121.3,52.1,0.08,Mather Field
38.567,-7.9,52.3,0.00,Evora
38.583,-92.15,64.3,0.00,Jefferson City Mem
38.6,-106.92,44.1,0.00,Gunnison Aviation Weather Report
38.607,39.291,49.4,0.00,Elazig
38.633,103.083,57.0,0.00,Minqin
38.657,-90.656,67.6,0.00,Spirit Of St Louis Airport
38.667,-121.4,49.9,0.02,Sacramento Mcclellan Afb
38.678,-104.757,68.4,0.00,Butts Aaf Airport
38.683,29.4,50.3,0.16,Usak
38.696,-121.59,49.6,0.00,Sacramento Intl Airport
38.7,13.183,52.5,0.08,Ustica Island
38.717,-93.55,61.1,0.00,Whiteman Afb Airport
38.717,-77.183,51.4,0.00,Davison Aaf Airport
38.726,30.601,50.4,0.04,Afyon
38.733,48.833,52.3,0.39,Lankaran
38.733,115.483,53.9,0.00,Baoding
38.75,-109.75,69.2,0.00,Canyonlands Fld
38.75,112.7,46.0,0.00,Yuanping
38.753,-90.374,56.0,0.00,Lambert-St Louis International Ap
38.762,-27.091,58.0,0.02,Lajes
38.77,35.495,48.4,0.00,Erkilet / Kayseri
38.781,-9.136,52.7,0.00,Lisboa
38.8,-97.65,63.0,0.00,Salina Municipal Airport
38.8,98.417,38.7,0.00,Tuo-Le
38.8,101.083,57.2,0.00,Shan-Dan
38.809,27.834,55.6,0.08,Akhisar
38.81,-104.688,63.5,0.00,City Of Colorado Springs Municipal Ap
38.817,-92.218,58.1,0.00,Columbia Regional Airport
38.817,-76.867,50.7,0.00,Andrews Air Force Base Airport
38.833,93.383,49.0,0.00,Lenghu
38.833,105.533,51.1,0.00,Alxa Zuoqi/Bayan Ho
38.844,-94.56,65.0,0.00,Richard Gebaur
38.847,-77.035,52.5,0.00,Ronald Reagan Washington Natl Ap
38.873,1.373,59.6,0.00,Ibiza
38.876,-98.809,65.7,0.00,Russell Municipal Airport
38.883,-120.0,26.5,0.00,Lake Tahoe
38.883,22.433,53.6,0.02,Lamia
38.89,-79.855,42.6,0.08,Elkins-Rand Co-J.Rand Field Airport
38.891,-6.821,56.3,0.00,Talavera La Real / Badajoz
38.917,139.85,61.2,0.00,Sakata
38.925,20.765,56.7,0.08,Aktion
38.935,-77.447,49.4,0.00,Washington Dulles International Ap
38.949,-1.864,54.4,0.00,Albacete
38.95,-95.664,64.8,0.00,Forbes Field Airport
38.95,113.517,17.3,0.28,Wutai Shan
38.966,121.539,43.5,0.16,Zhoushuizi
38.968,24.487,56.3,0.08,Skiros
38.983,-3.917,50.8,0.00,Ciudad Real
38.983,56.283,55.0,0.31,Gyzylarbat
38.997,17.08,48.7,0.35,Crotone
39.033,88.167,74.4,0.00,Ruoqiang
39.044,-84.672,47.2,0.98,Cincinnati/Northern Kentucky Intl Ap
39.05,-96.767,68.4,0.00,Marshall Army Airfield
39.05,116.4,55.0,0.00,Baxian
39.05,123.217,41.9,0.00,Haiyang Dao
39.057,26.598,59.0,0.01,Mitilini
39.067,26.883,58.2,0.08,Dikili
39.073,-95.626,64.4,0.00,Philip Billard Municipal Airport
39.083,-76.767,52.0,0.00,Tipton Airport
39.083,63.6,64.4,0.00,Chardzhev
39.083,100.283,58.7,0.00,Zhangye
39.1,-121.567,49.2,0.00,Yuba Co
39.1,53.1,50.5,0.00,Ogryda
39.1,107.983,51.6,0.00,Otog Qi
39.1,117.167,52.4,0.00,Tianjin
39.103,-84.419,47.9,0.00,Cina Muni Apt/Lukn Fd Apt
39.121,-94.597,65.0,0.00,Kansas City Downtown Ap
39.126,-123.201,43.8,0.24,Ukiah Municipal Airport
39.133,-121.433,51.1,0.16,Beale Air Force Base
39.133,-96.667,66.5,0.00,Manhattan Rgnl
39.133,-86.617,58.8,0.00,Monroe Co
39.133,-75.467,51.4,0.00,Dover Afb Airport
39.134,-108.54,65.2,0.00,Grand Junction Regional Airport
39.173,-76.684,49.8,0.00,Baltimore-Washington Intl Airport
39.183,36.067,47.0,0.00,Gemerek
39.183,127.433,44.1,0.00,Wonsan
39.2,-81.27,46.6,0.00,Oak Ridge
39.22,22.794,52.8,0.00,Nea Anchialos
39.223,-106.869,64.1,0.00,Aspen Pitkin Co Sard
39.224,125.67,43.1,0.00,Pyongyang Intl
39.25,-106.3,43.8,0.00,Leadville/Lake Co.
39.251,9.054,53.9,0.20,Elmas
39.275,-103.666,62.0,0.00,Limon Municipal Airport
39.277,-120.71,28.8,0.47,Blue Canyon - Nyack Arpt
39.283,-7.417,48.5,0.00,Portalegre
39.295,-114.847,51.0,0.00,Ely Airport/Yelland Field/Airport
39.297,-94.731,63.8,0.00,Kansas City International Airport
39.317,-76.4,52.5,0.00,Martin State
39.317,58.6,55.0,0.00,Erbent
39.33,-112.58,64.9,0.00,Delta
39.35,-9.4,56.8,0.00,Cabo Carvoeiro
39.354,8.972,53.4,0.00,Decimomannu
39.366,-75.078,50.5,0.00,Millville Municipal Arpt
39.367,-101.693,64.1,0.00,Renner Field/Goodland Mini Airport
39.367,-94.917,67.8,0.00,Sherman Aaf
39.367,111.217,45.4,0.00,Hequ
39.376,-99.83,68.4,0.00,Hill City Municipal Arpt
39.383,102.833,61.8,0.00,Lai-Yen-Ch'Ih
39.404,-77.945,51.1,0.00,Etrn Wv Rgnl/Shpherd Fd Ap
39.417,-118.717,43.7,0.00,Fallon Nas
39.429,141.135,63.8,0.00,Hanamaki
39.433,118.9,45.0,0.04,Leting
39.45,-87.3,50.3,0.00,Terre Haute Hulman Regional A
39.452,-74.567,51.2,0.00,Atlantic City International Airport
39.467,-6.333,50.2,0.00,Caceres
39.483,-88.283,57.5,0.00,Coles Co Mem
39.484,-119.771,42.1,0.08,Reno/Tahoe International Airport
39.489,-0.482,58.1,0.00,Valencia
39.53,-107.8,62.6,0.00,Rifle Aviation Weather Reporting
39.543,76.02,68.9,0.00,Kashi / Laining
39.55,2.733,54.5,0.00,Palma De Mallorca
39.551,-97.651,64.1,0.00,Blosser Municipal Airport
39.583,15.883,47.1,0.87,Bonifati (Cape)
39.583,59.95,55.4,0.00,Akmolla
39.595,47.196,50.9,0.01,Fuzuli
39.6,-116.0,64.5,0.00,Eureka (Ramos)
39.602,19.912,56.7,0.04,Ioannis Kapodistrias Intl
39.616,140.219,71.9,0.00,Akita
39.617,-110.75,56.9,0.00,Price/Carbon(Ramos)
39.619,27.926,56.5,0.00,Balikesir
39.65,-106.917,57.2,0.00,Eagle Co Regional Airport
39.65,-79.921,43.3,0.00,Mgtn Rgnl-W L B Hart Fd Ap
39.65,22.466,52.9,0.08,Larisa
39.65,118.1,50.5,0.00,Tangshan
39.65,141.967,59.1,0.00,Miyako
39.667,-31.117,60.1,0.00,Corvo Island
39.667,76.167,63.9,0.00,Ar-Tux
39.673,-75.601,51.2,0.00,Wilmington New Cast
39.7,141.167,58.6,0.00,Morioka
39.701,66.984,63.8,0.00,Samarkand
39.71,39.527,45.6,0.00,Erzincan
39.717,-104.75,61.7,0.00,Buckley Air Force Base
39.717,140.1,62.8,0.00,Akita
39.725,-86.282,50.3,0.00,Indianapolis International Airport
39.75,-104.867,64.9,0.00,Denver Wsfo
39.75,8.467,54.5,0.47,Cape Frasca
39.767,98.483,64.6,0.00,Jiuquan/Suzhou
39.774,-94.923,64.8,0.00,Rosecrans Memorial Airport
39.783,105.75,56.1,0.00,Jartai
39.784,30.582,52.6,0.00,Eskisehir
39.8,78.567,70.7,0.00,Bachu
39.814,36.903,40.9,0.00,Sivas
39.817,-82.933,45.5,0.00,Rickenbacker Intl Airport
39.817,18.35,53.8,0.08,Santa Maria Di Leuc
39.833,-88.867,54.4,0.00,Decatur
39.833,-84.05,45.5,0.00,Wright-Patterson Afb Airport
39.833,-83.833,50.8,0.00,Springfield Beckley
39.833,109.983,45.7,0.00,Dongsheng
39.833,114.567,36.5,0.04,Yu Xian
39.845,-89.684,55.4,0.00,Abraham Lincoln Capital Airport
39.863,4.219,54.4,0.00,Menorca
39.873,-75.227,51.4,0.00,Philadelphia International Airport
39.883,-4.05,55.8,0.00,Toledo
39.906,-84.219,47.0,0.00,J.M.Cox Dayton International Airport
39.917,44.05,50.9,0.00,Igdir
39.933,9.717,55.4,0.00,Cape Bellavista
39.933,127.55,43.3,0.00,Hamheung
39.937,-91.192,56.6,0.00,Quincy Rgnl Baldwin
39.944,-81.892,43.6,0.00,Zanesville Municipal Arpt
39.95,-105.833,38.1,0.00,Fraser
39.95,-0.067,59.5,0.00,Castellon-Almazora
39.95,32.689,52.2,0.00,Etimesgut
39.957,41.17,36.9,0.00,Erzurum
39.983,46.75,44.6,0.00,Khankandy
39.991,-82.877,44.3,0.00,Port Columbus International Airport
40.017,-74.6,49.3,0.00,Mcguire Afb Airport
40.017,15.283,51.0,0.71,Cape Palinuro
40.033,-88.267,51.7,0.00,Univ Of Illinois Wi
40.033,-74.35,48.3,0.00,Naes/Maxfield Field
40.033,52.983,50.4,0.00,Turkmenbashi
40.05,124.333,43.9,0.63,Dandong
40.068,-118.569,37.1,0.00,Lovelock Derby Field
40.079,-75.013,50.0,0.00,Ne Philadelphia Airport
40.079,32.566,48.3,0.00,Akinci / Murted
40.08,116.585,53.2,0.00,Beijing - Capital International Airport
40.083,113.417,41.8,0.00,Datong
40.097,-92.543,63.4,0.00,Kirksville Regional Arpt
40.1,124.383,44.4,0.00,Sinuiju
40.128,32.995,47.1,0.00,Esenboga
40.138,26.427,54.7,0.00,Canakkale
40.15,94.683,69.1,0.00,Dunhuang
40.152,-122.254,47.8,0.20,Red Bluff Municipal Arpt
40.167,-103.217,65.7,0.00,Colorado Plains Rgnl Arpt
40.176,-80.647,44.1,0.00,Wheeling Ohio County Arpt
40.183,-112.933,65.6,0.00,Dugway Pg Utah/Michales Aaf
40.183,25.9,57.1,0.00,Gokceada
40.183,29.067,56.3,0.00,Bursa
40.196,-76.772,48.4,0.00,Harrisburg Intl
40.199,-87.596,60.5,0.00,Vermilion Co
40.2,-100.583,69.2,0.51,Mccook Rgnl
40.2,-75.15,50.2,0.00,Willow Grove Nas
40.2,-8.417,52.7,0.00,Coimbra
40.212,44.53,46.7,0.00,Yerevan-Arabkir
40.217,-76.851,51.4,0.00,Harrisburg Capital City Arpt
40.217,-76.85,51.3,0.00,Harrisburg Capital City Arpt
40.239,18.133,53.8,0.00,Lecce
40.267,97.033,62.6,0.00,Yumenzhen
40.277,-74.816,52.1,0.00,Trenton Mercer Airport
40.294,-3.724,55.0,0.00,Getafe
40.296,-78.32,43.9,0.00,Altoona-Blair County Arpt
40.3,-109.983,57.5,0.00,Roosevelt         &
40.3,-96.75,73.0,0.00,Beatrice Muni
40.316,-78.834,43.5,0.00,J Murtha Jtwn-Cmbra Co Apt
40.318,27.978,53.8,0.00,Bandirma
40.355,-79.922,44.9,0.00,Allegheny County Airport
40.367,-75.967,51.9,0.00,Reading Spaatz Field
40.367,71.75,61.2,0.00,Fergana Airport
40.371,-3.785,53.5,0.00,Cuatro Vientos
40.4,99.8,64.7,0.00,Shuangchengtzu
40.4,118.95,41.3,0.08,Qinglong
40.412,-86.937,48.0,0.00,Purdue University Airport
40.417,-7.55,41.5,0.00,Penhas Douradas
40.417,115.5,43.4,0.00,Huailai
40.433,16.883,53.4,0.06,Marina Di Ginosa
40.441,-109.51,68.5,0.39,Vernal
40.45,-99.333,66.6,0.00,Brewster Fld
40.45,75.383,42.8,0.00,Sai-K'O-Lo-T'E-Ma
40.467,62.283,56.1,0.00,Darganata
40.483,-107.217,56.3,0.00,Hayden/Yampa (Awos)
40.485,-80.214,44.9,0.00,Pittsburgh International Airport
40.494,-3.567,51.1,0.00,Adolfo Suarez Madrid Barajas
40.497,-3.446,54.3,0.00,Torrejon
40.5,81.05,76.1,0.00,Alar
40.5,96.0,65.3,0.00,An-Xi
40.518,-122.299,48.9,0.00,Redding Municipal Arpt
40.518,17.403,52.2,0.00,Taranto Grottaglie
40.52,22.971,51.1,0.08,Makedonia
40.53,-80.22,40.8,0.00,Pittsburgh Wsfo
40.533,79.533,72.1,0.00,Ch'I-Lan-Tai
40.533,141.517,58.6,0.00,Hachinohe
40.55,34.95,47.3,0.00,Corum
40.55,44.933,28.1,0.00,Sevan
40.55,65.683,62.6,0.04,Nurata
40.556,141.466,60.9,0.00,Hachinohe
40.562,43.115,37.4,0.00,Kars Harakani
40.588,-105.042,64.6,0.00,Fort Collins Downtown
40.605,-98.428,73.5,0.00,Hastings Muni
40.612,-116.892,43.0,0.00,Battle Mountain Airport
40.617,14.917,54.9,0.00,Pontecagnano
40.632,8.291,54.1,0.00,Alghero
40.633,15.8,45.0,0.39,Potenza
40.633,87.7,73.0,0.00,Tikanlik
40.639,-73.764,48.9,0.00,John F Kennedy International Airport
40.65,-86.15,50.8,0.00,Grissom Arb
40.65,-75.448,48.7,0.00,Lehigh Valley International Airport
40.65,139.933,60.8,0.00,Fukaura
40.658,17.947,54.5,0.12,Casale / Brindisi
40.667,-4.683,46.9,0.00,Avila
40.667,122.2,44.8,0.24,Yingkou
40.667,129.2,43.7,0.00,Kimchaek/Songjin
40.668,-89.684,54.8,0.02,Greater Peoria Regional Airport
40.683,-74.169,51.7,0.00,Newark Liberty International Ap
40.705,141.372,59.2,0.00,Misawa Ab
40.717,-99.0,67.9,0.47,Kearney Muni
40.717,46.417,55.0,0.00,Gandja
40.717,98.617,60.2,0.00,Beishan (Mtns)
40.717,124.783,43.7,0.35,Kuandian
40.721,-114.036,65.0,0.00,Wendover Airport
40.733,31.6,51.8,0.00,Bolu
40.735,140.691,53.6,0.00,Aomori
40.75,104.5,53.9,0.00,Bayan Mod
40.767,107.4,53.3,0.00,Linhe
40.768,16.933,47.3,0.00,Gioia Del Colle
40.778,-111.969,64.9,0.00,Salt Lake City International Airport
40.779,-73.969,48.1,0.00,New York Central Park
40.779,-73.88,48.9,0.00,La Guardia Airport
40.783,-91.125,58.1,0.00,Southeast Iowa Rgnl
40.783,21.4,45.9,0.35,Florina
40.783,43.833,35.4,0.00,Gumri
40.783,55.333,49.1,0.00,Chagyl
40.783,114.883,41.0,0.00,Zhangjiakou
40.794,-73.102,48.4,0.00,Long Island Mac Art
40.8,-4.017,37.0,0.01,Navacerrada Puerto
40.817,0.5,59.7,0.00,Tortosa
40.817,140.767,51.4,0.00,Aomori
40.82,-82.518,43.9,0.00,Mansfield Lahm Rgnl
40.829,-115.789,45.9,0.00,Elko Municipal Arpt
40.829,35.522,47.9,0.00,Merzifon
40.85,-115.733,45.7,0.00,Elko
40.85,-74.061,49.4,0.00,Teterboro Airport
40.85,-1.883,42.8,0.12,Molina De Aragon
40.85,14.3,53.3,0.43,Napoli/Capodichino
40.851,-96.748,63.3,0.00,Lincoln Municipal Airport
40.851,111.824,46.6,0.00,Baita
40.856,25.956,56.9,0.00,Dimokritos
40.869,141.378,64.6,0.00,Draughon Range
40.883,-121.667,37.3,0.00,Burney
40.883,123.9,44.6,0.63,Caohekou
40.899,9.518,55.2,0.00,Olbia Costa Smeralda
40.9,-78.083,41.6,0.00,Philipsburg Airport
40.902,-117.808,37.9,0.08,Winnemucca Municipal Airport
40.917,12.95,55.2,0.00,Ponza Island
40.917,38.383,51.5,0.00,Giresun
40.917,72.95,72.3,0.00,Dzhalal-Abad
40.918,-81.444,44.0,0.00,Akron-Canton Regional Airport
40.933,-1.3,44.6,0.00,Calamocha
40.933,78.45,62.6,0.00,Akqi
40.95,-4.133,50.7,2.13,Segovia
40.952,-5.502,49.1,0.02,Salamanca
40.961,-98.314,63.7,0.00,Central Nebraska Regional Airport
40.967,117.917,51.1,0.00,Chengde
40.967,126.6,47.2,0.00,Kanggye
40.971,-85.206,47.3,0.00,Fort Wayne International Airport
40.977,28.821,56.9,0.00,Ataturk
40.978,-124.109,47.3,0.00,Arcata Airport
40.983,27.55,54.3,0.00,Tekirdag
40.995,39.79,51.6,0.00,Trabzon
41.014,-83.669,45.8,0.00,Findlay Airport
41.033,57.767,53.2,0.00,Ekezhe
41.033,113.067,37.4,0.00,Jining
41.061,14.082,55.7,0.00,Grazzanise
41.062,-73.705,46.6,0.00,Westchester County Airport
41.099,-102.986,67.8,0.00,Sidney Municipal Ap
41.108,-92.447,61.8,0.00,Ottumwa Industrial Airport
41.117,-111.967,66.5,0.00,Hill Afb Airport
41.117,-95.917,62.4,0.00,Offutt Afb Airport
41.117,8.317,53.6,0.00,Asinara Island
41.121,-100.669,62.9,0.00,North Platte Rgnl Ap Lee Bird Fd Ap
41.133,16.767,52.9,0.13,Bari
41.133,121.117,46.0,0.91,Jinzhou
41.147,1.167,55.4,0.00,Reus
41.15,126.217,48.7,0.04,Ji'An
41.158,-104.807,60.7,0.00,Cheyenne Airport
41.164,-73.127,48.6,0.00,Igor I Sikorsky Memorial Airport
41.179,-78.893,41.2,0.02,Du Bois-Jefferson Co Arpt
41.183,-75.417,43.5,0.28,Tobyhanna
41.196,-112.011,67.1,0.00,Ogden-Hinckley Airport
41.2,116.633,42.5,0.00,Fengning
41.217,9.4,55.0,0.00,Guardiavecchia
41.233,-89.617,50.2,0.00,Bradford/Rinkenberg
41.233,141.133,59.0,0.00,Ominato (Jasdf)
41.243,-76.922,46.1,0.00,Williamsport Regional Airport
41.248,-8.681,53.1,0.00,Porto
41.25,29.033,49.7,0.00,Kumkoy
41.253,-70.061,38.0,0.00,Nantucket Memorial Airport
41.255,-80.674,42.6,0.00,Youngstown-Warren Regional Airport
41.258,69.281,72.5,0.00,Yuzhny / Tashkent Islam Karimov Intl
41.264,-72.887,47.6,0.39,Tweed-New Haven Airport
41.273,-111.031,52.0,0.00,Evan-Uinta Co Burns Fld Ap
41.283,36.3,49.9,0.00,Samsun
41.283,36.333,59.0,0.00,Samsun\Meydan
41.297,2.078,53.1,0.00,Barcelona
41.31,-95.899,63.6,0.00,Eppley Airfield Airport
41.314,33.796,47.3,0.00,Kastamonu
41.317,-105.683,55.3,0.00,Laramie Regional Airport
41.317,-7.733,50.9,0.00,Vila Real
41.333,-122.333,35.6,0.00,Mount Shasta
41.334,-75.727,41.9,0.00,Wilkes-Barre/Scranton Intl Airport
41.367,102.367,60.0,0.00,Guaizihu
41.4,-70.617,39.6,0.00,Marthas Vineyard
41.4,41.433,53.6,0.00,Hopa
41.4,128.167,44.9,0.01,Hyesan
41.406,-81.852,43.7,0.00,Cleveland-Hopkins International Ap
41.417,2.133,53.6,0.00,Barcelona City
41.417,22.25,53.6,0.01,Demir Kapija
41.417,43.483,30.7,0.00,Akhalqalaqi
41.417,128.183,42.4,0.04,Changbai
41.433,-99.65,69.4,0.00,Broken Bow Muni
41.433,15.533,54.1,0.00,Gina Lisa
41.433,76.0,59.0,0.00,Naryn
41.45,-97.333,72.1,0.00,Columbus Muni
41.45,31.8,60.5,0.00,Zonguldak / Caycuma
41.45,44.55,45.1,0.00,Bolnisi
41.45,106.383,54.7,0.00,Hails
41.465,-90.523,57.5,0.00,Quad City International Airport
41.5,-120.533,35.8,0.24,Alturas
41.5,-74.1,43.0,0.00,Stewart International Airport
41.517,-81.683,43.9,0.00,Burke Lakefront
41.534,-93.653,62.6,0.00,Des Moines International Airport
41.541,15.718,53.2,0.04,Amendola
41.542,12.909,57.6,0.00,Latina
41.55,23.267,50.6,0.02,Sandanski
41.55,44.467,40.5,0.00,Tetri-Tskaro
41.55,120.45,50.9,0.55,Chaoyang
41.567,14.65,47.5,0.02,Campobasso
41.567,108.517,46.6,0.00,Haliut
41.583,58.717,49.5,0.00,Shasenem
41.587,-83.806,43.4,0.00,Toledo Express Airport
41.594,-109.053,57.2,0.00,Rock Springs Arpt
41.61,41.6,52.1,0.00,Batumi
41.626,-73.882,46.6,0.00,Dutchess County Airport
41.633,-4.75,50.5,0.00,Valladolid
41.633,0.6,54.7,0.00,Lerida
41.633,13.3,53.6,0.00,Frosinone (It-Afb)
41.633,42.983,31.1,0.00,Ahalcihe
41.65,25.383,51.3,0.08,Kurdjali
41.659,12.445,57.0,0.00,Pratica Di Mare
41.666,-1.042,51.0,0.00,Zaragoza Ab
41.667,-70.95,42.3,0.00,New Bedford Rgnl
41.667,-70.267,40.2,0.00,Barnstable Muni Boa
41.667,-69.967,38.5,0.04,Chatham
41.667,-1.05,51.0,0.00,Zaragoza (Usafb)
41.667,26.567,54.2,0.04,Edirne
41.667,46.65,48.7,0.00,Zakatala
41.683,-93.55,65.4,0.00,Ankeny Regional Arp
41.7,-8.8,54.1,0.00,Viana Do Castelo
41.7,110.433,45.4,0.00,Bailing-Miao
41.706,-4.852,48.0,0.00,Valladolid
41.707,-86.316,46.5,0.00,South Bend Regional Airport
41.717,82.95,72.6,0.00,Kuqa
