lat,lon,temp,precip,name
-90.0,0.0,-77.9,0.00,Amundsen-Scott
-77.883,166.733,-13.8,0.00,Mcmurdo Sound Naf
-75.61,-26.272,-8.0,0.00,Halley
-64.883,-62.883,34.9,0.04,Brown Arg-Base
-64.233,-56.717,0.3,0.00,Base Marambio (Centro Met. Antartico)
-63.467,-56.283,10.8,0.08,Petrel Arg-Base
-63.4,-56.983,8.9,0.00,Base Esperanza
-60.733,-44.733,32.4,0.00,Base Orcadas
-54.933,-67.633,46.0,0.00,Puerto Williams
-54.283,-36.5,32.7,0.28,Grytviken
-53.003,-70.855,42.0,0.00,Carlos Ibanez Del Campo Intl
-52.55,169.15,44.3,0.00,Campbell Island
-52.4,-75.1,42.8,0.00,Islotes Evangelistas
-51.609,-69.313,45.2,0.00,Rio Gallegos
-50.333,-72.3,44.4,0.12,Lago Argentino Arpt
-50.017,-68.579,49.3,0.00,Santa Cruz
-49.307,-67.803,52.2,0.00,San Julian
-46.875,37.86,49.3,0.04,Marion Island
-46.517,-71.017,50.0,0.00,Perito Moreno Arpt
-46.412,168.313,49.5,0.00,Invercargill
-46.167,166.633,52.4,0.00,Puysegur Pt (Lgt-H)
-45.916,-71.689,48.3,0.00,Balmaceda
-45.785,-67.466,58.7,0.00,Comodoro Rivadavia
-45.767,170.733,49.5,0.00,Taiaroa Head
-45.4,-72.7,53.6,0.00,Puerto Aysan / Cabo Juan Roman
-43.81,-176.457,51.1,0.00,Chatham Islands
-43.5,147.15,50.5,0.00,Cape Bruny Lighthouse
-43.489,172.532,52.2,0.00,Christchurch Intl
-43.211,-65.27,65.0,0.00,Almirante Zar
-42.908,-71.139,54.0,0.04,Esquel
-42.883,147.333,49.3,0.00,Hobart (Ellerslie Road)
-42.836,147.51,48.6,0.00,Hobart
-42.717,170.983,53.3,0.00,Hokitika Aerodrome
-42.15,145.283,53.3,0.00,Strahan Aerodrome
-41.75,171.6,53.9,0.00,Westport Harbour
-41.545,147.214,44.4,0.00,Launceston
-41.439,-73.094,57.1,0.00,El Tepual Intl
-41.3,173.217,53.1,0.00,Nelson Aerodrome
-41.283,174.767,53.1,0.00,Wellington
-41.25,-71.617,40.7,0.00,Catedral 2000
-41.151,-71.158,55.5,0.00,San Carlos De Bariloche
-41.0,148.35,54.1,0.00,Larapuna (Eddystone Point)
-40.869,-63.0,67.0,0.00,Gobernador Castello
-40.783,-65.1,64.4,0.00,San Antonio Oeste Aero
-40.55,173.0,57.7,0.00,Farewell Spit
-40.206,175.388,51.8,0.00,Ohakea
-40.117,148.017,58.7,0.00,Whitemark
-39.65,-73.086,64.4,0.00,Pichoy
-39.467,175.683,44.2,0.00,Waiouru
-39.467,176.867,55.4,0.00,Napier/Airport
-39.017,174.183,51.8,0.00,New Plymouth Aerodr
-38.949,-68.156,64.8,0.00,Presidente Peron
-38.85,143.517,55.4,0.00,Cape Otway Lighthouse
-38.767,-72.637,61.1,0.00,Maquehue
-38.725,-62.169,70.2,0.00,Comandante Espora
-38.667,177.983,53.2,0.00,Gisborne Aerodrome
-38.483,-58.833,73.9,0.00,Necochea Airport
-38.387,-60.33,68.0,0.00,Tres Arroyos
-38.099,147.149,56.0,0.00,East Sale
-37.934,-57.573,65.1,0.00,Mar Del Plata
-37.867,144.75,56.5,0.00,Laverton Raaf
-37.817,144.967,57.4,0.00,Melbourne Regional Office
-37.8,77.533,55.7,0.00,Martin De Vivies (Ile Amsterdam)
-37.733,140.783,54.5,0.00,Mount Gambier Aero
-37.667,144.85,54.2,0.00,Melbourne Intl Arpt
-37.667,176.2,52.5,0.00,Tauranga Aerodrome
-37.6,-62.383,68.9,0.00,Pigue Airport
-37.567,149.9,59.1,0.00,Gabo Island Lighthouse
-37.237,-59.228,65.2,0.00,Tandil
-37.235,-57.029,69.4,0.00,Villa Gesell
-37.008,174.792,52.6,0.00,Auckland Intl
-36.9,149.9,58.8,0.00,Merimbula Airport
-36.773,-73.063,58.3,0.00,Carriel Sur Intl
-36.75,-59.833,62.2,0.00,Azul Airport
-36.588,-64.276,73.3,0.00,Santa Rosa
-36.35,-57.733,69.3,0.00,Dolores Airport
-36.317,141.633,57.0,0.00,Nhill Aerodrome
-36.187,-61.076,67.3,0.00,Bolivar
-36.15,144.767,56.1,0.00,Echuca Aerodrome
-35.845,-61.858,73.4,0.00,Comodoro P Zanni
-35.696,-63.758,76.6,0.00,General Pico
-35.494,-69.574,64.4,0.00,Malargue
-35.417,149.1,48.4,0.00,Tuggeranong Isabella Plains
-35.367,-57.283,66.3,0.00,Punta Indio B.A.
-35.333,136.117,60.6,0.00,Neptune Island
-35.307,149.195,47.0,0.00,Canberra
-35.165,147.466,48.2,0.00,Wagga Wagga
-35.067,173.283,53.3,0.00,Kaitaia Aerodrome
-34.972,-57.895,66.5,0.00,La Plata
-34.967,-71.217,60.2,0.00,Curico/Gen Freire
-34.967,-54.95,66.5,0.00,Punta Del Este
-34.95,138.533,55.7,0.00,Adelaide
-34.949,150.537,58.1,0.00,Nowra
-34.945,138.531,57.2,0.00,Adelaide Intl
-34.941,117.802,62.8,0.00,Albany Airport
-34.917,138.617,56.6,0.00,Kent Town
-34.838,-56.031,66.6,0.00,Carrasco Intl
-34.822,-58.536,62.8,0.00,Ministro Pistarini
-34.789,-56.265,66.7,0.00,Angel S Adami
-34.683,-58.65,73.7,0.00,Moron(Aafb)
-34.61,-58.613,66.4,0.00,El Palomar
-34.588,-68.403,68.9,0.00,San Rafael
-34.583,-58.483,68.5,0.00,Buenos Aires (Obs)
-34.567,-58.783,71.1,0.00,Mariano Moreno(Aafb)
-34.559,-58.416,69.1,0.00,Aeroparque Jorge Newbery
-34.546,-60.931,70.2,0.00,Junin
-34.501,-58.604,72.3,0.00,Don Torcuato
-34.456,-57.771,67.4,0.00,Laguna De Los Patos Intl
-34.367,115.133,67.5,0.00,Cape Leeuwin
-34.183,22.15,66.2,0.00,Mossel Bay (Lgt-H)
-34.135,-63.362,70.0,0.00,Laboulaye
-34.006,22.379,63.5,0.00,George
-34.0,137.533,60.4,0.00,Warburto Point
-33.985,25.617,67.0,1.77,Port Elizabeth Intl / Chief Dawid Stuurman Intl
-33.965,18.602,65.4,0.00,Cape Town Intl
-33.95,151.2,62.9,0.00,Sydney Intl Airport
-33.946,151.177,60.5,0.00,Sydney Intl
-33.924,150.988,64.3,0.00,Sydney Bankstown
-33.85,148.65,55.8,0.00,Cowra Airport Comparison
-33.85,151.2,63.8,0.00,Sydney (Observatory Hill)
-33.833,121.893,63.8,0.00,Esperance
-33.73,-65.387,70.0,0.00,Villa Reynolds
-33.633,-78.833,66.2,0.00,Juan Fernandez
-33.601,150.781,61.7,0.00,Richmond
-33.493,-70.698,60.8,0.00,Los Cerrillos
-33.483,145.517,50.9,0.00,Hillston Airport
-33.393,-70.786,58.6,0.00,Arturo Merino Benitez Intl
-33.383,149.117,46.4,0.00,Orange Airport Comparison
-33.273,-66.356,72.2,0.00,San Luis
-33.217,-54.383,65.3,0.00,Treinta Y Tres
-33.085,-64.261,70.6,0.00,Rio Cuarto Area De Material
-33.036,27.826,65.3,1.46,East London / King Phalo
-33.01,-58.613,66.5,0.00,Gualeguaychu
-32.904,-60.785,70.1,0.00,Rosario
-32.833,17.85,71.1,0.00,Cape Columbine
-32.832,-68.793,69.9,0.00,El Plumerillo
-32.8,-56.517,66.9,0.00,Paso De Los Toros
-32.795,151.834,65.1,0.00,Williamtown
-32.79,-71.522,58.6,0.00,Quintero
-32.684,-62.158,70.2,0.00,Marcos Juarez
-32.338,-54.217,68.9,0.00,Cerro Largo
-32.217,148.575,56.3,0.00,Dubbo
-32.183,-64.383,71.2,0.00,Embalse Rio Tercero
-32.133,133.7,56.1,0.00,Ceduna Amo
-31.945,-65.146,71.7,0.00,Villa Dolores
-31.94,115.967,71.6,0.00,Perth Intl
-31.933,115.967,71.8,0.00,Perth Intl/Belmont
-31.917,115.867,73.4,0.00,Perth Metro
-31.795,-60.48,71.6,0.00,General Urquiza
-31.718,-52.328,72.9,0.00,Pelotas / Joao Simoes Lopes Neto
-31.712,-60.812,75.8,0.00,Sauce Viejo
-31.667,-63.883,69.8,0.00,Pilar Observatorio
-31.606,29.522,66.5,0.55,Port St Johns
-31.571,-68.418,67.9,0.00,San Juan
-31.542,159.079,67.7,0.00,Lord Howe Island Aero
-31.483,145.833,58.9,0.00,Cobar Mo
-31.433,-57.983,71.0,0.00,Nueva Hesperides Intl
-31.391,-54.112,76.1,0.00,Comandante Gustavo Kraemer
-31.333,-66.6,70.7,0.00,Chepes
-31.324,-64.208,67.7,0.00,Ambrosio L V Taravella
-31.297,-57.997,71.2,0.00,Comodoro Pierrestegui
-31.144,136.817,59.2,0.00,Woomera
-31.083,125.65,64.4,0.00,Balgair
-31.08,150.85,62.2,0.00,Tamworthamo/Mo.From1966
-30.975,-55.476,70.4,0.00,Presidente General Don Oscar D Gestido
-30.833,128.1,58.7,0.00,Forrest Airport
-30.789,121.462,67.4,0.00,Kalgoorlie Boulder
-30.617,130.4,57.6,0.00,Cook
-30.47,138.42,64.4,0.00,Leigh Creek Aero
-30.401,-56.508,71.9,0.00,Artigas Intl
-30.367,-66.283,73.3,0.00,Chamical Aero
-30.321,153.116,65.7,0.00,Coffs Harbour
-30.272,-57.64,74.1,0.00,Monte Caseros
-30.033,145.95,61.2,0.00,Bourke Airport Aws
-29.994,-51.171,69.5,0.00,Salgado Filho
-29.97,30.951,73.1,0.00,Durban Intl
-29.916,-71.2,63.1,0.00,La Florida
-29.9,-63.683,67.1,0.00,Villa Maria Del Rio
-29.883,-61.95,77.0,0.00,Ceres
-29.782,-57.038,77.9,0.00,Rubem Berta
-29.711,-53.688,76.6,0.00,Santa Maria
-29.689,-57.152,76.2,0.00,Paso De Los Libres
-29.65,138.067,60.4,0.00,Marree Comparison
-29.467,149.85,65.9,0.00,Moree
-29.382,-66.796,71.6,0.00,La Rioja
-29.25,-177.933,67.7,0.00,Raoul Island Kermadec Islands
-29.233,16.867,61.7,0.00,Port Nolloth
-29.183,-59.7,73.0,0.00,Reconquista Aero
-29.093,26.302,56.2,0.00,Bloemfontein Intl / Bram Fischer Intl
-29.042,167.939,67.4,0.00,Norfolk Island Intl
-28.883,121.333,69.8,0.00,Leonora
-28.803,24.765,59.5,0.00,Kimberley
-28.796,114.708,78.0,0.00,Geraldton
-28.705,121.891,55.9,0.00,Murrin Murrin
-28.596,-70.756,65.8,0.00,Vallenar
-28.596,-65.752,78.0,0.00,Catamarca
-28.567,16.533,67.1,0.00,Alexander Bay
-28.399,21.26,67.0,0.00,Upington
-28.067,145.683,59.4,0.00,Cunnamulla Post Office
-28.038,-67.58,69.8,0.00,Tinogasta
-27.766,-64.31,69.6,0.00,Santiago Del Estero
-27.67,-48.547,71.2,0.00,Hercilio Luz
-27.617,-144.333,71.9,0.00,Rapa
-27.55,135.45,63.0,0.00,Oodnadatta Airport
-27.45,-59.056,71.8,0.00,Resistencia
-27.446,-58.762,76.2,0.00,Corrientes
-27.417,153.067,68.3,0.00,Brisbane Airport
-27.411,151.735,63.4,0.00,Oakey
-27.386,-55.971,75.4,0.00,Posadas
-27.383,153.117,67.3,0.00,Brisbane Intl Arpt
-27.317,-55.833,75.2,0.00,Encarnacion
-27.296,-70.414,68.0,0.00,Chamonate
-27.165,-109.422,74.8,0.00,Mataveri Intl
-26.85,-58.317,80.6,0.00,Pilar
-26.833,-65.2,71.3,0.00,Tucuman/Teniente Be
-26.757,-60.493,73.6,0.00,Presidencia Roque Saenz Pena / Termal
-26.683,15.25,61.3,0.08,Luderitz (Diaz Point)
-26.614,118.537,76.9,0.00,Meekatharra Airport
-26.55,148.783,69.5,0.00,Roma Airport
-26.54,18.111,68.3,0.00,Keetmanshoop
-26.413,146.263,68.5,0.00,Charleville
-26.213,-58.228,75.0,0.00,Formosa
-26.139,28.246,61.4,0.00,Johannesburg Intl
-26.05,22.45,77.9,0.00,Tsabong
-25.921,32.573,74.3,0.20,Maputo
-25.89,28.171,65.3,0.00,Pretoria(Met)
-25.767,-56.433,75.8,0.00,Villarrica
-25.737,-54.473,74.0,0.00,Cataratas Del Iguazu
-25.55,45.533,77.9,0.00,Faux-Cap
-25.533,-54.6,77.9,0.00,Ciudad Del Este
-25.517,-48.517,69.8,0.00,Paranagua
-25.417,142.65,76.7,0.02,Windorah Post Office
-25.24,-57.519,75.6,0.00,Silvio Pettirossi Intl
-25.038,46.956,76.3,0.00,Tolagnaro
-25.033,128.3,65.8,0.00,Giles Meteorological Office
-24.888,113.67,71.6,0.00,Carnarvon Airport
-24.856,-65.486,62.6,0.63,Salta
-24.393,-65.098,65.4,0.51,Jujuy
-24.117,152.717,75.2,0.00,Lady Elliot Island
-24.017,21.883,72.9,0.00,Tshane
-23.925,-46.288,73.0,0.00,Base Aerea De Santos
-23.867,29.45,69.4,0.00,Polokwane
-23.867,35.383,79.4,0.00,Inhambane
-23.85,151.267,72.8,0.00,Gladstone Radar
-23.8,133.917,59.9,0.00,Alice Springs Arpt
-23.633,-55.833,74.8,0.00,Pedro Juan Caballero
-23.627,-46.655,65.5,0.00,Congonhas Deputado Freitas Nobre
-23.567,148.183,74.0,0.00,Emerald Airport
-23.444,-70.445,64.6,0.00,Cerro Moreno Intl / Andres Sabella Intl
-23.442,-57.427,76.4,0.00,Teniente Col Carmelo Peralta
-23.43,144.28,69.5,0.00,Longreachamo.
-23.417,119.8,74.3,0.00,Newman Aero
-23.383,43.728,80.2,0.00,Toliara
-23.382,150.475,71.6,0.00,Rockhampton
-23.365,-149.524,76.3,0.00,Tubuai Mataura
-23.334,-51.13,73.0,0.00,Londrina / Governador Jose Richa
-23.25,155.533,74.8,0.00,Cato Island
-23.2,131.917,68.9,0.00,Papunya
-23.153,-64.329,72.1,0.00,Oran
-23.133,-134.967,74.9,0.00,Mangareva
-23.05,-56.983,76.6,0.00,Paso Barreto
-23.007,-47.135,70.6,0.00,Viracopos
-22.922,-42.074,67.6,0.00,Cabo Frio
-22.883,14.433,61.6,0.00,Walvis Bay (Pelican Point)
-22.809,-43.244,73.2,0.00,Galeao Antonio Carlos Jobim
-22.805,47.821,75.6,0.00,Farafangana
-22.62,-63.794,79.4,0.00,General Enrique Mosconi Tartagal
-22.55,45.4,73.4,0.00,Ranohira
-22.48,17.471,61.3,0.00,Hosea Kutako Intl
-22.345,-49.054,70.2,0.00,Bauru
-22.333,40.333,80.2,0.00,Ile Europa
-22.283,-57.933,79.2,0.00,Puerto Casado
-22.267,166.45,71.8,0.00,Noumea
-22.25,118.333,79.0,0.00,Wittenoom
-22.236,114.089,72.5,0.04,Learmonth
-22.175,-51.425,70.5,0.00,Presidente Prudente
-22.151,-65.578,54.7,0.00,La Quiaca / Dr Guillermo Eugenio Snopek
-22.045,-60.622,77.4,0.00,Dr Luis Maria Argana Intl
-22.015,166.213,68.9,0.00,Noumea La Tontouta
-21.985,-47.335,71.2,0.00,Campo Fontenelle
-21.961,-63.652,77.0,0.00,Yacuiba
-21.817,-138.8,76.5,0.00,Muroroa Atoll (Mil)
-21.754,43.376,77.0,0.00,Morombe
-21.667,150.267,73.0,0.00,Middle Percy Island
-21.633,115.117,75.7,0.00,Onslow
-21.556,-64.701,68.0,0.00,Capitan Av Oriel Lea Plaza Intl
-21.203,-159.806,78.6,0.55,Rarotonga Intl
-21.159,27.468,74.1,0.00,P.G. Matante International Airport
-21.133,-175.183,76.3,0.08,Nukualofa
-21.117,149.217,72.0,0.00,Mackay Mo
-20.933,165.317,73.0,0.00,Poindimie (Nlle-Caledonie)
-20.887,55.51,80.2,0.00,St Denis Gillot / La Reunion Roland Garros
-20.775,167.24,74.5,0.00,Lifou Ouanaham
-20.667,-178.717,76.4,0.00,Ono-I-Lau Aws
-20.664,139.489,76.5,0.00,Mount Isa
-20.546,164.256,74.3,0.00,Koumac
-20.533,-70.183,67.0,0.00,Iquique
-20.469,-54.673,74.5,0.00,Campo Grande
-20.43,57.684,74.3,0.59,Sir Seewoosagur Ramgoolam Intl
-20.378,118.626,83.0,0.00,Port Hedland Intl
-20.285,44.318,78.4,1.89,Morondava
-20.233,169.767,76.7,0.00,Aneityum
-20.133,-157.35,82.4,0.00,Mauke Island
-20.02,148.21,75.2,0.00,Bowen Airport Aws
-19.973,23.431,74.3,0.00,Maun
-19.817,47.067,62.6,0.00,Antsirabe
-19.777,-174.341,77.0,0.00,Haapai
-19.758,63.361,80.9,0.20,Plaine Corail
-19.75,-47.917,73.4,0.00,Uberaba
-19.633,134.183,74.9,0.00,Tennant Creek Airport
-19.602,18.123,67.0,0.00,Grootfontein
-19.455,169.224,74.4,0.00,Tanna
-19.253,146.765,76.4,0.00,Townsville
-19.25,146.767,76.1,0.00,Townsville(Civ/Mil)
-19.133,179.75,76.1,0.07,Matuku Aws
-19.083,152.383,77.6,0.00,Marion Reef
-19.067,-169.917,77.6,0.00,Alofi
-19.05,178.167,77.3,0.08,Vunisea
-19.033,47.167,61.9,0.00,Arivonimamo
-18.831,-159.764,82.4,0.04,Aitutaki
-18.797,47.479,64.0,0.00,Ivato
-18.717,125.967,84.7,0.00,Fitzroy Crossing Ca
-18.65,-173.983,79.7,0.00,Vavau
-18.349,-70.339,70.2,0.00,Chacalluta
-18.317,-59.75,81.0,0.00,Robore (Civ/Mil)
-18.3,143.55,76.8,0.00,Georgetown Post Office
-18.233,-178.8,76.1,0.08,Lakemba Island
-18.233,127.667,78.4,0.00,Halls Creek Airport
-18.11,49.393,76.6,0.02,Toamasina
-18.075,-140.946,80.9,0.00,Hao
-18.067,-163.183,84.2,0.00,Palmerston *
-18.053,-70.276,67.1,0.00,Coronel Carlos Ciriani Santa Rosa Intl
-18.05,44.033,79.2,0.00,Maintirano
-18.043,178.559,76.4,0.48,Nausori Intl
-17.963,-67.076,56.3,0.00,Juan Mendoza
-17.956,19.719,71.6,0.00,Rundu
-17.945,122.232,85.6,0.00,Broome Intl
-17.812,-63.171,77.6,0.00,El Trompillo
-17.755,177.443,79.4,0.00,Nadi Intl
-17.75,168.3,77.0,0.00,Port Vila/Bauerfld
-17.717,148.45,78.4,0.00,Flinders Reef
-17.667,141.083,80.1,0.00,Normanton
-17.652,-39.253,76.7,0.01,Caravelas
-17.583,-69.45,49.0,0.00,Charana
-17.554,-149.607,78.3,0.00,Tahiti Faa A
-17.421,-66.177,66.8,0.00,Jorge Wilstermann Intl
-17.37,123.67,87.1,0.00,Derby Airport
-17.117,152.0,79.1,0.00,Lihou Reef
-17.05,42.717,84.6,0.04,Ile Juan De Nova
-17.0,178.7,76.7,0.00,Nabouwalu
-16.886,145.755,77.9,0.00,Cairns Intl
-16.883,145.767,77.7,0.00,Cairns Airport
-16.767,-153.95,84.6,0.00,Mopelia
-16.707,-43.819,74.0,0.00,Mario Ribeiro
-16.7,177.583,79.1,0.04,Yasawa
-16.632,-49.221,74.1,0.00,Santa Genoveva
-16.513,-68.192,45.5,0.02,El Alto Intl
-16.45,59.617,81.1,0.00,St. Brandon (St. Raphael)
-16.444,-151.751,82.7,0.00,Bora Bora Motu Mute
-16.417,167.8,78.8,0.00,Lamap/Malekoula Isl
-16.401,-61.045,80.2,0.00,San Ignacio De Velasco Airport
-16.341,-71.583,56.0,0.00,Rodriguez Ballon
-16.288,149.965,81.0,0.00,Willis Island
-16.27,133.38,79.4,0.00,Dalywaters Police Station
-16.25,-62.1,82.0,0.00,Concepcion
-16.133,-179.983,77.7,0.35,Udu Point Aws
-15.883,54.517,82.8,0.00,Serge-Frolow (Ile Tromelin)
-15.863,-47.913,69.4,0.00,Presidente Juscelino Kubitschek
-15.75,136.8,80.5,0.00,Centre Island
-15.653,-56.117,85.1,0.00,Marechal Rondon
-15.567,-175.617,79.7,0.00,Niuafoou
-15.501,167.223,79.4,0.20,Santo Pekoa Intl
-15.483,128.117,86.7,0.00,Wyndham
-15.467,-70.158,51.4,0.16,Juliaca / Inca Manco Capac Intl
-15.433,145.183,77.7,0.00,Cooktown Mission
-15.383,-75.167,71.0,0.00,San Juan De Marcona
-15.355,-38.999,78.3,0.12,Hotel Transamerica / Comandatuba
-14.999,50.32,77.7,0.08,Antsirabato
-14.967,-65.633,80.6,0.00,San Ignacio De Moxo
-14.867,-66.75,78.4,0.00,San Borja/Capt Germ
-14.819,-64.918,80.9,0.35,Tte Av Jorge Henrich Arauz
-14.8,-39.067,77.3,0.00,Ilheus
-14.483,-145.033,84.2,0.00,Takaroa
-14.483,-67.483,79.1,0.00,Rurrenabaque
-14.467,132.267,82.0,0.00,Katherine Country Club
-14.331,-170.714,79.6,0.08,Tafuna/Pago Pago International Ap
-14.3,-67.367,79.7,0.55,Reyes
-14.279,50.175,79.2,0.00,Sambava
-14.233,129.45,84.7,0.00,Port Keats Aws Aut
-14.117,123.533,85.1,0.00,Browse Island Aws
-13.85,167.55,78.3,0.43,Sola/Vanua Lava Isl
-13.8,-171.783,80.9,0.00,Apia/Upolu Island
-13.75,143.117,80.2,0.00,Coen Airport
-13.745,-76.22,71.4,0.00,Pisco Intl
-13.7,-73.35,52.2,0.00,Andahuaylas
-13.65,136.933,82.8,0.00,North East Island
-13.536,-71.939,53.5,0.00,Teniente Alejandro Velasco Astete Intl
-13.267,-70.667,76.6,0.04,Quincemil
-13.267,-43.417,73.5,0.00,Bom Jesus Da Lapa Aeroporto
-13.155,-74.204,60.6,0.00,Coronel Fap Alfredo Mendivil Duarte
-13.133,39.033,75.7,0.00,Montepuez
-12.911,-38.331,81.5,0.00,Deputado Luis Eduardo Magalhaes
-12.805,45.281,84.9,0.00,Dzaoudzi Pamandzi
-12.783,143.3,79.5,0.00,Lockhart River Airport
-12.617,131.05,83.9,0.00,Noonamah Airstrip
-12.614,-69.229,81.4,0.43,Padre Aldamiz
-12.5,177.05,81.3,0.08,Rotuma Island
-12.415,130.877,83.3,0.00,Darwin Intl
-12.349,49.292,78.8,0.00,Arrachart
-12.132,44.43,80.6,0.00,Ouani
-12.033,135.567,82.2,0.00,Elcho Island
-12.022,-77.114,69.9,0.00,Jorge Chavez Intl
-12.0,-53.4,81.5,0.00,Rio Xingu
-11.7,43.233,80.3,0.04,Moroni Airport (Grande-Comore)
-11.583,47.283,81.9,0.31,Iles Glorieuses
-11.04,-68.783,80.9,0.00,Heroes Del Acre / Cap Av Civ Anibal Arab Fadul Intl
-11.017,-66.117,79.7,0.00,Riberalta / Cap Av Selin Zeitun Lopez
-10.951,142.459,67.0,0.00,Bamaga Injinoo
-10.917,-37.05,82.7,0.00,Aracaju
-10.817,-65.35,82.0,0.00,Guayaramerin
-10.567,142.217,78.9,0.00,Thursday Island
-10.433,56.6,82.4,0.28,Agalega
-10.339,40.182,81.5,0.04,Mtwara
-10.172,123.671,80.6,0.00,El Tari
-10.05,-161.1,85.6,0.00,Rakahanga Atoll
-9.879,-76.205,70.5,0.12,Alferez Fap D F Fernandini
-9.8,-139.033,81.1,0.00,Hiva-Oa
-9.511,-35.792,80.0,0.00,Zumbi Dos Palmares
-9.433,147.217,79.2,0.04,Port Moresby W.O.
-9.35,46.533,81.5,0.00,Aldabra
-9.347,-77.598,66.2,0.00,Comandante Fap German Arias Graziani
-9.2,-171.917,83.1,0.00,Nukunono
-9.15,-78.524,71.2,0.00,Teniente Jaime A De Montreuil Morales
-9.133,-75.95,78.9,1.50,Tingo Maria
-9.017,-158.067,81.1,0.28,Penrhyn Island
-8.933,33.467,64.0,0.00,Mbeya
-8.749,115.167,82.1,0.00,Denpasar Ngurah Rai
-8.517,179.217,82.4,0.80,Funafuti Intl Arpt
-8.489,117.412,79.5,0.00,Sumbawa Besar
-8.378,-74.574,79.0,0.00,Cap Fap David Abensur Rengifo Intl
-8.348,-49.302,81.3,0.00,Conceicao Do Araguaia
-8.126,-34.924,81.9,0.00,Guararapes Gilberto Freyre Intl
-8.081,-79.109,70.5,0.00,Capitan Fap Carlos Martinez De Pinillos
-7.97,-14.394,83.0,0.00,Ascension Aux Af
-7.733,109.017,81.4,0.00,Cilacap
-7.38,112.787,82.8,0.00,Surabaya Juanda
-7.3,72.4,84.8,0.00,Diego Garcia Naval Air Station
-7.27,-35.896,78.8,0.00,Presidente Joao Suassuna
-7.217,112.717,81.9,0.00,Surabaya/Perak
-7.169,-76.729,82.4,0.00,Juanjui
-7.139,-78.489,62.2,0.00,Gen Fap Armando Revoredo Iglesias
-7.1,-34.867,82.1,0.20,Joao Pessoa
-6.983,110.383,83.4,0.00,Jenderal Ahmad Yani
-6.787,-79.828,74.4,0.00,Cap Fap Jose A Quinones Gonzales Intl
-6.733,147.0,79.9,0.02,Lae
-6.509,-76.373,80.0,0.00,Cadete Guillermo Del Castillo Paredes
-6.267,106.891,81.7,0.00,Halim Perdanakusuma Intl
-6.202,-77.856,59.4,0.24,Chachapoyas
-6.15,106.85,82.7,0.24,Jakarta/Kemayoran
-6.1,106.867,84.2,0.00,Jakarta/Tanjung Priok
-6.033,-76.967,74.7,0.00,Moyobamba
-5.911,-35.248,80.3,0.00,Campo Augusto Severo
-5.894,-76.118,78.4,0.31,Moises Benzaquen Rengifo / Yurimaguas
-5.85,112.633,82.8,0.00,Sangkapura (Bawean Is.)
-5.811,-61.278,78.8,0.08,Manicore
-5.667,176.133,80.2,3.15,Nanumea Island
-5.369,-49.138,77.0,0.12,Maraba / Joao Correa Da Rocha
-5.257,39.811,80.2,1.77,Pemba
-5.242,105.179,79.7,0.00,Radin Inten Ii
-5.217,145.8,80.2,0.04,Madang W.O.
-5.206,-80.616,81.7,0.00,Capitan Fap Guillermo Concha Iberico
-5.202,-37.364,82.4,0.00,Dix Sept Rosado
-5.092,39.071,80.6,0.08,Tanga
-5.083,32.833,70.7,0.00,Tabora Airport
-5.062,119.554,80.6,0.00,Sultan Hasanuddin Intl
-5.06,-42.823,82.0,0.28,Senador Petronio Portella
-4.816,11.887,81.3,0.00,Pointe Noire / Antonio Agostinho Neto
-4.674,55.522,80.6,0.12,Seychelles Intl
-4.577,-81.254,77.1,0.00,Capitan Fap Victor Montes Intl
-4.386,15.445,80.2,0.00,Ndjili Intl
-4.383,-79.933,78.5,0.00,Macara/J.M.Velascoi
-4.252,15.253,82.4,0.00,Maya Maya
-4.2,12.7,80.4,0.00,Dolisie
-4.2,152.183,77.7,0.94,Rabaul
-4.193,-69.943,81.2,0.28,Alfredo Vasquez Cobo
-4.0,-79.367,76.8,0.00,Loja/Camilo Ponce
-3.983,13.917,79.4,0.00,Mouyondzi
-3.864,102.339,77.9,0.00,Fatmawati Soekarno
-3.855,-32.423,79.1,0.01,Fernando De Noronha
-3.785,-73.309,77.9,0.00,Coronel Francisco Secada Vignetta Intl
-3.776,-38.533,80.9,0.28,Pinto Martins Intl
-3.71,128.089,81.7,0.00,Pattimura
-3.683,13.35,77.0,0.00,Sibiti
-3.553,-80.381,80.2,0.00,Cap Fap Pedro Canga Rodriguez
-3.483,12.617,83.0,0.00,Makabana
-3.442,114.763,82.8,0.00,Syamsudin Noor
-3.429,37.074,71.6,0.71,Kilimanjaro Intl
-3.417,10.65,81.5,0.00,Mayumba
-3.35,37.333,71.9,1.42,Moshi
-3.324,29.319,79.2,0.00,Bujumbura Intl
-3.229,40.102,77.0,0.00,Malindi
-3.146,-59.986,78.9,0.00,Campo Ponta Pelada
-2.898,104.701,80.3,0.00,Sultan Mahmud Badaruddin Ii
-2.894,-41.732,82.8,0.00,Parnaiba Prefeito Dr Joao Silva Filho
-2.883,-78.967,61.0,0.00,Cuenca/Mariscal La.
-2.85,11.017,80.6,0.00,Tchibanga
-2.746,107.755,79.4,0.00,H As Hanandjoeddin
-2.667,176.833,82.9,0.28,Arorae Island
-2.617,16.217,80.6,0.00,M'Pouya
-2.55,-78.933,80.2,0.00,Canar
-2.533,14.767,75.2,0.00,Djambala
-2.422,-54.793,78.0,0.00,Santarem / Maestro Wilson Fonseca
-2.252,40.913,80.6,0.04,Lamu Manda
-2.17,106.13,82.4,0.00,Pangkalpinang / Depati Amir
-2.15,-79.883,79.9,0.00,Guayaquil/Simon Bol
-2.083,126.0,82.0,0.00,Sanana / Namniwel
-1.845,11.057,82.4,0.00,Mouilla Ville / Raphael Boubala
-1.638,103.644,80.9,0.00,Sultan Thaha
-1.533,13.267,79.5,0.00,Moanda Bangombe
-1.379,-48.476,77.7,0.00,Val De Cans Julio Cezar Ribeiro Intl
-1.319,36.928,65.7,1.85,Jkia / Nairobi Jomo Kenyatta Intl
-1.268,116.894,81.2,0.00,Sultan Aji Muhammad Sulaiman Sepinggan
-1.19,136.108,83.8,0.00,Frans Kaisiepo
-1.033,-80.467,77.9,0.00,Portoviejo/Reales
-0.95,-80.7,79.8,0.00,Manta/Eloy Alfaro
-0.9,-78.6,79.2,0.00,San Juan La Mana
-0.833,12.717,77.4,0.00,Lastoursville
-0.712,8.754,84.9,0.00,Port Gentil
-0.683,119.733,81.5,0.00,Palu/Mutiara
-0.479,104.579,80.2,0.00,Dabo
-0.464,39.648,85.7,0.00,Garissa
-0.35,102.333,78.3,0.00,Rengat/Japura Arpt
-0.267,36.1,65.6,0.00,Nakuru
-0.151,109.404,80.6,0.35,Supadio
-0.086,34.729,74.9,0.00,Kisumu
-0.017,15.65,80.3,0.00,Makoua
0.042,32.444,71.3,0.71,Entebbe Intl
0.051,-51.072,80.2,0.00,Macapa / Alberto Alcolumbre
0.1,-76.883,78.4,0.00,Lago Agrio
0.217,-78.25,80.2,0.00,Otavalo
0.25,-78.733,57.2,0.91,Inguincho
0.317,32.617,72.1,0.28,Kampala
0.378,6.712,82.0,0.00,Sao Tome Intl
0.45,33.183,68.9,1.10,Jinja
0.459,9.412,84.2,0.00,Leon M Ba
0.461,101.445,81.0,0.00,Sultan Syarif Kasim Ii
0.483,35.3,63.0,0.00,Eldoret
0.579,12.891,78.8,0.00,Makokou
0.637,122.85,79.3,0.00,Jalaluddin / Djalaluddin
0.783,11.533,78.4,0.00,Mitzic
0.831,127.381,82.8,0.00,Babullah
0.923,104.532,83.0,0.00,Kijang
0.967,-79.617,81.1,0.04,Esmeraldas Aeropuerto (Tachina)
0.972,34.959,64.7,0.12,Kitale
1.254,-70.234,83.8,0.00,Fabio Alberto Leon Bentley
1.36,103.91,83.0,0.00,Paya Lebar
1.382,173.147,84.6,0.00,Bonriki Intl
1.393,-77.291,68.5,0.00,Antonio Narino
1.485,110.347,79.7,0.00,Kuching Intl
1.549,124.926,81.5,0.00,Sam Ratulangi
1.556,98.889,79.5,0.43,Pinang Sore / Dr Ferdinand Lumbantobing
1.616,16.038,77.4,0.00,Ouesso
1.617,18.067,82.4,0.00,Impfondo
1.817,-78.75,82.4,0.00,Tumaco/La Florida
1.85,-78.767,84.7,0.00,Tumaco *
2.076,11.493,80.3,0.00,Bitam
2.262,111.985,79.8,0.00,Sibu
2.263,102.252,82.2,0.00,Malacca
2.3,37.9,71.6,0.00,Marsabit
2.454,-76.609,68.7,0.00,Guillermo Leon Valencia
2.806,32.272,79.2,0.35,Gulu
2.846,-60.69,85.1,0.00,Boa Vista / Atlas Brasil Cantanhede
2.95,-75.294,81.7,0.08,Benito Salas
2.95,9.9,82.1,0.00,Kribi
3.124,113.02,82.6,0.00,Bintulu
3.131,101.549,82.4,0.00,Sultan Abdul Aziz Shah Intl
3.2,106.25,83.1,0.00,Tarempa
3.333,117.567,81.7,0.00,Tarakan/Juwata
3.543,-76.382,75.9,0.00,Alfonso Bonilla Aragon Intl
3.558,98.672,79.6,0.00,Polonia / Kualanamu Intl
3.723,11.553,77.8,4.72,Yaounde Nsimalen
3.775,103.209,76.4,0.00,Kuantan
3.82,-76.99,81.7,0.00,Gerardo Tobar Lopez
3.933,41.867,87.4,0.00,Mandera
4.006,9.719,81.5,0.00,Douala
4.089,9.361,80.3,0.01,Tiko
4.167,73.5,84.5,0.00,Male Island
4.168,-73.614,77.9,0.00,Vanguardia
4.217,100.7,83.6,0.00,Sitiawan
4.222,15.786,80.1,0.00,Berberati
4.283,-74.8,79.9,0.00,Girardot/Santiago Villa
4.322,113.987,80.9,0.00,Miri
4.398,18.519,79.5,0.00,Bangui M Poko
4.417,-7.367,77.3,1.77,Tabou
4.422,-75.133,77.0,0.00,Perales
4.453,-75.766,78.4,0.04,El Eden
4.517,-75.517,50.0,0.00,El Paso/La Linea
4.702,-74.147,57.3,0.00,El Dorado Intl
4.733,11.25,80.2,0.00,Bafia
4.733,22.833,80.6,0.00,Bangassou
4.813,-75.74,75.9,0.00,Matecana
4.82,-52.36,78.7,3.54,Rochambeau / Cayenne Felix Eboue
4.95,-6.083,78.4,0.47,Sassandra/Drewin
4.95,9.933,74.9,0.39,Nkongsamba
5.03,-75.465,63.3,0.02,La Nubia
5.05,21.2,77.3,0.00,Alindao
5.261,-3.926,80.6,0.00,Abidjan Felix Houphouet Boigny Intl
5.267,17.633,81.7,0.00,Bossembele
5.297,100.277,81.7,0.00,Penang Intl
5.3,-3.3,81.0,1.02,Adiake
5.4,26.5,81.3,0.00,Obo
5.453,-55.188,82.4,0.00,Johan A Pengel Intl
5.524,95.42,80.3,0.00,Sultan Iskandar Muda
5.605,-0.167,81.5,0.00,Kotoka Intl
5.62,-67.606,82.8,0.00,Cacique Aramare
5.637,10.751,76.1,0.47,Foumban Nkounja
5.691,-76.641,86.0,0.00,El Carano
5.717,9.283,77.7,0.94,Mamfe
5.85,20.65,79.3,0.00,Bambari
5.901,118.059,80.2,0.00,Sandakan
5.937,116.051,83.3,0.00,Kota Kinabalu Intl
5.967,15.633,75.7,0.00,Bouar
6.083,171.733,82.0,0.00,Mili Atoll  Marshall Is.
6.117,81.133,82.4,0.00,Hambantota
6.133,-5.95,74.9,0.39,Gagnoa
6.166,1.255,82.4,0.08,Gnassingbe Eyadema Intl
6.167,102.293,82.2,0.00,Sultan Ismail Petra
6.2,-2.333,78.1,0.00,Sefwi Bekwai
6.22,-75.591,69.5,0.28,Olaya Herrera
6.357,2.384,83.2,0.00,Card Bernardin Gadin De Cadjehoun Intl
6.483,17.433,89.6,0.00,Bossangoa
6.5,-58.25,79.5,0.00,Georgetown
6.5,23.267,73.7,0.94,Yalinga
6.52,101.743,83.2,0.00,Narathiwat
6.533,21.983,75.2,0.00,Bria
6.583,1.5,83.8,0.00,Tabligbo
6.65,-4.7,79.5,0.12,Dimbokro City
6.783,11.817,76.4,0.39,Banyo
6.785,101.154,85.7,0.00,Pattani
6.822,79.886,81.9,0.00,Colombo Ratmalana
6.922,122.06,82.1,0.00,Zamboanga Intl
6.933,100.393,83.3,0.00,Hat Yai Intl
6.967,80.767,59.0,0.00,Nuwara Eliya
7.01,-74.715,77.7,0.24,Otu Remedios
7.024,-73.807,81.2,0.00,Yariguies
7.069,-70.737,83.3,0.00,Santiago Perez
7.126,125.646,82.4,0.31,Francisco Bangoy Intl
7.127,-73.185,71.2,0.04,Palonegro
7.167,2.067,83.7,0.04,Bohicon
7.181,79.866,82.4,0.00,Bandaranaike Intl Colombo
7.187,100.608,84.6,0.00,Songkhla
7.211,-70.756,81.0,0.00,Guasdualito
7.249,-61.529,79.9,0.02,Tumeremo
7.272,-7.587,80.1,0.35,Man
7.333,134.483,80.5,0.00,Babelthuap/Koror Air
7.357,13.559,75.7,0.12,Ngaoundere
7.467,151.85,82.2,0.18,Chuuk International Airport
7.509,99.617,88.7,0.00,Trang
7.533,-12.5,86.5,0.00,Bonthe
7.583,1.117,81.0,0.00,Atakpame/Akpaka
7.666,36.817,64.4,0.00,Jimma Aba Jifar
7.706,81.679,83.9,0.00,Batticaloa
7.739,-5.074,76.1,0.16,Bouake
7.841,-72.44,79.6,0.00,San Antonio Del Tachira / General Cipriano Castro Intl
7.883,-67.444,85.5,0.00,San Fernando De Apure / Las Flecheras
7.883,98.4,86.4,0.00,Phuket
7.928,-72.512,82.0,0.00,Camilo Daza
8.033,2.467,84.5,0.00,Save
8.033,79.833,81.3,0.00,Puttalam
8.05,-2.783,80.2,0.00,Bondoukou/Soko
8.113,98.317,84.7,0.00,Phuket Intl
8.3,73.15,87.8,0.00,Minicoy
8.367,126.333,80.9,0.00,Hinatuan
8.391,-82.435,84.4,0.00,Enrique Malek Intl
8.4,20.65,84.2,0.00,N'Dele
8.471,99.956,84.2,0.00,Cha Ian
8.483,76.95,81.2,0.55,Thiruvananthapuram
8.539,81.182,84.7,0.00,China Bay
8.582,-71.161,67.6,0.00,Alberto Carnevalli
8.601,123.334,82.4,0.00,Dipolog
8.616,-13.195,84.2,0.00,Freetown Lungi
8.624,16.071,92.3,0.00,Moundou
8.683,106.6,84.8,0.00,Con Son
8.733,39.0,66.2,0.00,Harar Meda (Mil)
8.733,167.733,80.5,7.32,Bucholz Aaf Kwajalein Kmr Atol Ap
8.824,-75.826,86.4,0.00,Los Garzones
8.917,-79.6,82.8,0.00,Howard
8.983,1.15,83.1,0.00,Sokode
8.983,79.917,82.8,0.00,Mannar
9.027,-69.755,83.0,0.00,Guanare
9.067,-73.983,86.5,0.00,El Banco/Las Flores
9.071,-79.383,81.7,0.00,Tocumen Intl
9.133,99.136,85.4,0.00,Surat Thani
9.15,18.383,91.4,0.00,Sarh (Civ/Mil)
9.183,105.15,83.5,0.00,Ca Mau
9.285,-74.846,86.9,0.00,Baracoa
9.333,-75.283,85.1,0.00,Corozal/Las Brujas
9.334,123.3,85.1,0.00,Dumaguete
9.336,13.37,95.6,0.00,Garoua
9.35,2.617,84.7,0.00,Parakou
9.367,14.917,93.9,0.00,Pala
9.387,-5.557,85.1,0.01,Korhogo
9.467,100.05,85.3,0.00,Ko Samui
9.483,138.083,81.1,0.01,Yap International Airport
9.5,-7.567,85.1,0.00,Odienne
9.553,-69.238,83.1,0.00,Oswaldo Guevara Mujica / Batalla De Araure
9.577,-13.612,82.4,0.00,Conakry / Ahmed Sekou Toure Intl
9.6,105.967,86.0,0.00,Ba-Xuyen/Soc Trang
9.625,41.854,80.6,0.00,Dire Dawa Intl
9.664,123.853,87.3,0.00,Tagbilaran
9.742,118.759,86.7,0.00,Puerto Princesa
9.749,-63.153,78.0,0.00,Maturin / Jose Tadeo Monagas Intl
9.778,98.585,86.0,0.00,Ranong
9.8,80.067,83.7,0.00,Kankasanturai
9.817,-70.933,86.9,0.00,Mene Grande
9.946,76.272,84.2,0.12,Cochin
9.95,-84.133,76.0,0.00,Tobias Bolanos Intl
9.958,-83.022,81.0,0.00,Limon Intl
9.967,-84.833,85.8,0.00,Puntarenas
9.994,-84.209,73.4,0.00,Juan Santamaria Intl
10.0,105.083,83.9,0.00,Rach Gia
10.033,139.8,82.9,0.35,Falalop Island (Cg)  Ulithi Atoll
10.043,-69.359,74.3,0.00,Barquisimeto Intl
10.107,-64.689,79.5,0.00,General Jose Antonio Anzoategui Intl
10.15,-85.45,87.8,0.00,Nicoya / Miguel Angel Castillo Zumbado
10.217,103.967,85.6,0.00,Phu Quoc
10.25,-67.649,79.6,0.00,Mariscal Sucre
10.283,22.783,85.3,0.00,Birao
10.308,123.979,84.8,0.00,Mactan Cebu Intl
10.317,1.383,89.9,0.00,Natitingou
10.333,-3.183,89.9,0.00,Gaoua
10.333,107.083,83.8,0.00,Vungtau/Phare
10.367,0.467,91.1,0.00,Mango/Sansanne
10.383,114.367,82.4,0.00,Nansha Dao
10.435,-73.25,88.9,0.00,Alfonso Lopez Pumarejo
10.442,-75.513,82.4,0.00,Rafael Nunez
10.451,14.257,90.7,0.00,Salak
10.485,-66.844,67.6,0.00,Generalisimo Francisco De Miranda Ab
10.558,-71.728,81.9,0.00,La Chinita Intl
10.574,-62.313,80.4,0.00,Guiria / Almirante Cristobal Colon
10.595,-61.337,79.0,0.04,Piarco
10.603,-66.991,78.4,0.00,Simon Bolivar Intl
10.711,99.362,82.0,0.08,Chumphon
10.713,122.541,86.0,0.31,Iloilo
10.765,78.71,81.2,0.00,Tiruchirappalli
10.819,106.652,86.0,0.00,Tan Son Nhat Intl
10.89,-74.781,83.7,0.00,Ernesto Cortissoz
10.917,-63.967,78.8,0.00,Porlamar (Aeropuerto Int Del Caribe)
10.933,108.1,83.8,0.00,Phan Thiet
11.031,77.044,79.9,0.43,Coimbatore
11.033,20.283,94.1,0.00,Am-Timan
11.036,125.742,82.4,0.02,Guiuan
11.12,-74.231,84.2,0.00,Simon Bolivar
11.133,2.933,90.9,0.00,Kandi
11.16,-4.331,88.4,0.00,Bobo Dioulasso
11.228,125.028,83.0,0.00,Daniel Z Romualdez
11.25,75.783,80.6,0.02,Kozhikode
11.326,-12.287,79.2,0.00,Labe
11.35,-5.683,88.4,0.00,Sikasso
11.35,162.35,81.5,0.04,Enewetak  Marshall Is
11.415,-69.681,79.2,0.00,Jose Leonardo Chirinos
11.417,-85.833,81.7,0.31,Rivas
11.417,-7.5,90.2,0.00,Bougouni
11.467,107.8,75.2,0.00,Bao-Loc (Blao)
11.526,-72.926,82.0,0.00,Almirante Padilla
11.598,122.752,85.1,0.00,Roxas
11.667,92.717,85.3,0.00,Port Blair
11.75,-2.933,90.5,0.04,Boromo
11.767,79.767,81.6,0.00,Cuddalore
11.767,102.883,86.9,0.00,Khlong Yai
11.783,124.883,83.9,0.00,Catbalogan
11.788,99.805,83.2,0.00,Prachuap
11.883,3.45,96.5,0.00,Gaya
11.895,-15.654,85.1,0.00,Bissau Oswaldo Vieira Intl
11.991,-83.774,79.4,0.00,Bluefields
12.0,-95.0,39.6,0.00,Moored Buoy 43011
12.033,0.367,92.9,0.00,Fada N'Gourma
12.134,15.034,92.0,0.00,Ndjamena Hassan Djamous
12.141,-86.168,81.0,0.00,Managua Intl / Augusto Cesar Sandino Intl
12.15,-61.617,78.4,0.00,Pearls Airport
12.183,18.683,95.9,0.00,Mongo
12.189,-68.96,81.4,0.00,Hato
12.25,109.2,81.9,0.00,Nha Trang
12.353,-1.512,91.1,0.00,Ouagadougou
12.369,123.629,83.9,0.00,Masbate
12.383,-5.467,89.6,0.00,Koutiala
12.383,17.05,96.8,0.00,Bokoro
12.501,-70.015,83.3,0.08,Reina Beatrix Intl
12.534,-7.95,89.3,0.00,Senou / President Modibo Keita
12.556,-16.282,86.0,0.00,Ziguinchor
12.584,-81.711,80.9,0.12,Gustavo Rojas Pinilla
12.6,102.117,85.7,0.00,Chanthaburi
12.633,-87.133,87.8,0.00,Chinandega
12.636,99.952,84.5,0.00,Hua Hin
12.683,100.983,85.2,0.00,Sattahip
12.683,101.0,86.4,0.00,U-Taphao Intl(Navy)
12.883,-14.967,92.5,0.00,Kolda
12.961,74.89,84.9,0.00,Mangalore
12.967,77.583,74.4,0.00,Bangalore
12.994,80.181,83.5,0.00,Chennai Intl
13.067,-9.467,91.1,0.00,Kita
13.075,-59.492,78.9,0.08,Grantley Adams Intl
13.157,123.746,81.5,0.00,Legazpi
13.167,100.8,86.0,0.00,Ko Sichang
13.217,18.317,91.1,0.00,Ati
13.233,11.983,87.4,0.00,Maine-Soroa
13.3,-87.183,83.3,0.08,Choluteca
13.333,-4.833,90.5,0.00,San
13.338,-16.652,77.0,0.00,Banjul Intl
13.367,100.983,86.0,0.31,Chon Buri/Sattahip / Suvarnabhumi Intl
13.4,-6.15,90.2,0.00,Segou
13.417,121.183,80.9,0.16,Calapan/Mindoro Isl
13.433,14.733,87.8,0.00,Bol-Berim
13.482,2.184,96.5,0.00,Diori Hamani
13.483,144.8,80.8,0.08,Guam Wfo
13.503,7.127,87.8,0.00,Maradi
13.55,144.833,80.6,0.35,Guam/Mariana Is
13.567,-89.833,85.0,0.00,Acajutla/Sonsonate
13.567,-2.417,86.7,0.00,Ouahigouya
13.567,144.917,77.2,0.20,Andersen Afb
13.576,124.206,79.4,0.00,Virac
13.654,124.341,78.3,0.00,Catanduanes Radar
13.699,-89.12,76.6,0.00,Ilopango Intl
13.7,102.504,86.0,0.00,Aranyaprathet
13.733,-60.953,81.0,0.00,Hewanorra Intl
13.733,100.567,86.0,0.00,Bangkok Metropolis
13.737,-13.653,94.6,0.00,Tambacounda
13.767,109.217,81.6,0.00,Quy Nhon
13.779,8.984,85.3,0.00,Zinder
13.8,5.25,93.2,0.00,Birni-N'Konni
13.847,20.844,83.8,0.00,Abeche
13.913,100.607,86.5,0.00,Bangkok Intl / Don Mueang Intl
13.936,-90.836,85.6,0.24,San Jose
14.005,108.017,71.6,0.00,Pleiku
14.017,121.6,82.7,0.00,Tayabas
14.033,-61.017,78.2,0.16,Castries
14.033,-0.033,93.2,0.00,Dori
14.047,-83.387,77.9,1.10,Puerto Cabezas
14.061,-87.217,71.4,0.00,Toncontin Intl
14.078,101.38,84.7,0.47,Khao E To
14.083,121.05,86.3,0.00,Ambulong
14.129,122.98,82.9,0.00,Daet
14.147,-16.051,91.9,0.00,Kaolack
14.2,1.45,98.1,0.00,Tillabery
14.233,76.433,77.9,0.00,Chitradurga
14.25,13.117,85.7,0.00,N'Guigmi
14.45,79.983,87.4,0.00,Nellore
14.467,100.133,87.1,0.00,Suphan Buri
14.482,-11.44,93.5,0.00,Kayes/Dag-Dag
14.509,121.02,84.7,0.00,Ninoy Aquino Intl
14.513,-4.08,89.9,0.00,Ambodedjo
14.583,-90.527,64.7,0.00,La Aurora
14.583,77.633,84.5,0.00,Pbo Anantapur
14.591,-61.003,77.3,0.16,Le Lamentin
14.65,-16.233,92.8,0.00,Diourbel
14.74,-17.49,76.1,0.00,Leopold Sedar Senghor Intl
14.75,121.65,82.7,0.00,Infanta
14.8,120.267,87.6,0.00,Subic Bay Weather
14.876,5.265,90.2,0.00,Tahoua
14.883,103.5,84.0,0.00,Surin
14.9,-85.933,79.1,0.35,Catacamas
14.917,-92.25,82.9,0.00,Tapachula  Chis
14.935,102.079,81.7,0.00,Khorat
15.117,145.733,82.7,0.00,Saipan/Isley (Cgs)
15.186,120.56,84.6,0.00,Clark Intl / Diosdado Macapagal Intl
15.233,-9.35,87.8,0.35,Nioro Du Sahel
15.251,104.87,87.8,0.00,Ubon Ratchathani
15.261,-83.781,84.2,0.04,Puerto Lempira
15.333,-1.683,93.9,0.00,Hombori
15.383,-15.117,93.8,0.00,Linguere
15.417,75.633,81.1,0.00,Gadag
15.453,-87.924,74.6,0.00,La Mesa Intl / Ramon Villeda Morales Intl
15.483,73.817,84.7,0.00,Goa/Panjim
15.547,-61.3,80.3,0.00,Melville Hall
15.65,-13.25,96.8,0.00,Matam/Ouro Sogui
15.673,100.137,87.0,0.00,Nakhon Sawan
15.731,-88.584,78.8,0.00,Puerto Barrios
15.733,120.933,83.7,0.00,Munoz
15.742,-86.853,70.8,2.40,Goloson Intl
15.776,-87.476,74.3,0.00,Tela
15.8,102.033,81.7,0.08,Chaiyaphum
15.859,74.618,79.7,0.00,Belgaum
16.044,108.199,79.2,0.00,Danang Intl
16.051,-16.463,76.5,0.00,Saint Louis Ousmane Masseck Ndiaye
16.07,103.646,87.3,0.00,Rob Muang
16.167,-95.183,81.5,0.00,Salina Cruz  Oax.
16.2,81.15,86.0,0.16,Machilipatnam/Franchpet
16.248,-0.005,99.3,0.00,Gao
16.265,-61.532,76.8,0.00,Le Raizet
16.267,122.133,80.9,0.00,Casiguran
16.375,120.62,70.7,0.00,Baguio
16.445,-85.907,78.1,0.00,La Laguna Airport - Guanaja
16.467,102.784,83.0,0.00,Khon Kaen
16.5,-15.817,94.5,0.00,Rosso
16.533,104.717,86.0,0.00,Mukdahan
16.533,111.617,82.9,0.00,Sanhu Dao
16.622,-7.317,92.8,0.00,Nema
16.65,-14.967,96.4,0.00,Podor
16.665,74.289,76.3,0.04,Kolhapur
16.676,101.195,81.1,0.00,Phetchabun
16.7,98.545,84.7,0.00,Mae Sot
16.711,-9.638,87.4,0.00,Aioun El Atrouss
16.73,-3.008,88.1,0.00,Tombouctou
16.733,-169.533,77.9,0.00,Johnston Atoll Airport
16.741,-22.949,73.2,0.00,Amilcar Cabral Intl
16.75,-99.75,82.4,0.00,Acapulco  Gro
16.757,-99.754,80.7,0.00,General Juan N Alvarez Intl / Acapulco Intl
16.783,100.279,82.7,0.00,Phitsanulok
16.833,112.333,83.2,0.00,Xisha Dao
16.896,99.253,89.0,0.00,Tak
16.917,-89.883,74.8,0.00,Flores/Santa Elena
16.95,82.233,85.0,0.00,Kakinada
16.967,7.967,84.7,0.00,Agadez / Mano Dayak
16.983,73.333,83.3,0.00,Ratnagiri
17.137,-61.793,78.5,0.00,V C Bird Intl
17.15,104.133,84.4,0.00,Sakon Nakhon
17.283,-62.733,78.8,0.00,Basseterre
17.311,-62.719,79.2,0.00,Robert L Bradshaw
17.386,102.788,86.0,0.00,Udon Thani
17.4,-83.933,80.6,0.00,Islas Del Cisne
17.417,104.783,86.9,0.20,Nakhon Phanom
17.439,101.722,83.2,0.00,Loei
17.452,78.461,84.2,0.04,Begumpet Airport / Hyderabad Intl
17.483,106.6,76.3,0.00,Dong Hoi
17.55,-99.5,74.8,0.00,Chilpancingo  Ro.
17.617,100.1,89.6,0.00,Uttaradit
17.628,75.935,86.6,0.00,Solapur
17.638,121.731,88.5,0.00,Tuguegarao
17.65,-101.45,82.7,0.91,Zihuatanejo
17.7,-64.813,82.3,0.00,Christiansted/Alex.
17.717,83.217,87.8,0.00,Vishakhapatnam Ctlz
17.867,102.75,86.0,0.00,Nong Khai
17.917,19.111,82.4,0.00,Faya Largeau
17.936,-76.788,77.9,0.67,Norman Manley Intl
17.983,-92.933,73.0,0.00,Villahermosa  Tab.
18.017,-92.95,79.2,0.08,Villahermosa      &
18.041,-63.109,79.2,0.00,Princess Juliana Intl
18.098,-15.948,83.9,0.00,Nouakchott
18.132,100.165,89.2,0.00,Phrae
18.15,-94.417,77.9,0.01,Coatzacoalcos     &
18.167,97.933,85.1,0.00,Mae Sariang
18.178,120.532,85.7,0.00,Laoag Intl
18.183,-94.5,77.4,0.00,Coatzacoalcos  Ver
18.217,109.583,81.1,0.00,Sanya
18.251,-71.12,79.5,0.00,Maria Montez Intl
18.255,-65.641,78.7,0.00,Naval Station Roosevelt Roads Ceiba
18.271,99.504,87.5,0.00,Lampang
18.336,-64.98,79.6,0.00,Cyril E King Airport
18.35,105.9,78.1,0.00,Ha Tinh
18.417,-66.0,78.0,0.00,San Juan Intl Arpt
18.43,-69.669,76.1,0.00,De Las Americas Intl
18.433,-69.883,77.7,0.00,Santo Domingo
18.433,-66.011,78.8,0.00,San Juan L M Marin Intl Ap
18.433,1.35,91.4,0.00,Kidal
18.5,-67.133,78.8,0.00,Aquadilla/Borinquen
18.504,-77.913,77.2,0.00,Sangster Intl
18.505,-88.327,77.3,0.00,Chetumal Intl
18.533,73.85,83.7,0.00,Pune
18.617,-69.317,79.1,0.00,Cabo Engano
18.65,-91.783,79.0,2.91,Ciudad Del Carmen
18.683,12.917,82.7,0.00,Bilma
18.717,-110.95,77.5,0.00,Isla Socorro  Col.
18.737,105.671,77.2,0.00,Vinh
18.767,79.433,88.5,0.00,Ramgundam
18.767,98.963,80.6,0.00,Chiang Mai Intl
18.808,100.783,86.6,0.00,Nan
19.05,-69.383,77.0,0.00,Sabana De La Mar
19.083,82.033,82.9,0.00,Jagdalpur
19.089,72.868,84.7,0.00,Chhatrapati Shivaji Maharaj Intl
19.1,108.617,80.6,0.00,Dongfang
19.15,-104.567,77.3,0.91,Manzanillo Intl   &
19.158,-98.371,62.6,0.00,Hermanos Serdan Intl / Puebla Intl
19.2,-96.133,79.9,0.00,Veracruz/Gen Jara
19.233,110.467,82.0,0.00,Qionghai
19.267,121.467,86.4,0.00,Calayan
19.283,-99.683,52.3,0.00,Toluca  Mex.
19.283,166.65,77.1,0.00,Wake Island Airfld
19.301,97.976,89.3,0.00,Mae Hong Son
19.4,-99.183,60.8,0.04,Mexico (Central)   D.F.
19.406,-70.605,80.2,0.00,Cibao Intl
19.433,-99.133,61.2,0.04,Aerop Internacional Mexico  D F
19.517,109.583,80.3,0.00,Danxian
19.55,-96.917,58.6,0.00,Jalapa  Ver.
19.683,-79.883,40.3,0.00,Cayman Brac
19.719,-155.053,72.7,0.04,Hilo International Airport
19.75,-14.367,94.5,0.00,Akjoujt
19.75,105.783,75.7,0.00,Thanh Hoa
19.758,-70.57,81.1,0.04,Gregorio Luperon Intl
19.833,-90.517,79.0,0.08,Campeche/Ignacio  &
19.85,-77.233,80.3,0.12,Cabo Cruz  Granma
19.863,75.398,85.7,0.00,Aurangabad
19.885,99.827,83.1,0.00,Chiang Rai
19.9,-75.15,76.9,0.00,Guantanamo Bay Naval Air Station
20.0,110.25,82.1,0.31,Haikou
20.033,-75.633,62.6,0.91,Gran Piedra   Santiago De Cuba
20.133,-98.75,55.4,0.00,Pachuca  Hgo.
20.133,107.717,77.0,0.00,Bach Long Vi
20.243,0.977,93.8,0.00,Tessalit
20.244,85.818,86.5,0.00,Bhubaneshwar / Biju Patnaik Intl
20.367,110.167,82.4,0.00,Xuwen
20.451,121.98,81.7,0.00,Basco
20.507,-13.043,90.5,0.00,Atar
20.517,-103.317,74.6,0.00,Guadalajara Intl  &
20.517,-86.95,78.2,0.00,Cozumel Intl Arpt &
20.517,-86.933,78.8,0.00,Cozumel (Fam) Q Roc
20.667,116.717,82.5,0.00,Dongsha Dao
20.683,-105.25,75.2,0.00,Puerto Vallarta
20.699,77.059,92.6,0.00,Akola
20.783,-156.95,67.8,0.00,Lanai
20.8,106.633,76.2,0.00,Phu Lien
20.85,88.25,86.5,0.00,Sandheads
20.9,-156.429,73.3,0.00,Kahului Airport
20.9,70.367,83.7,0.00,Veraval
20.917,-156.683,76.6,0.00,Kaanapali  Maui   Hawaii
20.933,-17.03,79.9,0.00,Nouadhibou
20.937,-89.658,73.9,0.00,Licenciado Manuel Crescencio Rejon Int / Merida Intl
20.95,-97.4,74.3,0.00,Tuxpan.Ver.
20.988,-76.936,80.9,0.00,Hermanos Ameijeiras
21.017,-86.867,80.9,0.08,Cancun Intl
21.033,109.117,78.3,0.00,Wei-Zhou Island
21.067,-101.55,74.9,0.98,Leon/San Carlos
21.092,79.047,91.1,0.00,Dr Baba Saheb Ambedkar Intl
21.133,-77.317,74.8,0.28,Palo Seco  Camaguey
21.15,-157.1,73.3,0.00,Molokai (Amos)
21.183,81.733,94.4,0.00,Swami Vivekananda
21.2,-76.617,76.6,0.04,Puerto Padre   Las Tunas
21.2,72.833,84.2,0.00,Surat
21.217,110.4,79.7,0.00,Zhanjiang
21.221,105.807,77.0,0.00,Noibai Intl
21.317,-158.067,72.0,0.01,Kalaeloa Arpt
21.324,-157.929,73.3,0.04,Honolulu International Airport
21.419,-104.843,69.8,0.00,Tepic
21.42,-77.848,73.7,0.00,Ignacio Agramonte Intl
21.45,-157.768,72.8,0.00,Kaneohe Mcas
21.45,-71.15,80.7,0.00,Turks Island
21.483,40.533,73.0,0.00,Taif/At Taif
21.483,109.1,78.8,0.00,Beihai
21.487,-158.028,70.9,0.00,Wheeler Army Airfield
21.5,39.2,77.4,0.00,Jeddah Intl
21.5,101.583,79.2,0.00,Mengla
21.517,86.933,84.2,0.00,Balasore
21.517,107.967,79.3,0.00,Mong Cai
21.617,-78.85,78.8,0.16,Jucaro  Ciego De Avila
21.733,-82.767,83.3,0.00,La Fe  Isla De La Juventud
21.733,112.767,80.2,0.00,Shangchuan Dao
21.867,-84.95,77.3,0.00,Cabo San Antonio   Pinar Del Rio
21.867,111.967,79.4,0.00,Yangjiang
21.917,-80.167,78.1,0.24,Cantarrana   Cienfuegos
21.933,-79.45,75.7,0.12,Sancti Spiritus   Sancti Spiritus
21.95,108.617,79.1,0.00,Qinzhou
21.984,-159.341,72.8,0.01,Lihue Airport
22.0,100.783,77.0,0.00,Jinghong
22.0,120.75,82.0,0.00,Hengchun
22.029,121.534,76.6,0.00,Lanyu
22.033,-159.783,78.0,0.00,Barking Sands Pacific Missile Range Fac Arpt
22.033,121.55,77.4,0.00,Lan Yu
22.041,120.73,80.6,0.00,Hengchun
22.1,-103.267,72.5,0.00,Colotlan  Jal.
22.15,113.592,80.2,0.00,Macau Intl
22.167,-84.1,72.8,0.04,Isabel Rubio  Pinar Del Rio
22.25,109.967,82.0,0.00,Bobai
22.267,112.783,81.1,0.00,Tai-Shan
22.283,-97.85,77.8,0.00,Tampico/Gen Fj Mina
22.3,114.167,80.8,0.00,Hong Kong Observatory
22.309,70.78,90.2,0.00,Rajkot
22.35,110.933,79.7,0.00,Xinyi
22.35,120.9,84.2,0.00,Dawu
22.367,106.75,76.5,0.00,Longzhou
22.417,-83.683,76.3,0.16,Pinar Del Rio
22.417,120.55,83.7,0.00,Chia Tung
22.5,103.95,79.8,0.00,He-Kou
22.517,-78.45,76.6,0.04,Cayo Coco   Ciego De Avila
22.55,-83.3,75.2,0.00,Paso Real De San Diego  Pinar Del Rio
22.567,99.933,70.7,0.00,Lancang
22.577,120.35,78.3,0.00,Kaohsiung Intl
22.608,108.172,80.1,0.00,Wuxu
22.617,101.817,76.1,0.00,Jiangcheng
22.633,120.283,81.3,0.00,Kaohsiung
22.639,113.811,79.4,0.00,Baoan Intl
22.655,88.447,83.0,0.00,Netaji Subhash Chandra Bose Intl
22.672,120.462,80.9,0.00,Pingtung South
22.683,-12.7,86.4,0.00,F Derik
22.7,120.482,79.7,0.00,Pingtung North
22.722,75.801,80.9,0.00,Devi Ahilyabai Holkar
22.75,121.15,81.1,0.00,Taidong (=595620)
22.767,-83.55,74.3,0.00,La Palma  Pinar Del Rio
22.767,100.983,72.5,0.00,Simao
22.783,115.367,78.6,0.00,Shanwei
22.783,120.262,79.5,0.00,Gangshan
22.793,121.182,82.2,0.00,Jhihhang
22.8,5.433,72.0,0.00,Tamanrasset
22.85,-82.033,76.6,0.16,Guines  La Habana
22.917,-83.167,75.6,0.00,Bahia Honda  Pinar Del Rio
22.95,120.206,80.0,0.00,Tainan
22.989,-82.409,75.6,0.00,Jose Marti Intl
23.0,120.217,84.3,0.00,Tainan
23.034,-81.435,79.0,0.02,Juan Gualberto Gomez Intl
23.05,112.467,81.8,0.00,Gaoyao
23.077,72.635,87.6,0.00,Ahmedabad / Sardar Vallabhbhai Patel Intl
23.1,121.367,81.7,0.00,Cheng-Kung
23.133,106.417,74.3,0.00,Xinjing
23.15,-106.25,77.3,0.00,Mazatlan/G.Buelna I
23.167,-82.35,76.1,0.04,Casa Blanca   La Habana
23.178,80.052,90.0,0.00,Jabalpur
23.2,-106.417,75.7,0.00,Colonia Juan Carrasco Mazatlan  Sin.
23.267,119.667,78.4,0.00,Dongshi
23.287,77.337,89.3,0.00,Bhopal / Raja Bhoj
23.288,69.67,88.8,0.00,Bhuj
23.3,105.95,76.0,0.00,Napo
23.314,85.322,85.1,0.00,Birsa Munda
23.392,113.299,80.0,0.00,Baiyun Intl
23.4,110.083,82.1,0.01,Guiping
23.4,116.683,79.8,0.00,Shantou / Chaoshan
23.45,103.333,75.7,0.00,Mengzi
23.462,120.393,81.7,0.00,Chiayi
23.467,87.433,86.6,0.00,Panagarh
23.483,111.3,79.0,0.00,Wuzhou
23.5,119.5,78.0,0.00,Penghu Islands
23.5,120.45,81.7,0.00,Chiayi
23.517,119.567,77.6,0.00,Magong
23.517,120.8,58.1,0.00,Mount Alisan
23.567,99.083,73.7,0.00,Mengding
23.569,119.628,78.1,0.00,Magong / Penghu
23.6,101.983,85.0,0.00,Yuanjiang
23.704,-98.957,83.5,0.00,General Pedro Jose Mendez Intl / Ciudad Victoria Intl
23.742,-99.17,68.5,0.00,Ciudad Victoria   Tamps.
23.8,114.733,81.6,0.00,Heyuan
23.85,109.417,82.0,0.00,Da-Wan
23.867,-166.283,73.4,0.00,French Frigate Shoals
23.883,113.517,79.8,0.00,Fogang
23.883,120.85,76.7,0.00,Joyutang
23.887,91.24,82.8,0.00,Agartala
23.9,106.6,82.9,0.00,Baise
23.95,100.217,64.8,0.00,Lincang
23.964,32.82,75.9,0.00,Aswan Intl
23.967,115.967,79.2,0.00,Song-Lin-Ba
23.983,121.6,80.9,0.00,Hua-Lien City
24.0,97.85,69.2,0.00,Ruili
24.017,121.617,80.3,0.00,Hualian
24.023,121.618,80.5,0.00,Hualien
24.05,-104.6,65.3,0.00,Durango  Dgo.
24.067,105.067,77.9,0.00,Guangnan
24.073,-110.362,79.5,0.00,General Manuel Marquez De Leon Intl / La Paz Intl
24.124,-104.528,67.0,1.89,Durango Intl
24.15,120.683,81.8,0.00,Taichung (=591580)
24.179,23.314,69.6,0.00,Kufra
24.186,120.654,79.9,0.00,Taichung
24.2,110.517,77.8,0.04,Mengshan
24.265,120.621,80.4,0.00,Taichung Intl / Ching Chuang Kang Ab
24.283,116.067,83.2,0.00,Mei Xian
24.29,153.979,76.4,0.00,Minami Torishima
24.345,124.187,80.3,0.00,New Ishigaki
24.35,109.4,82.4,0.00,Liuzhou
24.367,114.483,77.3,0.31,Lianping
24.428,118.359,74.5,0.00,Shang Yi / Kinmen
24.533,103.767,71.3,0.00,Luxi
24.544,118.128,78.5,0.00,Gaoqi
24.553,39.705,78.1,0.00,Prince Mohammad Bin Abdulaziz
24.557,-81.755,76.3,0.00,Key West International Airport
24.567,80.833,89.3,0.00,Satna
24.583,-81.683,75.3,0.00,Key West Nas
24.633,-82.917,76.5,0.00,Dry Tortugas (Cgs)
24.633,117.65,82.9,0.00,Zhangzhou
24.65,77.317,91.8,0.00,Guna
24.667,113.6,78.8,0.00,Shaoguan
24.7,108.05,81.9,0.00,Hechi
24.72,-81.12,76.8,0.00,Marathon Coast Guard Station
24.722,46.725,73.8,0.00,King Salman Ab
24.744,84.951,91.4,0.00,Gaya
24.75,121.767,81.0,0.00,Ilan
24.75,121.783,79.5,0.00,Ilan City
24.76,93.897,77.7,0.00,Imphal
24.783,125.295,79.0,0.00,Miyako
24.784,141.323,77.7,0.00,Iwoto
24.8,112.367,76.7,0.00,Lianzhou
24.8,118.583,73.9,0.00,Jin-Jiang
24.817,-107.4,85.2,0.00,Culiacan (City)   &
24.818,120.939,78.1,0.00,Hsinchu
24.833,120.0,77.9,0.00,Hsinchu City
24.95,-80.58,75.8,0.00,Islamorada Coast Guard Station
24.95,115.65,76.5,0.00,Xunwu
24.983,98.5,65.2,0.00,Tengchong
24.992,102.744,69.1,0.00,Wujiaba / Changshui
25.017,101.517,68.7,0.00,Chuxiong
25.033,121.517,81.5,0.00,Taibei
25.039,-77.466,76.3,0.00,Nassau Intl / Lynden Pindling Intl
25.05,121.217,79.9,0.00,Taoyuan
25.056,121.243,78.7,1.38,Taoyuan
25.067,116.35,81.5,0.00,Shanghang
25.067,121.533,79.2,0.00,589690
25.069,121.552,79.3,0.00,Songshan
25.083,107.2,80.6,0.00,Tian'E/Liupai
25.1,117.017,80.9,0.00,Longyan
25.117,99.183,62.9,0.04,Baoshan
25.15,121.8,80.2,0.00,Chilung
25.16,75.846,94.1,0.00,Kota
25.167,121.433,79.9,0.00,Tanshui
25.218,110.039,78.6,0.00,Liangjiang
25.237,-11.589,83.3,0.00,Bir Moghrein
25.4,114.933,79.2,0.00,Xin-Feng
25.433,105.183,77.4,0.00,Xingren
25.433,106.767,86.0,0.00,Luodian
25.44,81.734,93.5,0.00,Allahabad Arpt
25.483,-80.383,73.1,0.16,Homestead Afb Airport
25.517,119.783,77.0,0.00,Pingtan
25.533,-103.45,73.2,0.51,Torreon Airport   &
25.583,103.833,69.0,0.00,Zhanyi
25.591,85.088,86.3,0.00,Jai Prakash Narayan Intl Patna
25.617,111.6,80.2,0.00,Daoxian
25.633,122.067,78.3,0.00,Pengjia Yu(=589740)
25.671,32.707,75.5,0.00,Luxor Intl
25.673,21.091,71.3,0.00,Tazerbo
25.7,100.183,65.8,0.00,Dali
25.717,118.1,64.4,0.00,Jiuxian Shan
25.733,101.867,83.3,0.00,Yuanmou
25.733,112.967,75.0,0.16,Chenzhou
25.75,71.383,93.2,0.00,Barmer
25.788,-80.317,73.7,0.01,Miami International Airport
25.833,107.55,73.1,0.00,Dushan
25.847,131.263,74.2,0.00,Minami Daito
25.85,114.95,77.3,0.00,Ganzhou
25.85,116.367,76.2,0.00,Changting
25.866,-100.237,77.0,0.00,Del Norte Intl
25.914,-97.423,71.1,0.00,Brownsville/S Padre Island Intl Ap
25.967,108.533,81.9,0.00,Rongjiang
25.967,117.35,79.8,0.00,Yong'An
26.072,-80.154,77.0,0.00,Fort Lauderdale Hol
26.083,119.283,77.5,0.00,Fuzhou
26.106,91.586,80.2,0.00,Guwahati Intl / Lokpriya Gopinath Bordoloi Intl
26.133,34.25,72.1,0.00,Kosseir
26.16,119.958,70.8,0.00,Nangan
26.167,109.783,77.0,0.00,Tongdao
26.167,119.933,72.0,0.00,Mazu
26.183,117.617,73.0,0.08,Sanming
26.184,-98.254,72.7,0.00,Mc Allen Miller Intl Arpt
26.196,127.646,76.2,0.00,Naha
26.2,127.683,75.7,0.00,Naha
26.233,111.617,70.3,0.12,Lingling
26.265,50.152,74.9,0.00,King Abdulaziz Ab
26.267,50.617,74.2,0.00,Bahrain/Muharraq
26.267,127.75,72.4,0.00,Okinawa Marine Corps Air Station
26.293,78.228,92.0,0.00,Gwalior
26.3,43.767,62.6,0.00,Gassim
26.356,127.768,75.6,0.00,Kadena Ab
26.4,103.25,68.6,0.00,Huize
26.45,-81.95,73.1,0.00,Ft. Myers Beach Coast Guard Stat
26.539,106.801,76.5,0.00,Longdongbao
26.559,-78.696,76.5,0.04,Grand Bahama Intl
26.585,-81.861,71.4,0.00,Page Field Airport
26.633,118.15,79.7,0.00,Nanping
26.65,102.25,67.5,0.00,Huili
26.685,-80.099,73.2,0.00,Palm Beach International Airport
26.733,-108.283,79.2,0.00,Choix  Sin.
26.733,110.633,69.2,1.14,Wugang
26.74,83.45,87.0,0.00,Gorakhpur
26.761,80.889,91.2,0.00,Lucknow / Chaudhary Charan Singh Intl
26.77,-80.05,67.2,0.00,Lake Worth Inlet
26.8,113.533,68.9,0.43,Chaling
26.824,75.812,89.6,0.00,Jaipur
26.833,100.217,61.3,0.00,Lijing
26.85,116.333,69.1,0.12,Guangchang
26.867,104.283,64.7,0.00,Weining
26.9,70.917,92.1,0.00,Jaisalmer
26.933,112.583,68.5,0.75,Hengyang
26.967,108.667,64.4,0.35,Sansui
26.983,87.35,65.8,0.00,Dhankuta
26.987,14.473,75.7,0.00,Sebha
27.0,120.7,65.3,0.00,Taishan
27.047,31.012,68.0,0.00,Asyut Intl
27.05,118.317,75.2,0.00,Jian'Ou
27.092,142.191,73.4,0.00,Chichi Jima Bonin Island
27.117,114.967,69.8,0.63,Ji'An
27.152,-13.219,73.8,0.00,Hassan I
27.156,77.961,92.9,0.00,Agra
27.183,111.45,68.0,1.46,Shaoyang
27.233,2.5,79.9,0.00,In-Salah
27.3,86.5,64.8,0.00,Okhaldhunga
27.3,105.233,70.9,0.00,Bijie
27.3,112.7,61.1,3.98,Nanyue
27.333,103.75,67.7,0.00,Zhaotong
27.333,117.467,71.2,1.97,Shaowu
27.333,120.2,71.3,0.22,Fuding
27.383,-82.55,74.5,0.00,Sarasota Bradenton
27.426,128.701,77.9,0.00,Okierabu
27.433,-99.567,79.4,0.59,Nuevo Laredo
27.45,109.683,66.2,0.20,Zhijiang
27.45,112.2,68.0,1.26,Shuang-Feng
27.47,-80.3,73.3,0.00,Fort Pierce Coast Guard Station
27.483,-109.917,83.8,0.00,Ciudad Obregon  Son
27.5,-97.817,71.6,0.00,Kingsville Nas
27.55,-99.467,79.0,0.00,Laredo Intl Airport
27.583,116.65,70.7,0.71,Nancheng
27.633,121.05,68.5,0.00,Dong-Gua Island
27.65,-81.333,74.5,0.16,Avon Park Gunnery R
27.653,-80.243,72.7,0.00,Vero Beach Muni
27.683,-97.283,72.0,0.00,Corpus Christi Nas
27.697,85.359,69.8,0.00,Tribhuvan Intl
27.7,106.883,72.5,0.00,Zunyi
27.733,89.083,31.6,0.04,Pagri
27.741,-98.025,70.2,0.00,Alice International Arpt
27.774,-97.512,71.8,0.00,Corpus Christi International Airport
27.8,114.383,69.5,0.00,Yichun
27.815,-17.887,68.0,0.00,Hierro
27.817,86.717,39.2,0.00,Syangboche
27.83,-97.07,72.2,0.00,Port Aransas Coast Guard Station
27.836,128.881,77.9,0.00,Tokunoshima
27.85,-82.517,71.2,0.00,Mac Dill Afb Airport
27.9,-82.683,70.5,0.00,St Petersburg Clear
27.9,102.267,76.3,0.00,Xichang
27.917,118.533,71.9,1.10,Pucheng
27.932,-15.387,67.1,0.00,Gran Canaria
27.95,108.25,70.9,0.31,Sinan
27.95,117.833,61.7,0.94,Qixian Shan
27.962,-82.54,72.6,0.12,Tampa International Airport
27.969,-110.925,81.8,0.91,General Jose Maria Yanez Intl / Guaymas Intl
28.0,73.3,93.8,0.00,Bikaner
28.017,120.667,67.5,0.31,Wenzhou
28.1,119.083,73.4,0.31,Longquan
28.101,-80.644,72.1,0.00,Melbourne Intl Ap
28.133,121.217,63.5,0.00,Yu-Huan
28.15,111.633,66.2,0.83,Mei-Cheng-Zhen
28.2,-177.383,68.5,0.00,Henderson Field Airport
28.2,113.083,68.0,0.00,Changsha/Datuopu
28.233,-80.6,73.9,0.00,Patrick Afb Airport
28.284,68.45,95.0,0.00,Shahbaz Ab
28.317,-16.5,51.4,0.00,Izana
28.365,36.619,59.7,0.00,Tabuk / Prince Sultan Bin Abdulaziz
28.367,-97.667,71.8,0.00,Chase Naval Air Station
28.394,129.553,79.5,0.00,Naze/Funchatoge
28.417,92.467,42.5,0.00,Lhunze
28.431,129.713,76.8,0.00,Amami
28.434,-81.325,71.0,0.04,Orlando International Airport
28.45,-16.25,68.4,0.00,Sta. Cruz De Tenerife
28.45,98.883,38.2,0.04,Deqen
28.45,119.917,74.4,1.18,Lishui
28.45,121.883,60.6,0.12,Dachen Dao
28.453,-13.864,66.5,0.00,Fuerteventura
28.457,-99.218,67.6,0.00,Cotulla-La Salle Co Arpt
28.467,110.4,66.4,0.98,Yuanling
28.483,-80.567,70.3,0.00,Cocoa Beach Cape Kennedy Afs
28.483,-16.342,67.5,0.00,Tenerife Norte
28.5,-90.12,69.4,0.00,Grand Isle B95
28.517,-80.8,79.0,0.00,Space Coast Rgnl
28.585,77.206,90.1,0.00,Safdarjung
28.617,121.417,64.0,0.00,Hongjia
28.626,-17.756,67.3,0.00,La Palma
28.633,-106.083,66.2,0.00,Chihuahua  Chih.
28.633,87.083,39.0,0.00,Tingri
28.7,-105.967,68.2,0.98,Chihuahua Intl    &
28.7,-92.32,67.1,0.00,Vermilion B215
28.725,-96.254,67.1,0.00,Palacios Municipal Airport
28.75,113.617,69.4,1.38,Pingjiang
28.78,-81.244,74.9,0.00,Orlando Sanford Airport
28.8,104.6,77.8,0.00,Yibin
28.817,120.917,59.5,0.71,Kuocang Shan
28.833,108.767,62.1,0.47,Youyang
28.85,112.383,69.3,0.91,Yuanjiang
28.861,-96.93,68.9,0.00,Victoria Regional Airport
28.865,115.9,67.1,0.59,Changbei Intl
28.883,105.433,76.4,0.00,Luzhou
28.92,-89.43,67.4,0.00,Southwest Pass Coast Guard Stati
28.945,-13.605,71.6,0.00,Lanzarote
28.95,-95.3,67.7,0.00,Freeport Coast Guard Station
28.95,107.15,54.9,0.33,Jinfo Shan (Mount)
28.967,118.867,72.1,0.18,Qu Xian
29.0,101.5,51.8,0.00,Jiulong
29.033,21.567,67.4,0.00,Jalo
29.033,114.583,67.2,0.71,Xiushui
29.05,100.3,45.0,0.00,Daocheng
29.05,111.683,69.5,0.87,Changde
29.083,-110.95,74.5,0.00,Hermosillo Intl   &
29.096,-111.048,79.2,0.00,General Ignacio P Garcia Intl / Hermosillo Intl
29.117,15.95,68.0,0.00,Hon
29.15,119.633,69.8,0.04,Jinhua
29.179,75.755,92.6,0.00,Hisar
29.183,-81.048,71.4,0.00,Daytona Beach Intl
29.2,121.95,61.3,0.49,Shipu
29.227,47.969,73.8,0.00,Kuwait Intl
29.25,88.883,48.5,0.00,Xigaze
29.27,-89.95,70.7,0.00,Grand Isle Coast Guard Station
29.273,-94.859,67.8,0.00,Scholes Intl At Glston Apt
29.3,117.2,68.2,0.04,Jingdezhen
29.333,-89.408,69.9,0.00,Baton Rouge Metro R
29.367,-100.783,65.8,0.00,Laughlin Afb Airport
29.378,-100.927,69.0,0.00,Del Rio International Airport
29.383,-98.583,65.9,0.00,Lackland Air Force Base (Kelly Field Annex)
29.383,113.083,69.8,0.55,Yueyang
29.4,110.167,65.7,0.51,Sangzhi
29.433,112.183,69.8,0.67,Anxiang
29.476,60.907,84.9,0.00,Zahedan Intl
29.517,103.333,46.7,0.00,Emei Shan
29.517,106.483,78.1,0.12,Chong-Qing
29.533,-98.262,65.8,0.00,Randolph Afb Airport
29.533,109.383,63.5,0.04,Laifeng
29.539,52.589,69.8,0.00,Shiraz Shahid Dastghaib Intl
29.544,-98.484,67.4,0.00,San Antonio International Airport
29.561,34.96,72.9,0.00,Eilat
29.567,48.2,64.8,0.00,Beacon N6
29.567,94.467,45.3,0.13,Nyingchi
29.583,105.05,76.2,0.79,Neijiang
29.583,111.3,68.9,0.24,Shi-Men
29.583,115.983,59.0,0.08,Lu Shan
29.6,120.817,65.9,0.55,Shengxian
29.617,-95.167,68.1,0.00,Ellington Field Airport
29.626,43.491,59.8,0.00,Rafha
29.638,-95.282,66.9,0.00,William P Hobby
29.667,91.133,47.1,0.00,Lhasa / Gonggar
29.67,-88.88,69.1,0.00,Main Pass B68
29.692,-82.276,69.5,0.00,Gainesville Rgnl
29.717,113.883,73.8,0.00,Puqi
29.73,-93.87,64.5,0.00,Sabine Pass Coast Guard Station
29.733,-85.033,68.0,0.00,Apalachicola Muni Airport
29.75,24.533,76.3,0.00,Gighbub
29.817,-90.017,67.6,0.00,New Orleans Nas
29.917,121.467,64.4,0.91,Ningbo
29.951,-94.021,65.8,0.00,Southeast Texas Regional Airport
29.98,-95.36,64.2,0.00,G Bush Intercontinental Ap/Houston Ap
29.983,103.0,72.5,2.28,Ya'An
29.997,-90.278,68.2,0.00,Louis Armstrong New Orleans Intl Ap
30.0,99.1,56.5,0.00,Batang
30.0,100.267,41.6,0.00,Litang
30.033,122.117,62.3,0.16,Dinghai
30.05,101.967,55.7,0.05,Kangding
30.067,-85.583,69.4,0.00,Tyndall Afb Airport
30.117,30.917,66.9,0.00,Cairo West
30.122,31.406,69.2,0.00,Cairo Intl
30.125,-93.228,65.8,0.00,Lake Charles Regional Airport
30.133,-2.167,77.0,0.00,Beni-Abbes
30.133,118.15,54.7,0.04,Huang Shan
30.152,9.715,71.1,0.00,Ghadames East
30.167,35.783,56.8,0.00,Ma'An
30.2,-97.683,65.9,0.00,Bergstrom Afb/Austi
30.205,-91.988,67.0,0.00,Lafayette Regional Airport
30.217,-81.883,70.6,0.04,Cecil Fld
30.228,120.432,63.9,0.04,Xiaoshan
30.233,-81.667,70.3,0.00,Jacksonville Nas
30.274,56.951,75.2,0.00,Kerman
30.283,109.467,66.9,0.00,Enshi
30.317,78.033,79.9,0.00,Dehradun
30.321,-97.76,67.0,0.00,Austin/Mueller Muni
30.333,-81.517,71.4,0.00,Jacksonville/Craig
30.333,76.467,89.6,0.00,Patiala
30.333,112.183,71.0,0.00,Jiangling
30.35,-87.317,66.7,0.00,Pensacola Nas
30.35,119.417,55.1,0.00,Tianmu Shan (Mtns)
30.371,-104.017,67.6,0.00,Marfa Ap
30.371,48.228,67.5,0.00,Abadan
30.381,-9.546,79.4,0.00,Inezgane
30.383,13.583,74.6,0.00,Gariat El-Sharghia
30.383,76.767,84.2,0.00,Ambala
30.386,130.659,74.4,0.00,Yakushima
30.393,-84.353,67.1,0.00,Tallahassee Regional Airport
30.4,-89.067,69.2,0.00,Gulfport Biloxi Int
30.4,-81.417,73.9,0.00,Mayport Naf
30.417,-88.917,69.6,0.00,Keesler Air Force Base
30.417,-86.683,66.1,0.00,Hurlburt Field Airport
30.483,-86.517,64.9,0.00,Eglin Afb Airport
30.495,-81.694,68.8,0.16,Jacksonville International Airport
30.5,101.483,46.9,0.01,Qian-Ning
30.511,-99.766,61.8,0.00,Junction
30.533,38.9,73.8,0.00,Maarik
30.537,-91.147,65.1,0.00,Baton Rouge Metro R
30.547,130.95,72.7,0.00,Tanegashima
30.549,47.662,71.6,0.00,Basrah Intl
30.55,81.433,39.2,0.00,T'U-Ko-Erh-Ho-Kung
30.571,2.86,69.8,0.00,El Golea
30.579,103.947,71.6,0.08,Shuangliu
30.589,-96.365,64.6,0.00,Easterwood Fld
30.617,116.967,66.7,0.00,Anqing
30.617,121.083,63.0,0.98,Zha-Pu
30.65,-86.517,73.8,0.00,Duke Fld
30.683,107.8,71.6,0.04,Liangping
30.688,-88.246,64.3,1.18,Mobile Regional Airport
30.717,-87.017,65.0,0.00,Whiting Field Naval Air Station North
30.717,20.167,65.5,0.00,Agedabia
30.717,130.983,68.9,0.00,Tanegashima
30.733,111.367,67.5,0.12,Yichang
30.733,122.45,58.3,0.08,Shengsi
30.75,106.133,73.8,0.20,Gaoping
30.75,115.667,68.4,0.00,Yingshan
30.783,-86.517,64.3,0.00,Bob Sikes Airport
30.783,-83.277,67.4,0.00,Valdosta Regional Airport
30.783,110.267,50.5,0.39,Lu-Cong-Po
30.784,114.208,70.2,0.00,Tianhe
30.939,-6.909,64.1,0.00,Ouarzazate
30.95,88.633,34.4,0.00,Xainza
30.967,-83.2,66.4,0.00,Moody Afb/Valdosta
31.017,109.533,67.3,0.20,Fengjie
31.05,-93.183,66.7,0.00,Polk Army Airfield
31.067,-97.833,63.8,0.00,Robert Gray Aff Airport
31.133,-97.717,64.5,0.00,Fort Hood
31.133,-92.567,69.6,0.00,Claiborne Range  La. (Afs)
31.133,114.95,69.0,0.04,Macheng
31.15,-97.4,67.3,0.00,Draughon Miller Cen
31.15,97.167,51.5,0.02,Qamdo
31.152,-81.391,69.0,0.00,Malcolm Mc Kinnon Airport
31.167,112.633,70.9,0.00,Zhongxiang
31.183,-90.471,62.3,0.00,Mcom/Pike Co/J E Lws Fd Ap
31.184,29.949,66.9,0.00,Alexandria Intl
31.198,121.336,60.8,0.08,Hongqiao Intl
31.2,16.583,63.8,0.00,Sirte
31.2,107.5,73.7,0.00,Da Xian
31.233,-110.983,77.0,0.00,Nogales-In-Sonora
31.236,-94.754,64.7,0.00,Angelina County Airport
31.267,-85.717,64.8,0.00,Cairns Army Airfield (Fort Rucker)
31.267,120.617,62.6,0.00,Suzhou
31.287,34.723,64.8,0.00,Teyman
31.309,-86.394,62.9,0.00,Andalusia Opp
31.317,-92.55,64.6,0.00,Alexandria Int
31.317,-85.45,65.8,0.00,Dothan Rgnl
31.333,118.35,64.4,0.00,Wu-Hu
31.352,-100.495,64.1,0.00,San Angelo Regional/Maths Field Ap
31.367,90.017,32.5,0.00,Baingoin
31.368,130.845,66.7,0.00,Kanoya
31.395,-92.291,64.5,0.00,Esler Regional Airport
31.399,-9.683,62.2,0.00,Essaouira / Mogador Intl
31.4,116.333,63.6,0.00,Huoshan
31.417,95.6,39.5,0.00,Dengqen
31.433,119.483,62.3,0.00,Liyang
31.45,104.733,72.8,0.00,Mianyang
31.458,-109.606,67.3,0.00,Bisbee Douglas Intl
31.483,92.067,34.9,0.00,Nagqu
31.506,65.848,78.4,0.00,Kandahar
31.514,10.598,71.6,0.00,Nalut
31.536,-84.194,63.9,0.00,Sw Georgia Regional Arpt
31.536,-82.507,68.7,0.00,Alma/Bacon Co.
31.55,64.367,81.1,0.00,Bust
31.55,130.55,68.2,2.72,Kagoshima
31.583,105.967,74.3,0.00,Langzhong
31.588,-110.344,68.3,0.00,Sierra Vista Municipal-Libby Aaf Airport
31.607,-8.036,74.5,0.00,Menara
31.617,100.0,49.5,0.00,Garze
31.619,-97.228,65.2,0.00,Waco Regional Airport
31.633,-106.433,71.0,0.98,Ciudad Intl
31.646,-2.27,74.2,0.00,Bechar / Boudghene Ben Ali Lotfi
31.673,6.14,76.6,0.00,Oued Irara / Krim Belkacem
31.693,38.731,56.8,0.00,Turaif
31.71,74.797,87.2,0.00,Amritsar
31.733,98.567,52.4,0.02,Dege
31.742,118.862,59.7,0.00,Lukou
31.767,119.95,59.4,0.00,Changzhou
31.78,-103.202,66.0,0.00,Winkler County Airport
31.78,117.298,62.3,0.00,Luogang / Xinqiao
31.803,130.719,66.4,0.00,Kagoshima
31.811,-106.376,62.3,0.00,El Paso International Airport
31.831,-104.809,60.8,0.00,Guadalupe Pass
31.85,47.167,69.4,0.00,Amarah
31.85,102.7,44.3,0.00,Ma-Tang
31.861,-86.012,65.7,0.24,Troy Municipal Airport
31.865,35.219,53.3,0.00,Jerusalem
31.867,23.9,68.0,0.00,Tobruk
31.877,131.449,72.4,0.00,Miyazaki
31.883,-81.567,71.5,0.01,Ft Stewart/Wright
31.883,93.783,36.8,0.00,Sog Xian
31.9,102.233,54.1,0.00,Barkam
31.905,54.277,80.6,0.00,Yazd Shahid Sadooghi
31.933,131.417,70.3,0.28,Miyazaki
31.948,-102.209,62.0,0.00,Midland International Airport
31.948,-4.398,63.3,0.00,Moulay Ali Cherif
31.95,44.95,67.3,0.00,Diwaniya
31.973,35.992,52.8,0.00,Marka Intl
31.983,128.35,62.2,0.20,Meshima
32.009,-81.146,68.5,0.04,Hunter Aaf
32.011,34.887,60.6,0.00,Ben Gurion
32.033,110.767,71.6,0.00,Fangxian
32.05,72.667,83.5,0.00,Sargodha
32.067,108.033,66.6,0.00,Wanyuan
32.067,121.6,56.8,0.00,Lusi
32.084,131.451,67.9,0.00,Nyutabaru
32.097,20.269,67.6,0.00,Benina Airport
32.1,34.783,63.1,0.00,Sde-Dov (Tel-Aviv)
32.1,120.867,60.8,0.00,Nantong/Jinsha
32.117,66.9,75.6,0.00,Kalat
32.131,-110.955,73.0,0.08,Tucson International Airport
32.131,-81.202,67.0,0.08,Savannah/Hilton Head Intl Airport
32.133,46.033,66.2,0.00,Kut-Al-Hai
32.133,114.05,63.9,0.00,Xinyang
32.15,112.667,66.7,0.00,Zaoyang
32.167,-110.883,71.9,0.02,Davis-Monthan Afb Airport
32.167,115.617,63.8,0.00,Gushi
32.217,-101.517,61.7,0.00,Webb Afb
32.25,-107.717,58.4,0.01,Deming Muni
32.25,96.217,48.5,0.00,Nangqen
32.283,-9.233,67.7,0.00,Safi
32.283,100.333,39.5,0.00,Sertar
32.3,-86.408,63.2,0.00,Montgomery Rgnl (Dannelly Fd) Ap
32.3,84.05,31.5,0.00,Lumaringbo
32.306,10.382,78.8,0.00,Remada
32.321,-90.078,61.9,0.00,Jackson International Airport
32.334,-104.258,65.1,0.00,Cavern City Air Trml Arpt
32.335,-88.744,60.8,0.00,Key Field Airport
32.35,-86.983,62.1,0.00,Craig Fld
32.35,-85.0,64.1,0.00,Lawson Aaf Airport
32.354,-95.403,65.7,0.83,Tyler Pounds Regional Arpt
32.367,-64.683,69.6,0.00,Naval Atlantic Meterology & Oceanography Facility
32.367,-6.4,69.6,0.00,Beni-Mellal
32.367,62.183,80.6,0.00,Farah
32.383,-86.35,67.8,0.00,Maxwell Afb Airport
32.384,3.794,77.9,0.00,Noumerat Moufdi Zakaria
32.385,-94.712,64.0,0.00,Longview
32.4,48.383,66.6,0.00,Dezful
32.411,-99.682,60.5,0.00,Abilene Regional Airport
32.417,104.517,64.7,0.28,Pingwu
32.433,-99.85,60.3,0.00,Abilene Dyess Afb
32.433,111.733,65.0,0.00,Laohekou
32.447,-93.824,64.2,0.00,Shreveport Regional Airport
32.483,-80.717,67.3,0.00,Beaufort Mcas
32.5,-93.667,63.3,0.00,Barksdale Air Force Base
32.5,80.083,34.7,0.00,Shiquanhe
32.516,-92.041,64.3,0.00,Monroe Regional Airport
32.516,-84.942,62.6,0.00,Columbus Metro Airport
32.533,-116.983,62.0,0.00,Tijuana
32.539,38.195,55.4,0.00,H4
32.55,-88.567,60.4,0.00,Meridian Nas/Mc Cain Fd Ap
32.555,12.056,64.9,0.00,Zuara
32.567,-117.117,62.9,0.00,Naval Auxiliary Landing Fd
32.567,44.05,66.2,0.00,Kerbela
32.567,100.583,42.8,0.00,Luo-Xue
32.583,116.783,62.2,0.00,Shouxian/Shouyang
32.633,-116.467,65.6,0.00,Campo
32.633,-108.167,66.5,0.00,Bisbee Douglas Intl
32.633,-83.6,64.5,0.00,Robins Afb Airport
32.65,-114.617,82.9,0.00,Yuma Mcas
32.664,13.159,70.3,0.00,Tripoli Intl
32.666,128.833,66.6,0.00,Fukue
32.667,-114.6,81.5,0.00,Yuma Marine Corps Air Station/Yuma Intl Airport
32.667,35.183,58.5,0.00,Ramat-David
32.667,103.6,50.9,0.67,Songpan
32.683,-16.767,61.7,0.00,Funchal/S.Catarina
32.683,-4.733,60.8,0.00,Midelt
32.685,-83.653,63.3,0.00,Middle Georgia Regional Airport
32.693,-103.213,59.8,0.00,Lea County Regional Airport
32.7,-117.2,63.0,0.00,North Island Nas
32.7,128.833,62.2,1.89,Fukue
32.717,109.033,70.2,0.00,Ankang
32.717,133.017,67.6,0.75,Shimizu
32.733,-96.967,65.5,0.00,Naval Air Station Operations
32.733,129.867,63.3,0.55,Nagasaki
32.734,-117.183,63.5,0.00,San Diego International Airport
32.75,-118.417,54.7,0.00,Long Beach
32.751,51.862,61.0,0.00,Esfahan Shahid Beheshti Intl
32.767,-97.45,64.2,0.00,Fort Worth Naval Air Station Jrb/Carswell Field
32.782,-98.06,64.9,0.00,Mineral Wells Airport
32.783,22.583,65.8,0.00,Derna
32.783,119.45,58.6,0.04,Gaoyou
32.8,21.883,58.3,0.00,Shahat
32.817,130.7,65.1,0.39,Kumamoto
32.819,-97.361,64.6,0.00,Fort Worth Meacham
32.834,-115.579,78.3,0.00,Imperial Co
32.837,130.855,63.8,0.00,Kumamoto
32.85,-106.1,61.8,0.12,Holloman Afb
32.85,-79.95,67.4,0.00,Charleston Nas
32.85,117.3,60.6,0.00,Bengbu
32.85,120.283,56.1,0.04,Dongtai
32.852,-96.856,65.2,0.83,Dallas Love Field Airport
32.867,-117.133,62.3,0.00,San Diego Miramar Nas
32.867,115.733,62.3,0.00,Fuyang
32.883,-112.717,85.3,0.00,Gila Bend Af Aux
32.898,-97.019,64.6,0.00,Dallas/Ft Worth International Ap
32.898,59.266,81.1,0.00,Birjand
32.899,-80.041,65.6,0.00,Charleston Afb/International Airport
32.9,95.3,36.1,0.00,Zadoi
32.917,129.914,62.7,0.00,Nagasaki
32.933,113.917,64.4,0.31,Zhumadian
32.967,35.5,53.6,0.00,Har-Knaan (Zefat)
33.017,96.95,42.8,0.00,Yushu
33.023,-118.588,58.1,0.00,Nalf/F. Sherman Fld Arpt
33.033,40.283,58.6,0.00,Rutbah
33.067,107.033,64.8,0.88,Hanzhong
33.068,6.089,80.6,0.00,Sidi Mahdi / Nesrat Hachani
33.073,-16.35,61.7,0.00,Porto Santo
33.1,112.483,65.9,0.00,Nanyang
33.115,139.786,69.3,0.00,Hachijojima
33.117,139.783,68.2,0.00,Hachijojima
33.2,126.267,57.9,0.00,Mosulpo (Kor-Afb)
33.212,-87.616,59.6,0.00,Tuscaloosa Municipal Arpt
33.221,-92.814,61.9,0.00,S. Ar Rgnl At Gdwin Fld Ap
33.233,131.617,62.4,0.35,Oita
33.237,-107.268,55.8,0.67,Nogales (Amos)
33.24,-119.458,58.9,0.04,San Nicolas Island Naval Outlying Field
33.25,126.567,60.6,0.00,Seogwipo
33.25,134.183,65.5,0.35,Murotomisaki
33.267,44.233,65.8,0.00,Baghdad Intl Airport
33.3,-117.35,65.8,0.00,Marine Corps Air Station
33.3,-111.667,77.4,0.00,Williams Gateway Airport
33.308,-104.508,63.7,0.00,Roswell International Air Center Ap
33.317,130.417,68.3,0.00,Metabaru (Jasdf)
33.333,118.667,59.0,0.00,Hongze Hu (Lake)
33.35,10.483,77.0,0.00,Medenine
33.364,-81.963,61.9,0.00,Augusta Regional At Bush Field Ap
33.367,-7.59,64.7,0.00,Mohammed V
33.4,104.917,63.5,0.63,Wudu
33.412,36.516,57.1,0.00,Damascus Intl
33.417,109.15,59.5,0.04,Chen-An
33.428,-112.004,82.4,0.00,Phoenix Sky Harbor Intl Airport
33.45,108.25,56.9,0.98,Wen-Huang-Ping
33.45,135.75,64.4,0.00,Shionomisaki
33.456,-93.988,62.7,0.00,Texarkana Regional Airport-Webb Field
33.467,101.483,39.5,0.00,Jigzhi
33.479,131.737,60.9,0.00,Oita
33.483,-90.985,63.7,0.00,Mid Delta Rgnl
33.483,-77.583,65.5,0.00,Frying Pan Shoals   Nc.
33.496,-90.087,62.0,0.00,Greenwood Leflore
33.511,126.493,53.6,0.00,Jeju Intl
33.517,126.533,54.4,0.00,Jeju
33.533,68.417,66.7,0.00,Ghazni
33.533,110.883,68.5,0.00,Shang-Nan
33.546,133.669,66.2,0.00,Kochi
33.55,-112.367,79.6,0.00,Luke Afb Airport
33.557,-7.66,65.4,0.00,Anfa
33.566,-86.745,58.8,0.00,Birmingham International Airport
33.567,133.55,66.2,1.93,Kochi
33.583,102.967,47.1,0.00,Ruo'Ergai
33.583,130.383,63.3,1.14,Fukuoka
33.586,130.451,62.7,0.00,Fukuoka
33.587,-85.856,60.0,0.00,Anniston Metropolitan Arpt
33.6,-102.05,61.1,0.00,Reese Afb/Lubbock
33.6,119.033,58.5,0.00,Qingjiang
33.617,73.099,78.8,0.00,Chaklala
33.619,-114.714,81.6,0.00,Blythe Airport
33.627,-116.159,81.5,0.00,Desert Resorts Rgnl Arpt
33.63,-84.442,57.3,0.00,Hartsfield-Jackson Atlanta Intl Ap
33.633,-95.45,62.2,0.00,Cox Fld
33.65,-88.45,59.5,0.00,Columbus Afb Airport
33.662,135.364,64.1,0.00,Nanki Shirahama
33.666,-101.823,60.3,0.00,Lubbock International Airport
33.667,-117.733,62.8,0.00,El Toro Mcas
33.68,-117.866,66.2,0.00,J. Wayne Apt-Orange Co Apt
33.683,-78.933,67.2,0.04,Myrtle Beach Intl Airport
33.685,131.04,62.1,0.00,Tsuiki
33.7,-117.833,62.4,0.00,Tustin Mcaf
33.717,1.083,67.1,0.00,El-Bayadh
33.749,129.785,62.6,0.00,Iki
33.75,99.65,36.7,0.00,Darlag
33.75,105.75,60.5,1.61,Cheng-Xian
33.75,120.3,55.2,0.00,Sheyang
33.767,-118.167,63.2,0.00,Long Beach
33.783,114.517,64.0,0.00,Xihua
33.783,115.733,61.9,0.00,Boxian
33.8,97.133,32.8,0.00,Qingshui-He
33.812,-118.146,63.7,0.00,Long Beach / Daugherty Field / Airport
33.816,-78.72,66.5,0.00,Grand Strand Airport
33.817,-106.667,63.3,0.00,Stallion Aaf  Nm
33.821,35.488,61.3,0.00,Rafic Hariri Intl
33.827,132.7,63.9,0.00,Matsuyama
33.836,130.947,65.0,0.00,Kitakyushu
33.85,132.783,63.7,1.18,Matsuyama
33.875,10.775,71.1,0.00,Zarzis / Djerba
33.877,10.103,70.8,0.00,Gabes / Matmata
33.879,-5.515,67.7,0.00,Bassatine
33.88,-78.02,69.9,0.00,South Port / Oak Island Coast Gu
33.883,67.95,53.2,0.00,Okak
33.883,130.653,63.0,0.00,Ashiya
33.9,-117.25,63.7,0.00,March Air Reserve Base
33.9,117.95,62.6,0.00,Suining
33.917,-84.517,59.4,0.00,Dobbins Air Reserve Base Airport
33.917,109.95,61.7,0.00,Shangxian
33.921,-80.801,68.9,0.00,Mc Entire Jngb
33.927,-4.978,70.2,0.00,Saiss
33.93,131.279,64.6,0.00,Yamaguchi Ube
33.933,-116.967,69.5,0.00,Beaumont
33.938,-118.389,62.6,0.28,Los Angeles International Airport
33.94,8.111,81.1,0.00,Nefta
33.942,-81.118,62.5,0.00,Columbia Metropolitan Airport
33.948,-83.328,59.9,0.08,Athens/Ben Epps Airport
33.95,130.933,60.8,2.48,Shimonoseki
33.967,-80.467,65.0,0.00,Shaw Air Force Base
33.967,113.217,67.1,0.00,Jiaxian
33.979,-98.493,58.7,0.00,Sheppard Afb/Wichita Falls Muni Ap
34.0,113.967,66.2,0.00,Xuchang
34.0,134.633,65.5,0.00,Komatsujima (Jasdf)
34.02,-119.75,57.0,0.00,Santa Cruz Island
34.035,131.549,62.7,0.00,Hofu
34.045,131.052,63.4,0.00,Ozuki
34.051,-6.752,62.1,0.00,Rabat Sale Intl
34.067,-117.65,65.7,0.00,Ontario
34.067,134.567,66.2,0.43,Tokushima
34.067,136.2,65.8,0.20,Owase
34.074,139.56,70.5,0.00,Miyakejima
34.083,74.833,57.8,0.00,Srinagar
34.083,111.067,64.4,0.00,Lushi
34.095,-117.235,61.6,0.00,San Bernardino International Airport
34.1,-105.667,56.6,0.39,Corona / Lincoln
34.1,95.033,35.1,0.00,Bie-Li-Xi-Du
34.1,102.617,45.0,0.08,Lang-Mu-Si
34.117,-119.117,58.2,0.06,Point Mugu
34.117,139.517,68.9,0.51,Miyakejima
34.133,42.35,63.5,0.00,Hadithah
34.133,95.783,35.9,0.00,Qumarleb
34.133,134.607,65.2,0.00,Tokushima
34.138,49.847,51.3,0.00,Arak
34.15,112.1,63.0,0.04,Tien-Hu
34.15,132.233,65.2,0.00,Iwakuni
34.18,-91.934,60.9,0.00,Grider Field Airport
34.188,-79.731,65.9,0.01,Florence Regional Airport
34.198,129.292,57.4,3.39,Izuhara
34.201,-118.358,66.4,0.00,Burbank-Glendale-Pasa Arpt
34.21,-118.489,67.2,0.00,Van Nuys Airport
34.21,62.228,78.3,0.00,Herat / Khwaja Abdullah Ansari Intl
34.214,134.016,64.3,0.00,Takamatsu
34.217,-4.0,69.6,0.00,Taza
34.217,92.433,29.3,0.00,Tuotuohe
34.233,-118.067,61.8,0.00,Mount Wilson
34.233,135.167,66.7,0.55,Wakayama
34.257,-111.339,62.0,0.00,Payson
34.262,-88.771,60.2,0.00,Tupelo C D Lemons Arpt
34.268,-77.9,66.2,0.00,Wilmington New Hanover County
34.283,117.15,63.2,0.04,Xuzhou
34.3,-97.017,60.9,0.00,Ardmore Municipal
34.3,-6.6,61.7,0.00,Kenitra (Rmaf)
34.3,129.3,61.3,0.00,Tsushima
34.317,134.05,64.0,1.06,Takamatsu
34.346,47.158,46.0,0.00,Shahid Ashrafi Esfahani
34.35,107.133,58.0,0.87,Baoji
34.367,41.95,64.4,0.00,Anah
34.383,-103.317,61.0,0.00,Cannon Afb Airport
34.4,115.633,62.2,0.00,Shangqiu
34.4,132.467,63.5,3.11,Hiroshima
34.417,116.333,61.7,0.00,Tang-Shan
34.422,8.823,73.4,0.00,Gafsa
34.426,-119.843,60.8,0.00,Santa Barbara Municipal Airport
34.427,-100.283,60.3,0.00,Childress Municipal Ap
34.436,132.919,64.3,0.00,Hiroshima
34.447,108.752,62.6,0.00,Xianyang
34.467,-93.083,60.1,0.00,Memorial Fld
34.483,110.083,45.4,0.16,Hua Shan
34.498,-82.71,62.0,0.00,Anderson Rgnl
34.5,66.3,52.7,0.00,Lal
34.5,98.883,34.7,0.04,Unknown
34.52,113.841,65.8,0.00,Xinzheng
34.533,108.233,60.8,0.00,Qian-Xian
34.533,136.683,59.3,0.00,Akeno (Jasdf)
34.566,69.212,62.6,0.00,Kabul Intl
34.567,-120.667,54.9,0.00,Point Arguello(Cgs)
34.583,-117.383,69.0,0.00,Southern California Logistics Airport
34.583,105.75,53.1,0.67,Tianshui
34.59,32.988,62.8,0.00,Akrotiri
34.596,135.603,65.5,0.00,Yao
34.6,-76.53,65.0,0.00,Cape Lookout Coast Guard Station
34.6,138.217,62.9,0.16,Omaezaki
34.644,-86.787,58.4,0.08,Huntsville Intl/C.T.Jones Field Airport
34.65,-99.267,58.9,0.00,Altus Afb Airport
34.65,-98.4,59.6,0.00,Henry Post Aaf Airport
34.652,-112.421,58.9,0.00,Prescott Municipal Ap
34.667,112.417,66.2,0.00,Luo-Yang
34.683,3.25,63.0,0.00,Djelfa/Tletsi
34.683,135.517,65.1,1.06,Osaka
34.7,135.217,63.5,2.44,Kobe
34.708,-77.44,65.9,0.00,Jacksonville
34.717,104.883,45.4,0.04,Wu-Shan
34.718,10.691,69.4,0.00,Thyna
34.718,32.486,62.0,0.00,Pafos Intl
34.727,-92.239,58.3,0.28,Little Rock Adams Field
34.733,101.6,41.0,0.00,Henan
34.733,127.75,61.5,0.00,Yeosu
34.741,-118.212,68.6,0.00,General William J. Fox Airfield Airport
34.744,-118.724,56.3,0.00,Sandberg
34.744,-87.6,58.0,0.12,North West Alabama Regional Airport
34.75,-120.567,61.8,0.00,Vandenberg Afb
34.75,114.417,65.3,0.00,Kaifeng
34.75,137.703,63.1,0.00,Hamamatsu
34.75,139.367,63.3,0.00,Oshima
34.757,133.855,62.4,0.00,Okayama
34.768,-114.619,83.3,0.00,Needles Airport
34.782,139.36,64.9,0.00,Oshima
34.786,135.438,62.9,0.00,Osaka Intl
34.787,-1.924,64.6,0.00,Angads
34.793,5.738,82.4,0.00,Biskra / Mohamed Khider
34.8,107.867,53.9,0.51,Cui-Mu
34.8,138.183,56.7,0.00,Shizuoka Airport
34.813,138.298,65.3,0.00,Shizuhama
34.817,36.133,57.2,0.00,Safita
34.817,67.817,61.3,0.00,Bamyan
34.817,126.383,51.4,0.00,Mokpo
34.833,-92.25,55.0,0.24,Little Rock Wsfo
34.85,119.133,55.7,0.00,Ganyu
34.85,128.433,57.9,0.00,Tongyeong
34.854,-116.786,76.5,0.00,Barstow-Daggett Airport
34.875,33.625,61.0,0.00,Larnaka Intl
34.882,-95.783,56.0,0.00,Mc Alester Regional Arpt
34.883,65.3,63.1,0.00,Ghelmeen
34.899,-120.449,58.9,0.00,Santa Maria Pub/Capt G A Hancock Ap
34.9,-117.867,73.1,0.00,Edwards Air Force Base
34.9,-76.883,65.0,0.87,Cherry Point Mcas
34.9,132.067,59.5,1.30,Hamada
34.906,-82.213,56.1,0.00,Greenville-Spartanburg Intl Airport
34.917,-92.15,58.8,0.08,Little Rock Afb Airport
34.917,-81.95,63.7,0.00,Spartanburg Downtown Memorial Airport
34.917,98.217,32.0,0.00,Madoi
34.983,-78.883,63.2,0.00,Fayetteville Rgnl G
34.983,139.867,66.7,0.02,Tateyama
34.987,139.829,66.8,0.00,Tateyama
34.989,-99.053,58.1,0.00,Hobart Municipal Airport
35.0,102.9,39.2,0.02,Hezuo
35.017,-1.333,70.1,0.00,Tlemcen/Zenata
35.017,135.733,62.2,0.39,Kyoto
35.028,-110.721,60.0,0.00,Winslow-Lindbergh Regional Airport
35.033,101.467,35.6,0.16,Son-Ag
35.034,-85.2,57.7,0.01,Lovell Field Airport
35.042,-106.616,58.9,0.00,Albuquerque Intl Sunport Airport
35.05,118.35,61.2,0.00,Linyi
35.056,-89.987,59.0,0.08,Memphis International Airport
35.068,-77.048,64.5,0.51,Craven County Reg Airport
35.083,33.9,62.0,0.00,Ayios Nicolaos
35.083,128.083,62.1,0.00,Sacheon Ab
35.1,129.033,55.6,0.00,Busan
35.117,36.75,57.7,0.00,Hama
35.117,111.067,64.2,0.32,Yuncheng
35.12,-75.98,63.7,0.00,Oracoke Coast Guard Station
35.126,126.809,54.7,0.00,Gwangju
35.133,-78.933,64.5,0.08,Simmons Aaf Airport
35.133,69.25,72.1,0.00,Jabul-Saraj
35.133,128.7,59.0,0.00,Chinhae (Kor-Army)
35.144,-111.666,50.7,0.00,Flagstaff Pulliam Arpt
35.15,-75.3,69.3,0.00,Diamond Shoals Coast Guard Stati
35.167,109.05,54.9,2.32,Tongchuan
35.167,126.9,55.2,0.00,Gwangju
35.167,128.033,63.3,0.00,Jinju
35.167,136.967,60.3,0.94,Nagoya
35.174,-79.009,63.9,0.00,Pope Afb Airport
35.177,-3.84,63.5,0.00,Cherif El Idrissi
35.18,128.938,57.4,0.00,Gimhae Intl
35.182,-103.603,59.8,0.12,Tucumcari Municipal Arpt
35.2,48.683,43.5,0.00,Nowjeh
35.217,93.083,25.8,0.04,Wudaoliang
35.224,-80.955,57.2,0.24,Charlotte/Douglas International Ap
35.23,-101.704,58.9,0.00,Amarillo Rick Husband Intl Airport
35.233,-75.622,66.5,1.18,Cape Hatteras
35.247,47.009,46.0,0.00,Sanandaj
35.25,-113.933,69.6,0.00,Kingman (Amos)    &
35.25,115.433,64.4,0.00,Heze/Caozhou
35.255,136.924,60.6,0.00,Nagoya
35.267,-117.433,81.3,0.00,Cuddleback Gunnery
35.267,100.65,40.1,0.00,Tongde
35.28,-2.956,65.0,0.00,Melilla
35.283,62.35,68.0,0.00,Gyshgy
35.283,139.667,65.1,0.00,Yokosuka Naval Station
35.317,-77.633,66.9,0.00,Kinston Regional Jetport At Stalling Field
35.317,69.017,44.2,0.00,North-Salang
35.317,138.867,56.5,0.00,Fuji (Jasdf)
35.333,-99.2,65.2,0.00,Clinton-Sherman
35.333,-94.363,55.3,0.00,Fort Smith Regional Airport
35.34,25.18,63.6,0.00,Nikos Kazantzakis
35.344,-77.965,63.8,0.08,Seymour-Johnson Afb Airport
35.35,-89.867,57.6,0.20,Memphis Nas
35.383,105.0,34.5,0.98,Huajialing
35.389,-97.601,55.8,0.00,Will Rogers World Airport
35.394,136.87,59.3,0.00,Gifu
35.4,139.917,64.7,0.00,Kisarazu
35.414,132.89,61.0,0.00,Izumo
35.417,-97.383,58.1,0.00,Tinker Afb Airport
35.432,-82.538,53.3,0.04,Asheville Regional Airport
35.433,119.533,54.9,0.04,Rizhao
35.433,139.65,65.3,0.00,Yokohama
35.434,-119.054,71.1,0.00,Meadows Field Airport
35.45,133.067,58.6,1.06,Matsue
35.45,135.317,61.3,0.43,Maizuru
35.45,139.45,66.5,0.00,Atsugi Nas
35.467,102.983,44.2,0.59,Linxia
35.469,44.349,59.4,0.00,Kirkuk Ab
35.483,112.4,59.5,0.00,Yangcheng
35.483,134.233,58.1,0.31,Tottori
35.492,133.236,59.4,0.00,Miho
35.498,12.618,63.7,0.00,Lampedusa
35.514,-108.794,51.8,0.00,Gallup Municipal Airport
35.514,139.394,65.5,0.08,Kastner Aaf / Camp Zama Japan
35.517,137.817,58.1,0.63,Iida
35.53,134.167,63.3,0.00,Tottori
35.532,24.15,65.5,0.00,Souda
35.533,24.15,68.1,0.00,Souda Bay Crete
35.55,45.45,48.2,0.00,Sulymaniyah
35.55,106.667,44.1,0.63,Pingliang
35.55,118.75,58.1,0.00,Juxian
35.552,139.78,66.4,0.00,Tokyo Intl
35.567,116.85,64.1,0.00,Yanzhou
35.593,-88.917,56.1,0.31,Mckellar-Sipes Rgnl Arpt
35.593,129.352,54.9,0.00,Ulsan
35.617,-106.089,51.7,0.00,Santa Fe Municipal Airport
35.624,-0.621,63.5,0.00,Es Senia / Ahmed Benbella
35.654,-105.142,47.8,0.47,Las Vegas Municipal Arpt
35.667,-75.9,63.2,0.00,Dare County Gunnery Range  Nc.
35.667,10.1,70.5,0.00,Kairouan
35.667,10.75,66.2,0.00,Monastir-Skanes
35.667,138.55,65.1,0.00,Kofu
35.67,-120.628,56.5,0.39,Paso Robles Municipal Arpt
35.683,139.767,66.9,0.00,Tokyo
35.688,-117.693,75.3,0.00,China Lake
35.689,51.313,59.3,0.00,Mehrabad Intl
35.7,139.4,65.4,0.00,Tachikawa (Jasdf)
35.727,-5.917,65.2,0.00,Tanger Ibn Batouta Intl
35.733,107.633,42.3,0.08,Xifengzhen
35.733,140.85,61.7,0.08,Choshi
35.743,-81.382,55.9,0.00,Hickory Rgnl
35.748,139.348,63.0,0.04,Yokota Ab
35.75,99.983,44.6,0.04,Xinghai
35.75,109.417,46.4,0.00,Luo-Chuan
35.752,6.309,67.6,0.00,Batna / Mostepha Ben Boulaid
35.77,-75.52,65.0,0.00,Oregon Inlet Coast Guard Station
35.799,140.011,64.6,0.00,Shimofusa
35.818,-83.986,57.4,0.02,Mc Ghee Tyson Airport
35.833,-90.633,57.7,0.08,Jonesboro Muni
35.833,127.117,52.7,0.00,Jeonju
35.842,139.411,63.4,0.00,Iruma
35.85,128.583,64.0,2.20,Camp Walker (H-805)
35.857,14.478,62.1,0.00,Luqa
35.883,0.117,66.7,0.00,Mostaganem
35.883,128.617,62.6,0.00,Taegu Acc (Kor-Afb)
35.889,-5.347,62.6,0.00,Ceuta
35.892,-78.782,59.8,0.04,Raleigh-Durham International Ap
35.894,128.659,62.8,0.00,Daegu Ab
35.917,126.617,53.4,0.08,Kunsan Ab
35.933,64.767,89.2,0.00,Mimana
35.95,-112.15,63.2,0.00,Grand Canyon Park
35.95,62.917,82.4,0.00,Tagtabazar
35.951,-85.081,52.6,0.12,Crossville Mem Whit
35.967,-89.95,56.4,0.16,Arkansas International Airport
35.967,120.483,53.2,0.08,Flashing Light
35.988,129.42,54.9,0.00,Pohang Gyeongju
36.0,-89.409,57.3,0.39,Dyersburg Municipal Arpt
36.0,-5.6,65.1,0.00,Tarifa
36.002,126.763,51.1,0.00,Gunsan
36.01,-94.169,50.3,0.00,Drake Field Airport
36.017,-102.55,59.0,0.00,Dalhart Municipal
36.017,106.283,38.8,0.87,Guyuan
36.033,101.433,49.1,0.20,Hey-In
36.033,129.383,55.4,0.00,Pohang
36.033,140.2,64.4,0.00,Kasumigaura (Jasdf)
36.05,103.883,46.2,0.59,Lanzhou
36.05,114.133,60.8,0.04,Anyang
36.072,-115.163,78.3,0.00,Mccarran International Airport
36.097,-79.943,57.3,0.00,Piedmont Triad International Airport
36.117,128.317,58.2,0.00,Gumi
36.119,-86.689,55.3,0.31,Nashville International Airport
36.151,-5.35,63.0,0.00,Gibraltar
36.181,37.224,56.8,0.00,Aleppo Intl
36.181,140.415,64.4,0.00,Hyakuri
36.183,118.15,61.1,0.00,Yiyuan
36.199,-95.887,56.1,0.00,Tulsa International Airport
36.2,133.333,53.2,0.87,Saigo
36.217,127.983,56.5,0.02,Chupungnyeong
36.233,115.667,60.8,0.00,Xinxian
36.235,59.641,77.4,0.00,Mashhad Intl / Shahid Hashemi Nejad Intl
36.24,50.047,51.8,0.00,Ghazvin
36.25,117.1,47.9,0.00,Tai Shan
36.25,137.967,58.8,0.43,Matsumoto
36.261,-76.175,63.1,1.18,Monroe Co
36.266,120.374,53.6,0.08,Liuting / Qingdao Intl
36.267,-93.157,53.1,0.00,Boone Co
36.267,121.383,53.2,0.00,Qian-Li Island
36.274,23.017,58.1,0.00,Kithira / Alexandros Aristotelous Onassis
36.276,6.62,61.7,0.00,Mohamed Boudiaf Intl
36.297,-99.769,56.0,0.00,Gage/Shattuck
36.3,2.233,72.1,0.00,Miliana
36.3,98.1,42.0,0.00,Doulan
36.3,127.4,54.9,0.02,Taejon
36.306,43.147,55.4,0.00,Mosul
36.333,-119.95,65.7,0.00,Naval Air Station
36.333,-97.917,55.7,0.00,Vance Afb
36.333,102.833,45.5,0.04,Minhe
36.35,100.783,46.9,0.00,Gonghe
36.383,33.933,62.4,0.00,Silifke
36.383,44.2,46.4,0.00,Sallahdeen
36.383,140.467,61.7,0.00,Mito
36.395,136.407,58.6,0.00,Komatsu
36.4,139.067,62.4,0.28,Maebashi
36.405,28.086,62.1,0.00,Diagoras
36.417,94.9,46.6,0.00,Golmud
36.449,-103.154,55.5,0.00,Clayton Municipal Airpark
36.45,96.467,47.9,0.00,Nuo-Mu-Hong
36.467,-6.2,70.2,0.00,San Fernando
36.473,-82.404,53.8,0.02,Bristol Tri City Airport
36.483,8.8,62.8,0.00,Jendouba
36.515,139.871,64.7,0.00,Utsunomiya
36.517,126.317,56.9,0.08,Anmyeondo
36.533,61.217,73.7,0.00,Saragt
36.55,106.15,41.9,0.83,Qi-Ying
36.55,139.867,57.7,0.28,Utsunomiya
36.573,-79.335,61.1,0.01,Danville Regional Airport
36.583,-121.833,55.3,0.00,Monterey Peninsula
36.583,104.683,44.3,0.59,Jingyuan
36.583,136.633,61.0,1.57,Kanazawa
36.6,109.5,46.4,0.71,Yan An
36.617,101.767,44.8,0.00,Xining / Caojiapu
36.632,128.355,58.5,0.20,Yecheon
36.633,127.45,55.4,0.02,Cheongju
36.648,137.188,63.4,0.00,Toyama
36.65,-6.35,66.9,0.00,Rota Naval Air Station
36.664,-121.608,53.5,0.00,Salinas Muni
36.667,-87.483,51.6,0.00,Campbell Aaf Airport
36.667,65.717,81.5,0.00,Shebirghan
36.667,138.2,59.0,0.04,Nagano
36.675,-4.499,62.2,0.00,Malaga
36.683,-121.767,58.6,0.00,Fritzsche Aaf
36.683,15.133,61.4,0.00,Cozzo Spadaro
36.683,116.983,63.5,0.00,Jinan/Tsinan
36.691,3.215,62.1,0.00,Houari Boumediene
36.7,38.95,53.6,0.00,Tel Abiadh
36.7,110.933,50.0,0.04,Xi-Xian
36.707,67.21,75.6,0.00,Mazar I Sharif / Mawlana Jalaluddin Muhammad Balkhi
36.717,52.65,59.9,0.00,Babulsar
36.717,137.2,59.5,0.59,Toyama
36.733,24.433,62.2,0.00,Milos
36.737,-97.102,50.5,0.00,Ponca City Muni
36.744,-108.229,53.5,0.00,Four Corners Regional Arpt
36.745,-6.06,69.4,0.00,Jerez
36.767,-96.017,57.8,0.00,Bartlesville Muni
36.767,107.2,42.2,0.24,Hung-Te
36.767,119.183,58.1,0.00,Weifang
36.767,121.167,55.7,0.12,Haiyang
36.767,126.5,49.2,0.00,Seosan
36.774,48.359,45.0,0.00,Zanjan
36.78,-119.719,68.1,0.00,Fresno Yosemite International Airport
36.783,99.083,42.5,0.01,Cha-Ka
36.817,-76.033,63.1,0.12,Oceana Nas
36.817,11.969,61.9,0.00,Pantelleria
36.822,7.809,62.7,0.00,Annaba / Rabah Bitat
36.833,21.7,59.2,0.00,Methoni
36.844,-2.37,67.8,0.00,Almeria
36.85,11.083,65.2,0.00,Kelibia
36.851,10.227,65.9,0.00,Carthage
36.867,81.7,53.6,0.00,Yutian/Keriya
36.867,118.333,61.7,0.04,Lin-Zi
36.899,30.8,61.7,0.00,Antalya
36.9,-75.72,60.0,0.00,Norfolk / Chesapeak
36.903,-76.192,63.1,0.08,Norfolk International Airport
36.909,54.401,66.2,0.00,Gorgan
36.917,-94.017,49.6,0.00,Monette
36.93,-76.0,61.8,0.00,Cape Henry Coast Guard Light Sta
36.933,-111.45,67.5,0.00,Page Muni (Amos)  &
36.933,6.95,65.1,0.00,Skikda
36.933,126.45,50.1,0.00,Mangilsan
36.937,-76.289,63.3,0.20,Norfolk Nas
36.95,-116.05,65.0,0.00,Yucca Flats Test S T
36.95,140.9,57.2,0.08,Onahama
36.965,-86.424,52.6,0.16,Bow Grn-Warren Co. Rgnl Ap
36.967,127.033,52.9,0.51,A 511 / Desiderio Aaf-Pyeongtaek / Camp Humphreys Rok
36.971,-25.171,64.4,0.00,Santa Maria
36.98,8.877,61.9,0.00,Tabarka 7 Novembre / Ain Draham
36.983,35.283,61.2,0.00,Adana Civil
36.983,68.033,72.1,0.00,Ajvadz
36.983,120.65,58.6,0.00,Laiyang
37.0,-8.95,62.4,0.00,Sagres
37.0,35.417,60.4,0.00,Incirlik Ab
37.014,-7.966,65.4,0.00,Faro
37.033,-100.95,65.0,0.00,Liberal Muni
37.033,111.917,52.6,0.21,Jiexiu
37.056,-88.774,55.2,0.12,Paducah Barkley Field
37.067,82.717,54.3,0.00,Minfeng
37.067,92.867,43.8,0.00,T'A-Erh-Ting
37.067,112.983,53.1,0.04,Yushe
37.083,-76.36,61.6,0.01,Langley Afb Airport
37.083,14.217,59.8,0.00,Gela
37.087,-84.077,51.2,0.01,Cape Girardeau Rgnl
37.091,127.03,55.0,0.00,Osan Ab
37.1,25.367,61.7,0.00,Naxos
37.1,138.25,61.9,0.12,Takada
37.117,70.517,71.9,0.00,Feyzabad
37.133,-76.6,62.1,0.16,Felker Army Airfield
37.133,-76.483,61.0,0.55,Newport News Willia
37.133,79.933,53.0,0.00,Hotan
37.133,104.217,38.3,0.08,Ching-T'Ai
37.133,109.65,44.6,0.00,Zi-Chang
37.15,108.383,41.3,0.12,Pin-Kou-Men
37.152,-94.495,51.7,0.00,Joplin Regional Airport
37.175,-5.616,77.2,0.00,Moron Ab
37.18,-122.4,13.0,0.00,Pigeon Point Coast Guard Light S
37.183,114.367,59.6,0.12,Xingtai
37.189,-3.777,67.9,0.00,Granada
37.2,102.867,25.7,0.00,Wushaoling
37.217,28.367,56.4,0.00,Mugla
37.225,-89.571,53.8,0.00,Cape Girardeau Rgnl
37.239,127.007,53.2,0.00,Suwon
37.24,-93.39,50.0,0.00,Springfield-Branson Regional Airport
37.245,9.791,63.5,0.00,Sidi Ahmed Air Base
37.262,-104.338,52.6,0.00,Perry Stokes Airport
37.267,126.983,52.7,0.00,Suwon
37.283,-6.917,72.7,0.00,Huelva
37.287,67.31,74.4,0.00,Termez
37.296,-81.208,49.8,0.01,Mercer Co
37.3,-108.633,63.6,0.00,Cortez Muni
37.317,-79.974,55.8,0.00,Roanoke Regional/Woodrum Field Ap
37.321,-79.207,56.8,0.04,Lynchburg Rgnl/Preston Glenn Fld Ap
37.333,100.133,34.9,0.12,Gangca
37.35,59.633,71.2,0.00,Kaka
37.35,126.917,53.0,0.00,Sv Ri San
37.359,-121.924,65.1,0.00,N Y. Mineta Sn Jo Intl Apt
37.367,-6.0,73.0,0.00,Sevilla/Tablada
37.367,97.367,46.7,0.00,Delingha
37.367,101.617,38.6,0.00,Hao-Men
37.367,115.383,62.6,0.00,Nangong
37.371,-118.358,68.0,0.00,Bishop Airport
37.383,-120.567,63.6,0.00,Castle Afb
37.383,60.517,74.1,0.00,Tedzhen
37.383,136.9,55.4,0.12,Wajima
37.4,-121.133,71.9,0.00,Crows Landing
37.4,14.917,64.2,0.00,Catania/Sigonella
37.4,122.683,52.3,0.00,Chengshantou
37.406,-122.048,65.2,0.00,Moffett Federal Airfield
37.418,-5.893,69.9,0.00,Sevilla
37.433,116.317,61.6,0.00,Dezhou
37.439,-105.861,46.1,0.00,San Luis Valley Regional Airport
37.446,127.114,54.5,0.31,Seoul Ab
37.45,122.033,53.1,0.16,Weihai
37.467,15.066,61.5,0.00,Catania Fontanarossa
37.467,49.467,59.0,0.00,Anzali
37.467,53.967,60.8,0.08,Esenguly
37.467,110.25,46.9,0.08,Suide
37.467,126.633,52.2,0.00,Incheon
37.48,-76.32,64.3,0.00,Milford Haven Coast Guard Statio
37.483,-82.517,56.0,0.00,Pikeville (Ramos)
37.483,69.383,74.8,0.00,Parkhar
37.483,105.683,41.0,0.35,Zhongning
37.483,130.9,50.5,0.00,Ulleungdo
37.483,139.917,54.9,0.04,Wakamatsu
37.5,71.5,57.2,0.02,Khorog
37.5,111.1,48.7,0.67,Lishi
37.5,117.533,59.5,0.00,Huimin
37.5,129.133,58.6,4.02,Donghae Radar
37.512,-77.323,62.0,0.20,Richmond International Airport
37.517,66.017,78.3,0.00,Carsanga
37.522,126.979,58.2,4.21,H 264 Heliport
37.53,-75.62,60.1,0.00,Parramore Beach
37.531,22.404,58.8,0.00,Tripolis
37.533,126.967,53.6,0.00,Sinyongsan
37.55,118.733,58.5,0.00,Yongan
37.558,126.791,55.3,0.00,Gimpo
37.567,126.967,54.5,0.00,Seoul City
37.6,62.183,79.1,0.00,Bajramaly
37.617,-109.467,57.0,0.00,Blanding
37.617,-97.267,55.8,0.00,Mcconnell Afb Airport
37.617,54.783,65.9,0.00,Gyzyletrek
37.617,78.283,50.9,0.02,Pishan
37.617,120.317,53.9,0.00,Longkou
37.62,-122.365,58.7,0.00,San Francisco International Airport
37.624,-120.951,67.2,0.00,Mdsto Cty-Co H Sham Fd Apt
37.648,-97.43,53.5,0.00,Wichita Eisenhower National
37.67,-95.484,53.5,0.00,Chanute Martin Johnson Apt
37.706,-112.146,58.0,0.00,Bryce Canyon Airport
37.709,-113.094,62.5,0.00,Cedar City Regional Arpt
37.721,-122.221,62.4,0.02,Metro Oakland Intl Airport
37.733,-122.317,60.0,0.00,Alameda(Usn)
37.741,-25.698,62.6,0.00,Ponta Delgada
37.747,112.628,50.2,0.43,Wusu
37.75,-92.15,52.9,0.00,Waynesville Regional Airport At Forney Field
37.75,26.867,61.2,0.00,Samos Island
37.754,128.944,51.1,0.24,Gangneung
37.767,-89.25,57.6,0.00,Southern Illinois
37.767,140.467,53.6,0.04,Fukushima
37.769,-99.968,55.2,0.00,Dodge City Regional Airport
37.771,128.868,54.3,0.00,Gangneung
37.775,-0.812,64.4,0.00,Murcia San Javier
37.783,126.85,57.6,3.15,Yeongdongri
37.784,-81.123,46.1,0.04,Raleigh County Memorial Airport
37.785,30.582,52.0,0.00,Isparta
37.8,61.55,82.0,0.00,Chashkent
37.8,107.383,37.9,0.08,Yanchi
37.817,68.783,65.9,0.00,Kurgan-Tyube
37.817,113.567,54.0,0.00,Yangquan
37.833,65.2,79.1,0.00,Kerki Intl
37.842,-4.849,71.7,0.00,Cordoba
37.85,-122.42,9.4,0.00,Point Blunt Coast Guard Light St
37.85,95.367,40.8,0.00,Da-Qaidam
37.858,-80.399,49.7,0.00,Greenbrier Valley
37.882,23.735,65.7,0.00,Athinai
37.884,127.718,61.3,2.95,A 306
37.889,-121.226,65.4,0.00,Stockton Metropolitan Airport
37.894,40.201,52.8,0.00,Diyarbakir
37.9,-85.967,48.6,0.08,Godman Aaf Airport
37.9,127.733,57.0,0.00,Chuncheon
37.9,139.017,54.0,0.20,Niigata
37.911,12.488,59.7,0.00,Trapani Birgi
37.917,69.783,67.7,0.00,Kulyab
37.917,127.05,59.4,0.00,Camp Casey/Tongduch
37.921,21.293,60.5,0.00,Andravida
37.927,-100.725,55.1,0.00,Garden City Regional Arpt
37.933,83.65,52.2,0.00,Andir
37.933,124.667,48.7,0.00,Baengnyeongdo Ab
37.937,-75.466,57.6,0.67,Wallops Flight Facility Airport
37.95,-79.833,45.7,0.00,Ingalls Fld
37.95,128.317,62.2,0.00,Hyun Ni (Kor-Army)
37.95,139.117,57.8,0.00,Niigata Airport
37.951,-1.23,71.9,0.00,Alcantarilla
37.967,126.567,55.4,0.00,Kaesong
37.979,32.562,52.1,0.00,Konya
37.987,58.361,68.7,0.00,Ashgabat
38.033,125.7,54.5,0.00,Haeju
38.033,138.233,51.6,0.39,Aikawa
38.041,-84.606,48.8,0.20,Blue Grass Airport
38.044,-87.521,52.4,0.04,Evansville Regional Airport
38.049,-103.513,59.4,0.00,La Junta Municipal Airport
38.05,138.417,56.8,0.00,Sado
38.051,-117.09,60.2,0.00,Tonopah Airport
38.064,23.556,67.6,0.00,Elefsis
38.065,-97.861,57.4,0.00,Hutchinson Municipal Arpt
38.067,114.35,59.2,0.16,Shijiazhuang
38.071,15.652,66.0,0.00,Reggio Calabria
38.079,-7.932,66.7,0.00,Beja
38.083,-102.617,60.2,0.00,Lamar
38.083,62.8,81.8,0.00,Uchadzhy
38.131,-91.768,51.5,0.00,Rolla/Vichy Airport
38.134,46.235,47.5,0.00,Tabriz Intl
38.137,-78.455,59.0,0.00,Charlottesville Albemarle Arpt
38.14,140.917,48.5,0.00,Sendai
38.15,85.55,51.8,0.31,Qiemo/Qarqan
38.15,124.883,49.3,0.00,Ryongyon
38.167,72.633,40.1,0.00,Ihrt
38.167,120.783,53.9,0.00,Tuoji Island
38.176,13.091,65.8,0.00,Palermo
38.181,-85.739,50.7,0.01,Louisville Intl-Standiford Field Ap
38.2,15.55,64.2,0.00,Messina
38.228,-85.664,49.6,0.00,Bowman Field Airport
38.233,100.25,34.7,0.04,Babao
38.233,127.967,57.8,0.51,Wonju Ab
38.233,140.917,47.5,0.00,Kasuminome (Jasdf)
38.25,-78.05,66.4,0.00,Orange Co
38.25,66.833,61.2,0.00,Akrabat
38.25,90.85,34.7,0.00,Mangnai
38.25,140.35,51.4,0.24,Yamagata
38.251,128.565,48.9,0.00,Sokcho
38.267,-121.933,64.9,0.02,Travis Air Force Base
38.267,-78.9,59.3,0.00,Shenandoah Valley Rg
38.267,67.9,71.6,0.00,Denau
38.267,109.783,44.4,0.00,Yulin
38.267,140.9,48.7,0.16,Sendai
38.282,-0.558,63.0,0.00,Alicante
38.283,71.333,58.6,0.00,Humragi
38.289,-104.506,58.4,0.00,Pueblo Memorial Airport
38.3,-76.417,57.5,0.00,Naval Air Station
38.329,-96.195,51.8,0.00,Emporia Municipal Airport
38.33,-75.08,54.5,0.00,Ocean City
38.333,116.833,61.5,0.00,Cangzhou
38.341,-75.51,60.3,0.12,Salisbury Ocean Cit
38.365,-82.555,50.5,0.02,Tri-State/M.J.Fergus
38.371,-110.715,76.5,0.00,Hanksville
38.379,-81.59,48.4,0.04,Yeager Airport
38.38,-76.38,59.3,0.00,Cove Point Coast Guard Light Sta
38.383,117.35,61.2,0.04,Huanghua
38.405,141.22,48.7,0.00,Matsushima
38.412,140.371,49.2,0.00,Yamagata
38.417,-113.017,65.1,0.00,Milford Municipal Ap
38.417,127.283,51.1,0.00,Pyonggang
38.433,56.3,63.5,0.00,Garryqala
38.433,57.417,71.0,0.00,Bakherden
38.433,77.267,52.3,3.17,Shache
38.433,141.3,46.0,0.04,Ishinomaki
38.435,38.091,50.1,0.00,Erhac / Malatya
38.45,48.883,57.2,0.00,Astara
38.467,64.367,75.2,0.00,Byrdalyk
38.467,99.55,29.3,0.04,Yeh-Niu-Kou
38.467,102.183,34.1,0.10,Jin-Chang
38.468,43.332,40.7,0.14,Van
38.483,106.217,43.2,0.00,Yinchuan / Hedong
38.5,-107.883,51.5,0.00,Montrose
38.5,126.533,53.8,0.00,Singye
38.504,-77.305,61.5,0.00,Quantico Mcaf
38.507,-121.495,60.3,0.00,Sacramento Executive Airport
38.513,27.01,64.4,0.00,Cigli
38.517,-122.817,61.4,0.00,C M Schulz Sonoma Co
38.517,125.767,51.6,0.00,Sariwon
38.52,-28.716,63.6,0.00,Horta
38.533,-106.05,52.6,0.00,Salida/Alexander
38.534,-106.933,51.6,0.00,Gunnison Co. (Awos)
38.543,68.825,66.5,0.00,Dushanbe
38.55,-89.85,53.7,0.00,Scott Air Force Base/Midamerica Airport
38.567,-121.3,62.0,0.00,Mather Field
38.567,-7.9,71.6,0.00,Evora
38.583,-92.15,55.1,0.00,Jefferson City Mem
38.6,-106.92,39.7,0.00,Gunnison Aviation Weather Report
38.607,39.291,49.0,0.00,Elazig
38.617,55.183,64.0,0.00,Bekibent
38.62,-75.07,61.2,0.00,Indian River Coast Guard Station
38.633,103.083,40.8,0.28,Minqin
38.65,66.933,55.4,0.00,Minchukur
38.667,-121.4,63.0,0.00,Sacramento Mcclellan Afb
38.678,-104.757,60.9,0.00,Butts Aaf Airport
38.683,29.4,59.6,0.00,Usak
38.683,61.2,86.4,0.00,Cheshme
38.696,-121.59,63.2,0.00,Sacramento Intl Airport
38.7,13.183,58.7,0.00,Ustica Island
38.717,-93.55,52.7,0.00,Whiteman Afb Airport
38.717,-77.183,60.6,0.87,Davison Aaf Airport
38.717,125.383,51.6,0.02,Nampo
38.726,30.601,53.6,0.00,Afyon
38.733,48.833,54.8,0.47,Lankaran
38.733,115.483,61.8,0.08,Baoding
38.733,128.183,49.1,0.00,Changjon
38.75,58.467,73.4,0.00,Bokyrdak
38.75,112.7,52.4,0.00,Yuanping
38.753,-90.374,51.9,0.00,Lambert-St Louis International Ap
38.762,-27.091,68.3,0.00,Lajes
38.77,35.495,48.8,0.00,Erkilet / Kayseri
38.781,-9.136,62.7,0.00,Lisboa
38.8,-97.65,53.4,0.00,Salina Municipal Airport
38.8,98.417,27.6,0.14,Tuo-Le
38.8,101.083,35.6,0.16,Shan-Dan
38.809,27.834,58.4,0.00,Akhisar
38.81,-104.688,52.9,0.00,City Of Colorado Springs Municipal Ap
38.817,-92.218,49.2,0.00,Columbia Regional Airport
38.817,-76.867,56.7,0.55,Andrews Air Force Base Airport
38.833,93.383,41.0,0.00,Lenghu
38.833,105.533,41.0,0.04,Alxa Zuoqi/Bayan Ho
38.844,-94.56,51.6,0.00,Richard Gebaur
38.847,-77.035,60.4,1.18,Ronald Reagan Washington Natl Ap
38.873,1.373,63.7,0.00,Ibiza
38.876,-98.809,52.7,0.00,Russell Municipal Airport
38.883,-120.0,55.1,0.00,Lake Tahoe
38.883,22.433,70.7,0.00,Lamia
38.89,-79.855,48.1,0.16,Elkins-Rand Co-J.Rand Field Airport
38.891,-6.821,73.4,0.00,Talavera La Real / Badajoz
38.9,-76.43,54.7,0.00,Thomas Point Coast Guard Station
38.9,46.25,55.4,0.00,Megri
38.917,16.233,62.6,0.00,Lamezia Terme
38.917,72.167,35.6,0.00,Fedcenko Glacier
38.917,139.85,51.4,0.08,Sakata
38.92,-76.47,52.3,0.00,Annapolis Coast Guard Station
38.925,20.765,60.1,0.00,Aktion
38.935,-77.447,56.2,0.35,Washington Dulles International Ap
38.949,-1.864,73.9,0.00,Albacete
38.95,-95.664,56.4,0.00,Forbes Field Airport
38.95,-74.883,54.1,0.00,Cape May (Cgs)
38.95,45.633,55.0,0.16,Julfa
38.95,113.517,28.6,0.00,Wutai Shan
38.966,121.539,56.1,0.00,Zhoushuizi
38.968,24.487,67.2,0.00,Skiros
38.981,-76.922,70.5,0.00,College Park
38.983,-3.917,68.5,0.00,Ciudad Real
38.983,56.283,68.7,0.00,Gyzylarbat
38.997,17.08,59.8,0.00,Crotone
39.0,-110.15,56.8,0.00,Green River Range
39.017,117.6,62.6,0.00,Tanggu
39.033,88.167,55.4,0.00,Ruoqiang
39.044,-84.672,43.9,0.16,Cincinnati/Northern Kentucky Intl Ap
39.05,-105.51,45.7,0.00,Wilkerson Pass
39.05,-96.767,51.2,0.00,Marshall Army Airfield
39.05,116.4,62.2,0.04,Baxian
39.05,123.217,50.3,0.16,Haiyang Dao
39.057,26.598,64.6,0.00,Mitilini
39.067,26.883,61.5,0.00,Dikili
39.073,-95.626,52.8,0.00,Philip Billard Municipal Airport
39.083,-76.767,57.6,0.59,Tipton Airport
39.083,63.6,76.0,0.00,Chardzhev
39.083,100.283,37.6,0.12,Zhangye
39.1,-121.567,65.0,0.00,Yuba Co
39.1,53.1,59.0,0.08,Ogryda
39.1,107.983,40.7,0.00,Otog Qi
39.1,117.167,62.9,0.08,Tianjin
39.103,-84.419,47.3,0.35,Cina Muni Apt/Lukn Fd Apt
39.121,-94.597,54.1,0.00,Kansas City Downtown Ap
39.126,-123.201,60.0,0.02,Ukiah Municipal Airport
39.133,-121.433,62.1,0.01,Beale Air Force Base
39.133,-96.667,59.3,0.00,Manhattan Rgnl
39.133,-75.467,57.0,0.08,Dover Afb Airport
39.134,-108.54,66.2,0.00,Grand Junction Regional Airport
39.173,-76.684,57.7,0.67,Baltimore-Washington Intl Airport
39.183,127.433,54.7,0.00,Wonsan
39.2,-81.27,49.7,0.02,Oak Ridge
39.2,45.417,50.4,0.00,Naxcivan
39.2,46.433,52.2,0.00,Kapan
39.217,126.65,49.3,0.00,Yangdok
39.223,-106.869,55.2,0.00,Aspen Pitkin Co Sard
39.224,125.67,53.1,0.00,Pyongyang Intl
39.25,55.517,65.8,0.00,Gazandzhyk
39.251,9.054,63.3,0.00,Elmas
39.275,-103.666,50.9,0.00,Limon Municipal Airport
39.277,-120.71,45.3,0.00,Blue Canyon - Nyack Arpt
39.283,-80.217,48.9,0.00,Harrison Marion Rgn
39.283,-7.417,74.1,0.00,Portalegre
39.295,-114.847,56.5,0.00,Ely Airport/Yelland Field/Airport
39.297,-94.731,52.8,0.00,Kansas City International Airport
39.317,-76.4,58.8,0.00,Martin State
39.317,58.6,73.4,0.00,Erbent
39.32,-120.133,54.2,0.00,Truckee-Tahoe
39.33,-112.58,70.5,0.00,Delta
39.33,-76.1,59.7,0.00,Stillpond Coast Guard Station
39.354,8.972,64.7,0.00,Decimomannu
39.366,-75.078,55.5,0.55,Millville Municipal Arpt
39.367,-101.693,53.2,0.00,Renner Field/Goodland Mini Airport
39.367,111.217,50.0,0.00,Hequ
39.376,-99.83,56.6,0.00,Hill City Municipal Arpt
39.379,-74.424,49.6,0.00,Atlantic City (Cgs)
39.383,102.833,36.8,0.28,Lai-Yen-Ch'Ih
39.404,-77.945,55.7,0.20,Etrn Wv Rgnl/Shpherd Fd Ap
39.417,-118.717,71.5,0.00,Fallon Nas
39.429,141.135,42.4,0.00,Hanamaki
39.433,118.9,57.9,0.00,Leting
39.45,-87.3,46.9,0.00,Terre Haute Hulman Regional A
39.452,-74.567,51.8,0.04,Atlantic City International Airport
39.467,-6.333,73.6,0.00,Caceres
