lat,lon,temp,precip,name
-90.0,0.0,-46.5,0.00,Amundsen-Scott
-77.883,166.733,-7.0,0.00,Mcmurdo Sound Naf
-75.917,-83.917,-7.5,0.00,Siple Station
-70.767,11.833,12.2,0.00,Novolazarevskaja
-67.667,45.85,8.1,0.00,Molodeznaja
-66.55,93.017,14.4,0.16,Mirnyj
-64.883,-62.883,30.2,0.00,Brown Arg-Base
-64.233,-56.717,17.6,0.00,Base Marambio (Centro Met. Antartico)
-60.733,-44.733,32.0,0.00,Base Orcadas
-56.475,-68.73,43.7,0.00,Isla Diego Ramirez
-54.933,-67.633,39.2,0.02,Puerto Williams
-54.499,158.937,42.2,0.00,Macquarie Island
-53.778,-67.749,40.1,0.31,Rio Grande
-53.003,-70.855,39.2,0.00,Carlos Ibanez Del Campo Intl
-52.55,169.15,51.8,0.00,Campbell Island
-52.4,-75.1,43.2,0.04,Islotes Evangelistas
-51.609,-69.313,43.3,0.08,Rio Gallegos
-50.333,-72.3,40.6,0.00,Lago Argentino Arpt
-50.017,-68.579,46.8,0.00,Santa Cruz
-49.35,70.25,45.8,0.08,Port-Aux-Francais (Iles Kerguelen)
-49.307,-67.803,46.8,0.00,San Julian
-47.735,-65.904,46.0,0.00,Puerto Deseado
-46.875,37.86,36.0,0.04,Marion Island
-46.433,51.85,39.2,0.00,Alfred Faure (Iles Crozet)
-46.412,168.313,50.3,0.00,Invercargill
-46.167,166.633,58.6,0.00,Puysegur Pt (Lgt-H)
-45.916,-71.689,42.1,0.00,Balmaceda
-45.785,-67.466,57.2,0.00,Comodoro Rivadavia
-45.767,170.733,53.0,0.00,Taiaroa Head
-43.867,169.0,58.1,0.00,Haast
-43.81,-176.457,55.9,0.00,Chatham Islands
-43.489,172.532,59.0,0.00,Christchurch Intl
-43.211,-65.27,58.4,0.00,Almirante Zar
-42.908,-71.139,52.0,0.00,Esquel
-42.883,147.333,46.0,0.00,Hobart (Ellerslie Road)
-42.836,147.51,46.4,0.00,Hobart
-42.717,170.983,58.7,0.00,Hokitika Aerodrome
-41.75,171.6,63.1,0.00,Westport Harbour
-41.545,147.214,43.1,0.00,Launceston
-41.439,-73.094,49.1,0.08,El Tepual Intl
-41.3,173.217,61.1,0.00,Nelson Aerodrome
-41.283,174.767,61.7,0.00,Wellington
-41.151,-71.158,48.9,0.00,San Carlos De Bariloche
-41.0,148.35,48.9,0.00,Larapuna (Eddystone Point)
-40.869,-63.0,61.2,0.00,Gobernador Castello
-40.783,-65.1,59.5,0.00,San Antonio Oeste Aero
-40.55,173.0,62.6,0.00,Farewell Spit
-40.35,-9.883,62.1,0.12,Gough Island
-40.206,175.388,59.9,0.00,Ohakea
-40.117,148.017,53.9,0.00,Whitemark
-39.933,143.85,50.5,0.00,King Island Currie
-39.65,-73.086,55.4,0.00,Pichoy
-39.467,175.683,56.1,0.00,Waiouru
-39.467,176.867,60.4,0.00,Napier/Airport
-39.117,146.417,51.8,0.00,Wilsons Promontory Lighthouse
-39.017,174.183,63.5,0.00,New Plymouth Aerodr
-38.949,-68.156,52.0,0.00,Presidente Peron
-38.85,143.517,51.1,0.00,Cape Otway Lighthouse
-38.767,-72.637,54.8,0.00,Maquehue
-38.725,-62.169,59.9,0.04,Comandante Espora
-38.667,177.983,60.8,0.00,Gisborne Aerodrome
-38.483,-58.833,61.9,0.00,Necochea Airport
-38.387,-60.33,58.6,0.00,Tres Arroyos
-38.099,147.149,49.4,0.00,East Sale
-37.934,-57.573,55.0,0.00,Mar Del Plata
-37.867,144.75,51.2,0.00,Laverton Raaf
-37.817,144.967,51.9,0.00,Melbourne Regional Office
-37.8,77.533,62.6,0.00,Martin De Vivies (Ile Amsterdam)
-37.733,140.783,49.2,0.00,Mount Gambier Aero
-37.667,144.85,49.6,0.00,Melbourne Intl Arpt
-37.667,176.2,61.3,0.00,Tauranga Aerodrome
-37.567,149.9,56.0,0.00,Gabo Island Lighthouse
-37.433,-61.883,61.7,0.00,Coronel Suarez Aero
-37.237,-59.228,57.2,0.04,Tandil
-37.235,-57.029,52.2,0.00,Villa Gesell
-37.008,174.792,60.8,0.00,Auckland Intl
-36.9,149.9,59.2,0.00,Merimbula Airport
-36.773,-73.063,55.7,0.00,Carriel Sur Intl
-36.75,-59.833,59.7,0.00,Azul Airport
-36.588,-64.276,60.8,0.24,Santa Rosa
-36.35,-57.733,53.4,0.24,Dolores Airport
-36.317,141.633,51.7,0.00,Nhill Aerodrome
-36.187,-61.076,57.2,0.04,Bolivar
-36.15,144.767,54.0,0.00,Echuca Aerodrome
-35.845,-61.858,62.6,0.04,Comodoro P Zanni
-35.696,-63.758,62.0,0.71,General Pico
-35.494,-69.574,51.3,0.00,Malargue
-35.417,149.1,53.2,0.00,Tuggeranong Isabella Plains
-35.367,-57.283,55.3,0.08,Punta Indio B.A.
-35.333,136.117,58.6,0.00,Neptune Island
-35.307,149.195,53.2,0.00,Canberra
-35.165,147.466,55.8,0.00,Wagga Wagga
-35.083,150.8,66.6,0.00,Jervis Bay
-35.067,173.283,63.5,0.00,Kaitaia Aerodrome
-34.972,-57.895,56.8,0.02,La Plata
-34.967,-71.217,57.7,0.00,Curico/Gen Freire
-34.95,138.533,54.2,0.00,Adelaide
-34.949,150.537,60.9,0.00,Nowra
-34.945,138.531,54.5,0.00,Adelaide Intl
-34.941,117.802,63.9,0.00,Albany Airport
-34.917,138.617,55.9,0.00,Kent Town
-34.822,-58.536,56.7,0.39,Ministro Pistarini
-34.683,-58.65,56.4,0.24,Moron(Aafb)
-34.61,-58.613,56.7,0.00,El Palomar
-34.588,-68.403,58.4,0.00,San Rafael
-34.583,-58.483,59.3,0.00,Buenos Aires (Obs)
-34.559,-58.416,60.4,0.00,Aeroparque Jorge Newbery
-34.546,-60.931,59.7,1.81,Junin
-34.501,-58.604,56.9,0.00,Don Torcuato
-34.433,172.683,64.8,0.00,Cape Reinga
-34.367,115.133,70.7,0.00,Cape Leeuwin
-34.183,22.15,64.7,0.00,Mossel Bay (Lgt-H)
-34.135,-63.362,61.7,0.67,Laboulaye
-34.006,22.379,61.7,0.00,George
-34.0,137.533,59.5,0.00,Warburto Point
-33.985,25.617,63.4,0.00,Port Elizabeth Intl / Chief Dawid Stuurman Intl
-33.965,18.602,65.9,0.00,Cape Town Intl
-33.95,151.2,66.5,0.00,Sydney Intl Airport
-33.946,151.177,66.2,0.00,Sydney Intl
-33.924,150.988,66.9,0.00,Sydney Bankstown
-33.85,148.65,59.7,0.00,Cowra Airport Comparison
-33.85,151.2,67.3,0.00,Sydney (Observatory Hill)
-33.833,121.893,59.8,0.00,Esperance
-33.73,-65.387,59.9,0.00,Villa Reynolds
-33.633,-78.833,61.5,0.00,Juan Fernandez
-33.601,150.781,64.2,0.00,Richmond
-33.493,-70.698,63.1,0.00,Los Cerrillos
-33.483,145.517,59.0,0.00,Hillston Airport
-33.393,-70.786,59.9,0.00,Arturo Merino Benitez Intl
-33.383,149.117,49.6,0.00,Orange Airport Comparison
-33.273,-66.356,64.1,0.00,San Luis
-33.085,-64.261,64.3,0.00,Rio Cuarto Area De Material
-33.036,27.826,63.8,0.00,East London / King Phalo
-33.01,-58.613,53.4,0.00,Gualeguaychu
-32.904,-60.785,59.9,0.04,Rosario
-32.833,-70.083,32.0,0.00,Cristo Redentor
-32.833,17.85,58.4,0.00,Cape Columbine
-32.832,-68.793,60.6,0.00,El Plumerillo
-32.795,151.834,59.6,0.00,Williamtown
-32.79,-71.522,56.1,0.00,Quintero
-32.684,-62.158,62.0,0.00,Marcos Juarez
-32.217,148.575,63.0,0.00,Dubbo
-32.133,133.7,59.8,0.00,Ceduna Amo
-31.945,-65.146,70.5,0.00,Villa Dolores
-31.94,115.967,76.1,0.00,Perth Intl
-31.933,115.967,76.8,0.00,Perth Intl/Belmont
-31.917,115.867,78.6,0.00,Perth Metro
-31.795,-60.48,59.6,0.00,General Urquiza
-31.718,-52.328,61.2,0.00,Pelotas / Joao Simoes Lopes Neto
-31.712,-60.812,62.7,0.00,Sauce Viejo
-31.667,-63.883,66.2,0.00,Pilar Observatorio
-31.571,-68.418,62.8,0.00,San Juan
-31.542,159.079,70.7,0.00,Lord Howe Island Aero
-31.483,145.833,63.3,0.00,Cobar Mo
-31.391,-54.112,61.5,0.00,Comandante Gustavo Kraemer
-31.333,-66.6,71.2,0.00,Chepes
-31.324,-64.208,62.9,0.00,Ambrosio L V Taravella
-31.297,-57.997,57.3,0.00,Comodoro Pierrestegui
-31.144,136.817,60.3,0.00,Woomera
-31.083,125.65,64.3,0.00,Balgair
-31.08,150.85,61.2,0.00,Tamworthamo/Mo.From1966
-30.833,128.1,59.2,0.00,Forrest Airport
-30.789,121.462,68.9,0.00,Kalgoorlie Boulder
-30.617,130.4,62.6,0.00,Cook
-30.47,138.42,63.9,0.00,Leigh Creek Aero
-30.367,-66.283,67.0,0.00,Chamical Aero
-30.321,153.116,65.3,0.00,Coffs Harbour
-30.272,-57.64,60.8,0.00,Monte Caseros
-29.994,-51.171,56.7,0.00,Salgado Filho
-29.97,30.951,66.2,0.02,Durban Intl
-29.916,-71.2,55.0,0.00,La Florida
-29.9,-63.683,62.6,0.00,Villa Maria Del Rio
-29.883,-61.95,67.0,0.00,Ceres
-29.782,-57.038,65.8,0.00,Rubem Berta
-29.771,-57.979,60.8,0.00,Curuzu Cuatia
-29.711,-53.688,60.8,0.00,Santa Maria
-29.689,-57.152,56.5,0.00,Paso De Los Libres
-29.65,138.067,66.5,0.00,Marree Comparison
-29.467,149.85,65.0,0.00,Moree
-29.382,-66.796,69.7,0.00,La Rioja
-29.25,-177.933,66.5,0.00,Raoul Island Kermadec Islands
-29.183,-59.7,64.5,0.00,Reconquista Aero
-29.093,26.302,53.9,0.12,Bloemfontein Intl / Bram Fischer Intl
-29.042,167.939,65.5,0.00,Norfolk Island Intl
-28.883,121.333,73.4,0.00,Leonora
-28.803,24.765,56.7,0.24,Kimberley
-28.796,114.708,78.5,0.00,Geraldton
-28.705,121.891,57.6,0.00,Murrin Murrin
-28.596,-70.756,57.6,0.00,Vallenar
-28.596,-65.752,72.0,0.00,Catamarca
-28.567,16.533,61.7,0.00,Alexander Bay
-28.5,32.4,69.8,0.00,Cape St. Lucia
-28.399,21.26,63.6,0.00,Upington
-28.15,123.65,74.7,0.00,Laverton/Yamarna
-28.067,145.683,73.0,0.00,Cunnamulla Post Office
-28.038,-67.58,69.5,0.00,Tinogasta
-28.0,143.817,69.1,0.00,Thargomindah Post O
-27.766,-64.31,70.4,0.00,Santiago Del Estero
-27.67,-48.547,62.8,0.00,Hercilio Luz
-27.617,-144.333,72.6,0.00,Rapa
-27.55,135.45,72.9,0.00,Oodnadatta Airport
-27.483,-55.133,65.3,0.00,Obera
-27.45,-59.056,62.1,0.00,Resistencia
-27.446,-58.762,67.7,0.00,Corrientes
-27.417,153.067,73.7,0.00,Brisbane Airport
-27.411,151.735,69.3,0.00,Oakey
-27.386,-55.971,66.0,0.00,Posadas
-27.383,153.117,73.0,0.00,Brisbane Intl Arpt
-27.296,-70.414,58.6,0.00,Chamonate
-27.165,-109.422,72.0,0.00,Mataveri Intl
-26.85,-58.317,69.8,0.00,Pilar
-26.833,-65.2,68.6,0.00,Tucuman/Teniente Be
-26.757,-60.493,68.8,0.00,Presidencia Roque Saenz Pena / Termal
-26.683,15.25,61.1,0.00,Luderitz (Diaz Point)
-26.667,-57.15,73.8,0.00,San Juan Bautista
-26.614,118.537,78.7,0.00,Meekatharra Airport
-26.55,148.783,76.6,0.00,Roma Airport
-26.54,18.111,61.6,0.00,Keetmanshoop
-26.413,146.263,71.6,0.00,Charleville
-26.333,-70.607,61.5,0.00,Chanaral
-26.213,-58.228,68.4,0.00,Formosa
-26.139,28.246,54.9,0.00,Johannesburg Intl
-25.921,32.573,73.8,0.00,Maputo
-25.9,139.35,66.4,0.00,Birdsville Police S
-25.89,28.171,63.1,0.00,Pretoria(Met)
-25.8,-57.217,75.2,0.00,Carapegua
-25.767,-56.433,72.7,0.00,Villarrica
-25.737,-54.473,65.1,0.00,Cataratas Del Iguazu
-25.596,-54.487,65.8,0.00,Cataratas Intl
-25.533,-54.6,71.2,0.00,Ciudad Del Este
-25.528,-49.176,55.9,0.00,Afonso Pena
-25.417,142.65,75.7,0.00,Windorah Post Office
-25.24,-57.519,74.3,0.00,Silvio Pettirossi Intl
-25.033,128.3,79.2,0.00,Giles Meteorological Office
-24.888,113.67,79.3,0.00,Carnarvon Airport
-24.856,-65.486,57.5,0.00,Salta
-24.721,-60.549,70.2,0.00,Alferez Armando Rodriguez
-24.667,-56.433,77.4,0.00,San Estanislao
-24.667,25.917,68.0,0.04,Gaborone
-24.393,-65.098,66.3,0.00,Jujuy
-24.117,152.717,78.8,0.00,Lady Elliot Island
-24.1,-57.167,62.2,0.00,Puerto Antequera
-23.925,-46.288,71.6,0.00,Base Aerea De Santos
-23.867,29.45,67.5,0.00,Polokwane
-23.867,35.383,76.3,0.00,Inhambane
-23.85,151.267,75.4,0.00,Gladstone Radar
-23.807,133.902,68.0,0.00,Alice Springs
-23.8,133.917,64.2,0.00,Alice Springs Arpt
-23.627,-46.655,62.4,0.00,Congonhas Deputado Freitas Nobre
-23.567,148.183,77.0,0.00,Emerald Airport
-23.444,-70.445,60.7,0.00,Cerro Moreno Intl / Andres Sabella Intl
-23.442,-57.427,68.6,0.00,Teniente Col Carmelo Peralta
-23.433,144.283,78.8,0.00,Longreach Aero
-23.43,144.28,75.2,0.00,Longreachamo.
-23.417,119.8,78.5,0.00,Newman Aero
-23.383,43.728,72.0,0.24,Toliara
-23.382,150.475,74.0,0.00,Rockhampton
-23.365,-149.524,78.8,0.00,Tubuai Mataura
-23.25,155.533,74.3,0.00,Cato Island
-23.153,-64.329,74.8,0.00,Oran
-23.133,-134.967,79.6,0.00,Mangareva
-23.083,26.8,65.3,0.31,Mahalapye
-23.05,-56.983,71.3,0.00,Paso Barreto
-23.007,-47.135,61.7,0.00,Viracopos
-22.91,-43.163,74.5,0.00,Santos Dumont
-22.883,14.433,60.0,0.00,Walvis Bay (Pelican Point)
-22.875,-43.385,73.8,0.00,Campo Delio Jardim De Mattos
-22.809,-43.244,73.2,0.08,Galeao Antonio Carlos Jobim
-22.805,47.821,81.5,1.30,Farafangana
-22.62,-63.794,74.0,0.00,General Enrique Mosconi Tartagal
-22.48,17.471,61.8,0.00,Hosea Kutako Intl
-22.345,-49.054,72.7,0.00,Bauru
-22.333,40.333,80.9,0.00,Ile Europa
-22.267,166.45,75.7,0.00,Noumea
-22.25,118.333,82.7,0.00,Wittenoom
-22.236,114.089,81.0,0.00,Learmonth
-22.217,30.0,75.2,0.00,Beitbridge
-22.151,-65.578,52.4,0.00,La Quiaca / Dr Guillermo Eugenio Snopek
-22.045,-60.622,79.2,0.00,Dr Luis Maria Argana Intl
-22.015,166.213,75.2,0.00,Noumea La Tontouta
-21.961,-63.652,74.3,0.00,Yacuiba
-21.817,-138.8,82.7,0.00,Muroroa Atoll (Mil)
-21.754,43.376,77.4,0.75,Morombe
-21.7,21.65,73.0,0.00,Ghanzi
-21.667,150.267,80.2,0.00,Middle Percy Island
-21.633,115.117,81.8,0.00,Onslow
-21.556,-64.701,63.5,0.00,Capitan Av Oriel Lea Plaza Intl
-21.442,47.112,67.3,0.00,Fianarantsoa
-21.203,-159.806,77.0,0.02,Rarotonga Intl
-21.202,48.358,75.7,0.00,Mananjary
-21.159,27.468,70.7,0.00,P.G. Matante International Airport
-21.133,-175.183,76.7,0.00,Nukualofa
-21.117,149.217,75.1,0.00,Mackay Mo
-21.05,29.367,74.8,0.00,West Nicholson
-21.008,31.579,73.1,0.00,Buffalo Range
-20.933,165.317,76.3,0.00,Poindimie (Nlle-Caledonie)
-20.887,55.51,77.8,0.24,St Denis Gillot / La Reunion Roland Garros
-20.775,167.24,75.2,0.00,Lifou Ouanaham
-20.667,-178.717,76.2,0.12,Ono-I-Lau Aws
-20.664,139.489,75.9,0.00,Mount Isa
-20.546,164.256,77.0,0.00,Koumac
-20.533,-70.183,63.6,0.00,Iquique
-20.469,-54.673,70.1,0.00,Campo Grande
-20.43,57.684,77.5,0.00,Sir Seewoosagur Ramgoolam Intl
-20.378,118.626,80.2,0.00,Port Hedland Intl
-20.285,44.318,74.3,1.34,Morondava
-20.258,-40.286,74.9,0.00,Goiabeiras / Eurico De Aguiar Salles Intl
-20.233,169.767,76.5,0.00,Aneityum
-20.2,32.617,69.2,0.00,Chipinge
-20.133,-157.35,80.3,0.00,Mauke Island
-20.055,30.859,67.6,0.00,Masvingo Intl
-20.05,-63.567,73.4,0.00,Camiri
-20.021,28.627,71.2,0.00,J M Nkomo Intl / Bulawayo
-19.973,23.431,74.8,0.00,Maun
-19.967,158.483,77.5,0.00,Ile Loop (Chesterfield)
-19.917,138.117,75.2,0.00,Camooweal Township
-19.851,-43.951,71.0,0.00,Pampulha Carlos Drummond De Andrade
-19.833,48.8,77.4,0.08,Mahanoro
-19.817,47.067,60.8,0.00,Antsirabe
-19.796,34.908,74.1,0.00,Beira
-19.758,63.361,78.8,0.00,Plaine Corail
-19.75,-47.917,79.2,0.00,Uberaba
-19.633,134.183,74.2,0.00,Tennant Creek Airport
-19.602,18.123,68.5,0.00,Grootfontein
-19.543,-65.724,48.5,0.00,Capitan Nicolas Rojas
-19.533,-59.367,75.7,0.00,Adrian Jara
-19.455,169.224,76.0,0.00,Tanna
-19.436,29.862,66.8,0.00,Gweru Thornhill
-19.253,146.765,77.8,0.00,Townsville
-19.25,146.767,76.2,0.00,Townsville(Civ/Mil)
-19.133,179.75,78.5,0.87,Matuku Aws
-19.083,152.383,78.4,0.00,Marion Reef
-19.067,-169.917,79.9,0.00,Alofi
-19.05,178.167,78.5,0.04,Vunisea
-19.033,47.167,63.5,0.00,Arivonimamo
-19.007,-65.289,58.4,0.00,Juana Azurduy De Padilla
-18.983,32.45,72.9,0.00,Mutare/Grand Reef
-18.975,-57.821,78.8,0.00,Tte De Av Salvador Ogaya G
-18.831,-159.764,81.5,0.02,Aitutaki
-18.797,47.479,63.7,0.00,Ivato
-18.717,125.967,72.7,0.00,Fitzroy Crossing Ca
-18.65,-173.983,80.6,0.00,Vavau
-18.63,27.021,78.4,0.00,Hwange National Park
-18.483,163.083,78.8,0.00,Ile Surprise
-18.349,-70.339,66.8,0.00,Chacalluta
-18.317,-59.75,79.1,0.00,Robore (Civ/Mil)
-18.3,143.55,79.9,0.00,Georgetown Post Office
-18.233,-178.8,79.4,0.00,Lakemba Island
-18.233,127.667,79.3,0.00,Halls Creek Airport
-18.183,-47.95,71.2,0.00,Catalao
-18.11,49.393,79.2,0.71,Toamasina
-18.096,25.839,71.9,0.00,Victoria Falls Intl
-18.075,-140.946,80.9,0.00,Hao
-18.053,-70.276,63.0,0.00,Coronel Carlos Ciriani Santa Rosa Intl
-18.05,44.033,80.9,0.04,Maintirano
-18.043,178.559,78.6,0.04,Nausori Intl
-17.963,-67.076,47.5,0.00,Juan Mendoza
-17.956,19.719,68.7,0.00,Rundu
-17.945,122.232,81.5,0.00,Broome Intl
-17.93,31.094,65.5,0.00,Robert Gabriel Mugabe Intl / Harare
-17.833,-60.75,79.7,0.00,San Jose
-17.812,-63.171,74.5,0.00,El Trompillo
-17.755,177.443,80.8,0.00,Nadi Intl
-17.75,168.3,78.0,0.00,Port Vila/Bauerfld
-17.717,148.45,79.1,0.00,Flinders Reef
-17.667,141.083,80.6,0.00,Normanton
-17.652,-39.253,75.7,0.00,Caravelas
-17.583,-69.45,43.4,0.00,Charana
-17.554,-149.607,79.3,0.00,Tahiti Faa A
-17.432,32.185,68.3,0.83,Mutoko
-17.421,-66.177,65.5,0.00,Jorge Wilstermann Intl
-17.117,152.0,81.8,0.00,Lihou Reef
-17.05,42.717,83.1,0.00,Ile Juan De Nova
-17.0,178.7,80.3,0.00,Nabouwalu
-16.95,46.833,83.3,0.00,Maevatanana
-16.886,145.755,76.7,0.00,Cairns Intl
-16.883,145.767,75.7,0.00,Cairns Airport
-16.833,27.067,74.3,0.00,Choma
-16.833,29.617,70.7,0.12,Karoi
-16.783,31.583,72.2,0.00,Mount Darwin
-16.767,-153.95,82.0,0.00,Mopelia
-16.742,44.481,75.2,0.00,Besalampy
-16.707,-43.819,74.5,0.08,Mario Ribeiro
-16.7,177.583,80.6,0.00,Yasawa
-16.513,-68.192,44.1,0.00,El Alto Intl
-16.45,59.617,81.9,0.00,St. Brandon (St. Raphael)
-16.444,-151.751,81.0,0.00,Bora Bora Motu Mute
-16.417,167.8,80.6,0.00,Lamap/Malekoula Isl
-16.401,-61.045,79.5,0.00,San Ignacio De Velasco Airport
-16.341,-71.583,54.2,0.00,Rodriguez Ballon
-16.288,149.965,79.6,0.00,Willis Island
-16.27,133.38,76.7,0.00,Dalywaters Police Station
-16.25,-62.1,79.9,0.00,Concepcion
-16.183,33.583,81.1,0.00,Tete
-16.133,-179.983,80.3,0.00,Udu Point Aws
-15.933,-5.667,65.8,0.00,St. Helena Is.
-15.883,54.517,81.8,1.18,Serge-Frolow (Ile Tromelin)
-15.863,-47.913,70.4,0.00,Presidente Juscelino Kubitschek
-15.75,136.8,78.7,0.00,Centre Island
-15.717,-63.1,78.8,0.00,Ascencion Guarayos
-15.667,46.352,82.8,0.00,Philibert Tsiranana
-15.653,-56.117,86.0,0.00,Marechal Rondon
-15.567,-175.617,82.4,0.00,Niuafoou
-15.501,167.223,80.0,0.00,Santo Pekoa Intl
-15.483,128.117,87.3,0.00,Wyndham
-15.467,-70.158,50.6,0.00,Juliaca / Inca Manco Capac Intl
-15.433,145.183,79.9,0.00,Cooktown Mission
-15.383,-75.167,67.5,0.00,San Juan De Marcona
-15.333,28.45,73.0,0.00,Lusaka Intl
-15.255,23.162,78.3,0.00,Mongu
-15.106,39.282,75.9,0.00,Nampula
-14.999,50.32,78.3,0.87,Antsirabato
-14.967,-65.633,83.9,0.00,San Ignacio De Moxo
-14.867,-66.75,80.2,0.00,San Borja/Capt Germ
-14.819,-64.918,82.1,0.00,Tte Av Jorge Henrich Arauz
-14.8,-39.067,76.3,0.43,Ilheus
-14.8,24.8,81.5,0.00,Kaoma
-14.63,47.764,82.4,0.00,Analalava
-14.483,-145.033,82.9,0.00,Takaroa
-14.483,-67.483,80.4,0.00,Rurrenabaque
-14.467,132.267,76.4,0.00,Katherine Country Club
-14.45,28.467,76.6,0.00,Kabwe/Milliken
-14.331,-170.714,82.9,0.00,Tafuna/Pago Pago International Ap
-14.3,-67.367,83.3,0.00,Reyes
-14.279,50.175,78.4,0.00,Sambava
-14.233,129.45,99.5,0.00,Port Keats Aws Aut
-14.117,123.533,81.5,0.00,Browse Island Aws
-13.85,167.55,80.1,0.00,Sola/Vanua Lava Isl
-13.8,-171.783,83.0,0.20,Apia/Upolu Island
-13.75,143.117,78.9,0.00,Coen Airport
-13.745,-76.22,69.3,0.00,Pisco Intl
-13.7,-73.35,52.8,0.00,Andahuaylas
-13.65,136.933,82.0,0.00,North East Island
-13.55,32.583,73.4,0.00,Chipata
-13.536,-71.939,52.0,0.00,Teniente Alejandro Velasco Astete Intl
-13.533,23.117,75.2,0.00,Zambezi
-13.533,25.85,70.7,0.47,Kasempa
-13.376,50.003,80.2,0.00,Vohimarina
-13.333,-64.15,82.8,0.00,Magdalena
-13.312,48.315,80.6,0.28,Fascene
-13.267,-70.667,73.4,0.00,Quincemil
-13.155,-74.204,65.8,0.00,Coronel Fap Alfredo Mendivil Duarte
-13.067,-64.667,82.8,0.00,San Joaquin
-12.987,40.522,80.9,1.85,Pemba
-12.983,28.65,74.8,0.00,Ndola Simon Mwansa Kawepewe Intl
-12.911,-38.331,81.1,0.00,Deputado Luis Eduardo Magalhaes
-12.805,45.281,81.0,0.00,Dzaoudzi Pamandzi
-12.783,143.3,79.8,0.00,Lockhart River Airport
-12.617,131.05,85.1,0.00,Noonamah Airstrip
-12.614,-69.229,79.5,0.00,Padre Aldamiz
-12.5,177.05,81.9,0.04,Rotuma Island
-12.415,130.877,83.2,0.00,Darwin Intl
-12.349,49.292,76.1,0.00,Arrachart
-12.132,44.43,77.5,0.00,Ouani
-12.033,135.567,81.9,0.00,Elcho Island
-12.022,-77.114,69.2,0.00,Jorge Chavez Intl
-11.75,24.433,73.4,0.35,Mwinilunga
-11.7,43.233,80.3,0.00,Moroni Airport (Grande-Comore)
-11.583,47.283,83.8,0.00,Iles Glorieuses
-11.1,28.85,73.0,0.00,Mansa
-11.04,-68.783,80.6,0.00,Heroes Del Acre / Cap Av Civ Anibal Arab Fadul Intl
-11.017,-66.117,81.5,0.00,Riberalta / Cap Av Selin Zeitun Lopez
-11.017,136.75,82.0,0.00,Cape Wessel Aws
-10.951,142.459,72.9,0.00,Bamaga Injinoo
-10.917,-37.05,80.3,0.00,Aracaju
-10.915,-165.839,85.7,0.00,Pukapuka Arpt
-10.817,-65.35,80.6,0.00,Guayaramerin
-10.75,179.5,82.0,0.33,Niulakita
-10.567,142.217,83.4,0.00,Thursday Island
-10.433,56.6,84.2,0.00,Agalega
-10.217,31.133,75.2,0.00,Kasama
-10.172,123.671,82.9,0.00,El Tari
-10.05,-161.1,84.5,0.04,Rakahanga Atoll
-10.0,-105.0,40.7,0.00,Environm Buoy 32301
-9.879,-76.205,66.7,0.00,Alferez Fap D F Fernandini
-9.8,-139.033,78.8,0.00,Hiva-Oa
-9.511,-35.792,79.8,0.00,Zumbi Dos Palmares
-9.433,147.217,81.1,0.00,Port Moresby W.O.
-9.383,-171.25,85.6,0.16,Fakaofo Atoll
-9.35,46.533,84.7,0.00,Aldabra
-9.347,-77.598,65.1,0.00,Comandante Fap German Arias Graziani
-9.2,-171.917,84.7,0.02,Nukunono
-9.15,-78.524,69.6,0.00,Teniente Jaime A De Montreuil Morales
-9.133,-75.95,73.9,0.75,Tingo Maria
-9.017,-158.067,84.7,0.31,Penrhyn Island
-8.75,116.267,80.3,0.00,Mataram-Lombok Intl Airport / Zainuddin Abdul Madjid
-8.749,115.167,82.7,0.00,Denpasar Ngurah Rai
-8.641,122.237,84.2,0.00,Wai Oti
-8.533,-172.517,85.4,0.47,Atafu
-8.52,140.418,80.6,0.00,Mopah
-8.517,179.217,82.1,0.63,Funafuti Intl Arpt
-8.378,-74.574,73.1,0.00,Cap Fap David Abensur Rengifo Intl
-8.348,-49.302,77.4,0.00,Conceicao Do Araguaia
-8.126,-34.924,80.7,0.00,Guararapes Gilberto Freyre Intl
-8.081,-79.109,67.5,0.00,Capitan Fap Carlos Martinez De Pinillos
-7.983,131.3,79.5,0.00,Saumlaki
-7.97,-14.394,81.5,0.00,Ascension Aux Af
-7.733,109.017,80.6,0.00,Cilacap
-7.38,112.787,86.9,0.00,Surabaya Juanda
-7.3,72.4,81.9,0.16,Diego Garcia Naval Air Station
-7.27,-35.896,78.4,0.00,Presidente Joao Suassuna
-7.233,177.15,80.6,0.12,Nui
-7.217,112.717,82.8,0.00,Surabaya/Perak
-7.169,-76.729,78.7,0.31,Juanjui
-7.139,-78.489,57.6,0.00,Gen Fap Armando Revoredo Iglesias
-7.1,-34.867,81.7,0.00,Joao Pessoa
-7.05,113.967,87.3,0.00,Kalianget (Madura Is)
-6.983,110.383,84.2,0.00,Jenderal Ahmad Yani
-6.967,110.417,86.0,0.00,Semarang
-6.878,39.203,82.4,0.00,Mwalimu Julius K Nyerere Intl
-6.85,109.15,81.4,0.00,Tegal
-6.787,-79.828,71.8,0.00,Cap Fap Jose A Quinones Gonzales Intl
-6.75,108.267,85.6,0.00,Cirebon/Jatiwangi
-6.733,147.0,80.2,0.00,Lae
-6.7,156.383,77.4,0.00,Taro Island
-6.509,-76.373,76.5,0.39,Cadete Guillermo Del Castillo Paredes
-6.3,106.567,81.1,0.00,Tangerang/Budiarto Arpt
-6.267,106.891,80.9,0.00,Halim Perdanakusuma Intl
-6.202,-77.856,60.2,0.00,Chachapoyas
-6.17,35.753,77.0,0.00,Dodoma
-6.15,106.85,82.4,0.00,Jakarta/Kemayoran
-6.117,106.133,86.0,0.00,Serang
-6.1,106.867,86.0,0.00,Jakarta/Tanjung Priok
-6.033,-76.967,71.5,0.00,Moyobamba
-5.911,-35.248,79.4,0.00,Campo Augusto Severo
-5.894,-76.118,79.2,1.18,Moises Benzaquen Rengifo / Yurimaguas
-5.85,112.633,84.4,0.00,Sangkapura (Bawean Is.)
-5.683,132.75,83.3,0.00,Tual/Dumatubun
-5.369,-49.138,82.0,1.10,Maraba / Joao Correa Da Rocha
-5.242,105.179,78.4,0.00,Radin Inten Ii
-5.206,-80.616,77.4,0.00,Capitan Fap Guillermo Concha Iberico
-5.202,-37.364,83.3,0.00,Dix Sept Rosado
-5.083,32.833,69.8,0.20,Tabora Airport
-5.062,119.554,79.3,0.00,Sultan Hasanuddin Intl
-5.06,-42.823,82.4,0.00,Senador Petronio Portella
-4.816,11.887,78.1,0.00,Pointe Noire / Antonio Agostinho Neto
-4.674,55.522,83.3,0.12,Seychelles Intl
-4.577,-81.254,73.8,0.00,Capitan Fap Victor Montes Intl
-4.378,-79.941,79.0,0.00,Jose Maria Velasco Ibarra
-4.252,15.253,77.9,0.00,Maya Maya
-4.2,12.7,77.9,0.00,Dolisie
-4.2,152.183,78.8,0.00,Rabaul
-4.193,-69.943,80.9,0.71,Alfredo Vasquez Cobo
-4.083,37.717,76.6,0.28,Same
-4.035,39.594,83.5,0.00,Mombasa Moi Intl
-4.0,-79.367,73.8,0.00,Camilo Ponce Enriquez Arpt / Ciudad De Catamayo
-3.864,102.339,81.4,0.00,Fatmawati Soekarno
-3.855,-32.423,79.3,0.00,Fernando De Noronha
-3.785,-73.309,78.7,0.00,Coronel Francisco Secada Vignetta Intl
-3.776,-38.533,79.6,0.00,Pinto Martins Intl
-3.71,128.089,79.3,0.00,Pattimura
-3.553,-80.381,79.4,0.00,Cap Fap Pedro Canga Rodriguez
-3.442,114.763,81.3,0.00,Syamsudin Noor
-3.429,37.074,71.6,0.00,Kilimanjaro Intl
-3.4,38.567,79.5,0.00,Voi
-3.35,37.333,72.9,1.73,Moshi
-3.269,-79.962,79.2,0.12,General Manuel Serrano
-3.146,-59.986,76.1,0.00,Campo Ponta Pelada
-3.039,-60.05,76.0,0.00,Eduardo Gomes Intl
-2.898,104.701,80.3,0.00,Sultan Mahmud Badaruddin Ii
-2.889,-78.984,60.4,0.08,Mariscal Lamar
-2.85,11.017,75.5,0.00,Tchibanga
-2.746,107.755,78.6,0.00,H As Hanandjoeddin
-2.667,176.833,84.9,0.00,Arorae Island
-2.617,16.217,74.3,0.00,M'Pouya
-2.585,-44.234,77.7,0.00,Marechal Cunha Machado Intl
-2.577,140.516,80.6,0.00,Sentani
-2.533,14.767,69.1,0.00,Djambala
-2.422,-54.793,81.2,0.00,Santarem / Maestro Wilson Fonseca
-2.283,37.833,74.8,1.30,Makindu
-2.225,113.943,84.2,0.00,Palangka Raya/Tjilik Riwut
-2.17,106.13,81.7,0.00,Pangkalpinang / Depati Amir
-2.157,-79.884,79.6,0.00,Simon Bolivar Intl / Jose Joaquin De Olmedo Intl
-2.083,126.0,82.0,0.00,Sanana / Namniwel
-1.638,103.644,82.7,0.00,Sultan Thaha
-1.533,13.267,68.9,0.12,Moanda Bangombe
-1.379,-48.476,78.8,0.00,Val De Cans Julio Cezar Ribeiro Intl
-1.319,36.928,65.8,0.59,Jkia / Nairobi Jomo Kenyatta Intl
-1.268,116.894,81.3,0.00,Sultan Aji Muhammad Sulaiman Sepinggan
-1.19,136.108,78.3,0.00,Frans Kaisiepo
-1.042,-80.472,81.7,0.00,Reales Tamarindos
-1.033,-80.467,80.2,0.00,Portoviejo/Reales
-0.95,-80.683,79.9,0.00,Eloy Alfaro Intl
-0.892,134.049,78.8,0.00,Rendani
-0.875,100.352,82.7,0.00,Tabing
-0.712,8.754,79.7,0.00,Port Gentil
-0.683,119.733,82.4,0.00,Palu/Mutiara
-0.617,30.65,66.2,0.00,Mbarara
-0.583,-80.417,80.3,0.00,San Vicente Aeropuerto
-0.479,104.579,82.0,0.00,Dabo
-0.464,39.648,84.5,0.00,Garissa
-0.35,102.333,79.1,0.00,Rengat/Japura Arpt
-0.267,36.1,64.7,0.35,Nakuru
-0.151,109.404,77.0,0.00,Supadio
-0.141,-78.488,56.0,0.08,Mariscal Sucre Intl
-0.086,34.729,73.8,0.08,Kisumu
-0.017,15.65,72.3,0.39,Makoua
0.042,32.444,72.5,0.00,Entebbe Intl
0.051,-51.072,79.5,0.00,Macapa / Alberto Alcolumbre
0.083,37.65,68.3,0.83,Meru
0.45,33.183,71.0,0.00,Jinja
0.459,9.412,79.7,0.20,Leon M Ba
0.461,101.445,80.6,0.00,Sultan Syarif Kasim Ii
0.483,35.3,61.8,0.04,Eldoret
0.579,12.891,73.4,0.00,Makokou
0.637,122.85,80.6,0.00,Jalaluddin / Djalaluddin
0.783,11.533,73.4,0.00,Mitzic
0.831,127.381,86.9,0.00,Babullah
0.862,-77.672,52.2,1.54,San Luis
0.923,104.532,81.7,0.00,Kijang
0.967,-79.617,80.2,0.00,Esmeraldas Aeropuerto (Tachina)
0.972,34.959,63.7,0.00,Kitale
1.0,9.6,77.7,0.16,Cocobeach
1.254,-70.234,84.2,0.00,Fabio Alberto Leon Bentley
1.36,103.91,80.2,0.00,Paya Lebar
1.382,173.147,82.7,1.14,Bonriki Intl
1.485,110.347,80.1,0.00,Kuching Intl
1.549,124.926,79.5,0.00,Sam Ratulangi
1.556,98.889,85.1,0.00,Pinang Sore / Dr Ferdinand Lumbantobing
1.616,16.038,72.9,0.00,Ouesso
1.617,18.067,73.1,0.71,Impfondo
1.683,31.717,74.5,0.12,Masindi
1.728,33.623,72.9,0.16,Soroti
1.85,-78.767,80.2,0.00,Tumaco *
2.033,-56.117,77.9,0.08,Sipaliwini
2.262,111.985,82.2,0.00,Sibu
2.263,102.252,79.5,0.00,Malacca
2.454,-76.609,65.1,0.43,Guillermo Leon Valencia
2.95,-75.294,78.1,0.63,Benito Salas
2.95,9.9,77.7,0.12,Kribi
3.05,30.917,70.2,0.24,Arua
3.124,113.02,80.8,0.00,Bintulu
3.131,101.549,81.3,0.00,Sultan Abdul Aziz Shah Intl
3.333,117.567,79.2,0.00,Tarakan/Juwata
3.367,-57.333,78.3,0.00,Coeroeni
3.543,-76.382,71.2,0.31,Alfonso Bonilla Aragon Intl
3.558,98.672,81.1,0.00,Polonia / Kualanamu Intl
3.633,-54.033,78.8,0.00,Maripasoula
3.723,11.553,71.9,0.59,Yaounde Nsimalen
3.775,103.209,81.5,0.00,Kuantan
3.783,-56.15,77.7,0.00,Tafelberg
3.82,-76.99,79.2,0.59,Gerardo Tobar Lopez
3.883,-51.8,80.6,0.08,Saint Georges
3.933,41.867,87.2,0.00,Mandera
4.006,9.719,76.1,1.10,Douala
4.1,-76.233,73.0,0.83,Tulua/Farfan
4.167,73.5,86.0,0.00,Male Island
4.168,-73.614,80.2,0.00,Vanguardia
4.217,100.7,82.1,0.00,Sitiawan
4.222,15.786,73.4,0.31,Berberati
4.283,-74.8,79.2,0.79,Girardot/Santiago Villa
4.322,113.987,82.4,0.00,Miri
4.35,-54.417,81.0,0.02,Stoelmanseiland
4.398,18.519,75.2,0.16,Bangui M Poko
4.417,-7.367,77.5,1.02,Tabou
4.422,-75.133,72.3,0.55,Perales
4.453,-75.766,70.5,1.57,El Eden
4.467,14.367,73.4,0.04,Batouri
4.55,-70.917,81.0,0.00,Las Gaviotas
4.555,-61.145,66.9,0.00,Santa Elena De Uairen
4.702,-74.147,58.6,0.00,El Dorado Intl
4.733,11.25,76.1,0.51,Bafia
4.733,22.833,74.8,0.47,Bangassou
4.813,-75.74,69.4,3.15,Matecana
4.82,-52.36,79.2,0.35,Rochambeau / Cayenne Felix Eboue
4.95,-6.083,76.6,1.06,Sassandra/Drewin
4.95,9.933,72.1,1.34,Nkongsamba
4.95,114.917,82.9,0.00,Brunei Intl
5.03,-75.465,61.5,0.28,La Nubia
5.05,21.2,78.4,0.16,Alindao
5.261,-3.926,77.9,1.02,Abidjan Felix Houphouet Boigny Intl
5.267,17.633,75.6,0.08,Bossembele
5.283,39.75,72.9,0.00,Neghelli (Mil)
5.297,100.277,83.6,0.00,Penang Intl
5.4,26.5,75.2,0.00,Obo
5.453,-55.188,76.9,0.12,Johan A Pengel Intl
5.5,-54.033,79.9,0.04,St Laurent Du Maron
5.524,95.42,83.4,0.00,Sultan Iskandar Muda
5.62,-67.606,78.0,0.00,Cacique Aramare
5.637,10.751,70.2,0.31,Foumban Nkounja
5.691,-76.641,81.1,0.31,El Carano
5.717,9.283,74.8,1.14,Mamfe
5.901,118.059,79.8,0.00,Sandakan
5.937,116.051,83.1,0.00,Kota Kinabalu Intl
5.95,-57.03,82.1,0.00,Nickerie
6.117,81.133,83.5,0.00,Hambantota
6.133,-5.95,76.6,0.00,Gagnoa
6.166,1.255,78.8,0.12,Gnassingbe Eyadema Intl
6.167,102.293,84.2,0.00,Sultan Ismail Petra
6.22,-75.591,71.9,0.04,Olaya Herrera
6.234,-10.362,77.7,0.00,Monrovia Roberts Intl
6.357,2.384,79.7,0.02,Card Bernardin Gadin De Cadjehoun Intl
6.483,17.433,80.2,0.00,Bossangoa
6.5,-58.25,77.5,0.00,Georgetown
6.5,23.267,75.2,0.00,Yalinga
6.52,101.743,85.1,0.00,Narathiwat
6.583,1.5,78.0,0.55,Tabligbo
6.65,-4.7,78.8,0.47,Dimbokro City
6.661,100.08,87.8,0.00,Khoun Khan
6.785,101.154,88.2,0.00,Pattani
6.822,79.886,84.2,0.00,Colombo Ratmalana
6.922,122.06,82.6,0.00,Zamboanga Intl
6.933,100.393,80.8,0.00,Hat Yai Intl
6.967,80.767,59.7,0.00,Nuwara Eliya
7.024,-73.807,81.5,0.04,Yariguies
7.067,38.05,75.7,0.00,Awassa (Lake) / Hawassa
7.069,-70.737,83.1,0.00,Santiago Perez
7.126,125.646,82.7,0.04,Francisco Bangoy Intl
7.127,-73.185,70.4,0.00,Palonegro
7.133,40.0,60.1,0.12,Robe/Bale
7.167,2.067,78.4,0.16,Bohicon
7.181,79.866,93.8,0.00,Bandaranaike Intl Colombo
7.187,100.608,86.7,0.00,Songkhla
7.211,-70.756,82.2,0.04,Guasdualito
7.249,-61.529,81.2,0.00,Tumeremo
7.267,168.833,81.5,4.02,Ailinglapalap Atoll  Marshall Is.
7.272,-7.587,72.9,0.01,Man
7.333,134.483,82.0,0.24,Babelthuap/Koror Air
7.357,13.559,69.8,0.35,Ngaoundere
7.467,151.85,82.6,0.00,Chuuk International Airport
7.509,99.617,83.4,0.00,Trang
7.583,1.117,75.7,0.43,Atakpame/Akpaka
7.706,81.679,83.3,0.00,Batticaloa
7.739,-5.074,75.2,0.08,Bouake
7.841,-72.44,80.4,0.00,San Antonio Del Tachira / General Cipriano Castro Intl
7.883,-67.444,84.4,0.00,San Fernando De Apure / Las Flecheras
7.883,98.4,85.6,0.00,Phuket
7.928,-72.512,81.7,0.00,Camilo Daza
8.033,2.467,78.1,0.00,Save
8.033,79.833,82.9,0.00,Puttalam
8.113,98.317,86.9,0.00,Phuket Intl
8.122,-63.537,88.1,0.00,Ciudad Bolivar
8.3,73.15,87.5,0.00,Minicoy
8.367,126.333,82.7,0.00,Hinatuan
8.391,-82.435,79.9,0.00,Enrique Malek Intl
8.471,99.956,83.9,0.00,Cha Ian
8.483,76.95,84.7,0.00,Thiruvananthapuram
8.539,81.182,84.9,0.00,China Bay
8.582,-71.161,68.3,0.00,Alberto Carnevalli
8.616,-13.195,83.8,0.00,Freetown Lungi
8.624,16.071,89.1,0.00,Moundou
8.683,106.6,85.3,0.00,Con Son
8.733,167.733,82.2,0.24,Bucholz Aaf Kwajalein Kmr Atol Ap
8.824,-75.826,84.6,0.00,Los Garzones
8.917,-79.6,78.2,0.00,Howard
8.978,38.799,69.3,0.00,Bole Intl
8.983,1.15,75.7,0.20,Sokode
8.983,79.917,85.1,0.00,Mannar
9.027,-69.755,79.3,0.00,Guanare
9.071,-79.383,79.1,0.00,Tocumen Intl
9.133,99.136,82.0,0.00,Surat Thani
9.15,18.383,89.6,0.00,Sarh (Civ/Mil)
9.333,-79.983,77.3,0.59,Ft Sherman (Rocob)
9.333,-75.283,79.9,0.12,Corozal/Las Brujas
9.334,123.3,84.2,0.00,Dumaguete
9.336,13.37,87.4,0.04,Garoua
9.35,2.617,80.3,0.00,Parakou
9.367,14.917,85.1,0.00,Pala
9.387,-5.557,77.9,0.00,Korhogo
9.467,100.05,84.5,0.00,Ko Samui
9.483,138.083,83.1,0.00,Yap International Airport
9.518,44.089,80.6,0.00,Egal Intl
9.55,1.167,81.9,0.00,Kara
9.553,-69.238,83.1,0.00,Oswaldo Guevara Mujica / Batalla De Araure
9.583,-11.55,82.4,0.00,Kabala
9.625,41.854,82.0,0.00,Dire Dawa Intl
9.664,123.853,81.9,0.00,Tagbilaran
9.742,118.759,82.8,0.00,Puerto Princesa
9.749,-63.153,83.3,0.00,Maturin / Jose Tadeo Monagas Intl
9.778,98.585,84.2,0.16,Ranong
9.783,125.483,82.4,0.00,Surigao
9.8,80.067,86.0,0.00,Kankasanturai
9.817,-70.933,81.1,0.20,Mene Grande
9.946,76.272,84.5,0.12,Cochin
9.994,-84.209,67.6,0.00,Juan Santamaria Intl
10.0,105.083,87.8,0.00,Rach Gia
10.043,-69.359,75.5,0.00,Barquisimeto Intl
10.107,-64.689,83.4,0.00,General Jose Antonio Anzoategui Intl
10.217,103.967,86.7,0.00,Phu Quoc
10.25,-67.649,78.7,0.00,Mariscal Sucre
10.308,123.979,84.4,0.00,Mactan Cebu Intl
10.317,1.383,79.5,0.00,Natitingou
10.333,-3.183,81.8,0.00,Gaoua
10.35,37.717,68.9,0.00,Debre Marcos
10.383,114.367,87.8,0.00,Nansha Dao
10.435,-73.25,84.2,0.00,Alfonso Lopez Pumarejo
10.442,-75.513,81.4,0.12,Rafael Nunez
10.451,14.257,86.0,0.00,Salak
10.483,16.717,88.7,0.00,Bousso
10.485,-66.844,68.7,0.00,Generalisimo Francisco De Miranda Ab
10.5,-66.883,79.6,0.00,Caracas/La Carlota&
10.558,-71.728,82.7,0.00,La Chinita Intl
10.574,-62.313,83.0,0.00,Guiria / Almirante Cristobal Colon
10.595,-61.337,82.9,0.00,Piarco
10.603,-66.991,81.2,0.00,Simon Bolivar Intl
10.711,99.362,80.9,0.00,Chumphon
10.713,122.541,83.7,0.00,Iloilo
10.765,78.71,87.0,0.00,Tiruchirappalli
10.819,106.652,84.6,0.00,Tan Son Nhat Intl
10.85,121.0,83.9,0.00,Cuyo
10.89,-74.781,82.3,0.00,Ernesto Cortissoz
10.917,-63.967,80.6,0.00,Porlamar (Aeropuerto Int Del Caribe)
10.933,108.1,83.1,0.00,Phan Thiet
11.031,77.044,83.2,0.00,Coimbatore
11.036,125.742,82.9,0.00,Guiuan
11.083,39.717,74.3,0.00,Combolcha/Dessie
11.133,2.933,85.1,0.00,Kandi
11.15,-60.833,85.3,0.00,Crown Point Airport   Tobago
11.16,-4.331,79.8,0.00,Bobo Dioulasso
11.228,125.028,82.9,0.00,Daniel Z Romualdez
11.25,75.783,89.3,0.00,Kozhikode
11.35,-5.683,85.1,0.00,Sikasso
11.415,-69.681,84.6,0.00,Jose Leonardo Chirinos
11.417,-85.833,85.3,0.00,Rivas
11.467,107.8,75.6,0.00,Bao-Loc (Blao)
11.598,122.752,82.8,0.00,Roxas
11.65,78.167,81.3,0.00,Salem
11.667,92.717,84.2,0.00,Port Blair
11.75,-2.933,87.5,0.00,Boromo
11.767,79.767,84.7,0.00,Cuddalore
11.767,102.883,82.8,0.00,Khlong Yai
11.783,124.883,84.2,7.87,Catbalogan
11.788,99.805,84.2,0.12,Prachuap
11.883,3.45,84.2,0.00,Gaya
11.991,-83.774,80.6,0.00,Bluefields
12.0,-95.0,44.6,0.00,Moored Buoy 43011
12.033,0.367,86.9,0.00,Fada N'Gourma
12.1,-85.367,86.4,0.00,Juigalpa
12.134,15.034,87.0,0.00,Ndjamena Hassan Djamous
12.141,-86.168,82.1,0.71,Managua Intl / Augusto Cesar Sandino Intl
12.183,18.683,92.3,0.00,Mongo
12.189,-68.96,83.1,0.00,Hato
12.353,-1.512,89.3,0.00,Ouagadougou
12.383,-5.467,86.7,0.00,Koutiala
12.383,17.05,95.0,0.00,Bokoro
12.501,-70.015,83.4,0.00,Reina Beatrix Intl
12.534,-7.95,89.9,0.00,Senou / President Modibo Keita
12.556,-16.282,75.2,0.00,Ziguinchor
12.583,122.283,85.1,0.00,Romblon
12.584,-81.711,82.8,0.00,Gustavo Rojas Pinilla
12.6,102.117,84.5,0.00,Chanthaburi
12.633,-87.133,84.2,0.00,Chinandega
12.636,99.952,86.9,0.00,Hua Hin
12.683,100.983,87.5,0.00,Sattahip
12.683,101.0,87.9,0.00,U-Taphao Intl(Navy)
12.85,-11.233,90.1,0.00,Kenieba
12.961,74.89,85.0,0.00,Mangalore
12.967,77.583,78.8,0.00,Bangalore
12.994,80.181,84.4,0.00,Chennai Intl
12.999,100.067,88.7,0.00,Phetchaburi
13.067,-9.467,89.6,0.00,Kita
13.075,-59.492,82.3,0.00,Grantley Adams Intl
13.157,123.746,82.0,0.00,Legazpi
13.167,100.8,88.2,0.00,Ko Sichang
13.233,11.983,92.1,0.00,Maine-Soroa
13.3,-87.183,84.6,0.00,Choluteca
13.333,-4.833,89.0,0.00,San
13.367,100.983,89.6,0.00,Chon Buri/Sattahip / Suvarnabhumi Intl
13.4,-6.15,90.0,0.00,Segou
13.417,121.183,82.8,0.00,Calapan/Mindoro Isl
13.433,14.733,91.4,0.00,Bol-Berim
13.482,2.184,91.1,0.00,Diori Hamani
13.483,144.8,81.2,0.00,Guam Wfo
13.503,7.127,84.6,0.00,Maradi
13.567,-2.417,90.7,0.00,Ouahigouya
13.567,144.917,79.2,0.00,Andersen Afb
13.576,124.206,84.6,0.00,Virac
13.654,124.341,78.8,0.00,Catanduanes Radar
13.699,-89.12,74.8,0.00,Ilopango Intl
13.7,102.504,86.3,0.00,Aranyaprathet
13.733,-60.953,83.0,0.00,Hewanorra Intl
13.733,100.567,88.5,0.00,Bangkok Metropolis
13.737,-13.653,89.2,0.00,Tambacounda
13.779,8.984,89.0,0.00,Zinder
13.8,5.25,85.7,0.00,Birni-N'Konni
13.913,100.607,87.3,0.00,Bangkok Intl / Don Mueang Intl
14.017,99.533,93.6,0.00,Kanchana Buri
14.017,121.6,79.7,0.00,Tayabas
14.02,-60.993,83.3,0.00,George F L Charles
14.033,-0.033,92.3,0.00,Dori
14.047,-83.387,81.3,0.00,Puerto Cabezas
14.061,-87.217,75.2,0.00,Toncontin Intl
14.078,101.38,87.8,0.00,Khao E To
14.083,121.05,84.2,0.00,Ambulong
14.1,98.217,83.8,0.00,Dawei
14.129,122.98,84.2,0.00,Daet
14.147,-16.051,79.5,0.00,Kaolack
14.2,1.45,92.3,0.00,Tillabery
14.233,76.433,81.5,0.00,Chitradurga
14.25,13.117,96.8,0.00,N'Guigmi
14.45,79.983,85.6,0.00,Nellore
14.467,100.133,89.3,0.00,Suphan Buri
14.482,-11.44,91.9,0.00,Kayes/Dag-Dag
14.509,121.02,84.5,0.00,Ninoy Aquino Intl
14.513,-4.08,89.1,0.04,Ambodedjo
14.583,-90.527,67.6,0.00,La Aurora
14.583,77.633,83.7,0.00,Pbo Anantapur
14.591,-61.003,79.5,0.08,Le Lamentin
14.65,-16.233,79.2,0.00,Diourbel
14.74,-17.49,70.8,0.00,Leopold Sedar Senghor Intl
14.75,121.65,84.4,0.00,Infanta
14.8,100.617,91.1,0.00,Lop Buri
14.8,120.267,84.4,0.01,Subic Bay Weather
14.876,5.265,82.0,0.00,Tahoua
14.883,-92.3,87.5,0.08,Tapachula/Airport
14.883,103.5,87.3,0.00,Surin
14.9,-85.933,81.9,0.00,Catacamas
14.917,-92.25,83.8,0.00,Tapachula  Chis
14.935,102.079,89.3,0.00,Khorat
15.0,-75.0,39.4,0.00,Data Buoy 41018
15.117,145.733,81.8,0.00,Saipan/Isley (Cgs)
15.186,120.56,83.3,0.00,Clark Intl / Diosdado Macapagal Intl
15.233,-9.35,88.2,0.00,Nioro Du Sahel
15.251,104.87,86.7,0.00,Ubon Ratchathani
15.292,38.911,59.0,0.00,Asmara Intl
15.333,119.967,82.4,0.04,Iba/Luzon Island
15.383,-15.117,89.2,0.00,Linguere
15.417,75.633,82.4,0.08,Gadag
15.453,-87.924,79.7,0.00,La Mesa Intl / Ramon Villeda Morales Intl
15.483,44.217,77.0,0.00,Sanaa Intl/Rahaba
15.483,73.817,84.9,0.00,Goa/Panjim
15.547,-61.3,83.3,0.00,Melville Hall
15.65,-13.25,91.7,0.00,Matam/Ouro Sogui
15.673,100.137,92.5,0.00,Nakhon Sawan
15.683,-96.483,82.9,0.00,Puerto Angel  Oax.
15.73,121.5,83.9,0.47,Baler
15.733,120.933,86.5,0.00,Munoz
15.776,-87.476,81.0,0.00,Tela
15.8,78.067,87.8,0.00,Kurnool
15.8,102.033,88.4,0.00,Chaiyaphum
15.859,74.618,77.0,0.00,Belgaum
16.051,-16.463,71.9,0.00,Saint Louis Ousmane Masseck Ndiaye
16.07,103.646,88.7,0.00,Rob Muang
16.083,120.35,83.3,1.26,Dagupan
16.2,81.15,85.1,0.00,Machilipatnam/Franchpet
16.233,-93.9,87.4,0.00,Arriaga  Chis.
16.248,-0.005,89.6,0.00,Gao
16.265,-61.532,80.5,0.00,Le Raizet
16.267,122.133,81.1,0.00,Casiguran
16.375,120.62,63.6,1.30,Baguio
16.467,102.784,89.2,0.00,Khon Kaen
16.5,-15.817,81.3,0.00,Rosso
16.533,104.717,85.1,0.00,Mukdahan
16.533,111.617,82.7,0.00,Sanhu Dao
16.65,-14.967,90.5,0.00,Podor
16.676,101.195,86.5,0.00,Phetchabun
16.7,98.545,86.0,0.00,Mae Sot
16.711,-9.638,91.0,0.00,Aioun El Atrouss
16.73,-3.008,86.8,0.00,Tombouctou
16.733,-169.533,78.1,0.01,Johnston Atoll Airport
16.741,-22.949,71.6,0.00,Amilcar Cabral Intl
16.75,-99.75,82.4,0.00,Acapulco  Gro
16.75,-93.133,78.0,1.81,Francisco Sarabia / Tuxtla Gutierrez Intl
16.75,-92.633,63.5,0.00,Sn. Cristobal Las Casas  Chis.
16.757,-99.754,81.3,0.00,General Juan N Alvarez Intl / Acapulco Intl
16.783,100.279,88.3,0.00,Phitsanulok
16.833,112.333,81.7,0.00,Xisha Dao
16.896,99.253,95.3,0.00,Tak
16.9,96.183,88.8,0.00,Mingaladon
16.95,82.233,86.9,0.00,Kakinada
16.967,7.967,86.9,0.00,Agadez / Mano Dayak
16.983,73.333,84.6,0.00,Ratnagiri
17.0,-96.733,71.4,0.00,Xoxocotlan Intl / Oaxaca Intl
17.033,54.083,85.1,0.00,Salalah
17.039,54.091,85.1,0.00,Salalah
17.137,-61.793,80.4,0.00,V C Bird Intl
17.15,104.133,88.4,0.00,Sakon Nakhon
17.283,-62.733,81.3,0.00,Basseterre
17.311,-62.719,80.8,0.00,Robert L Bradshaw
17.386,102.788,90.6,0.00,Udon Thani
17.4,-83.933,83.1,0.00,Islas Del Cisne
17.417,104.783,90.8,0.00,Nakhon Phanom
17.439,101.722,85.8,0.00,Loei
17.452,78.461,89.3,0.00,Begumpet Airport / Hyderabad Intl
17.483,106.6,81.1,0.00,Dong Hoi
17.533,-14.683,88.5,0.00,Boutilimit
17.539,-88.308,79.9,0.00,Philip S W Goldson Intl
17.55,-99.5,75.2,0.00,Chilpancingo  Ro.
17.555,120.356,80.1,1.42,Vigan
17.617,100.1,91.4,0.00,Uttaradit
17.628,75.935,87.1,0.00,Solapur
17.638,121.731,82.8,0.00,Tuguegarao
17.65,-101.45,80.5,0.08,Zihuatanejo
17.7,-64.813,83.5,0.31,Christiansted/Alex.
17.717,83.217,81.9,0.00,Vishakhapatnam Ctlz
17.867,102.75,90.2,0.00,Nong Khai
17.936,-76.788,83.7,0.00,Norman Manley Intl
17.983,-92.933,80.2,0.00,Villahermosa  Tab.
18.017,-92.95,82.8,0.00,Villahermosa      &
18.041,-63.109,83.1,0.00,Princess Juliana Intl
18.098,-15.948,76.6,0.00,Nouakchott
18.132,100.165,90.2,0.00,Phrae
18.15,-94.417,85.4,0.08,Coatzacoalcos     &
18.167,97.933,90.5,0.00,Mae Sariang
18.178,120.532,80.0,0.16,Laoag Intl
18.183,-94.5,81.9,0.00,Coatzacoalcos  Ver
18.217,109.583,83.3,0.31,Sanya
18.255,-65.641,79.1,0.55,Naval Station Roosevelt Roads Ceiba
18.271,99.504,89.1,0.00,Lampang
18.336,-64.98,81.5,0.00,Cyril E King Airport
18.35,105.9,80.8,0.00,Ha Tinh
18.383,-65.617,76.4,0.00,Cape San Juan(Cgls)
18.417,-66.0,79.9,0.04,San Juan Intl Arpt
18.43,-69.669,75.7,0.00,De Las Americas Intl
18.433,-66.011,79.4,0.00,San Juan L M Marin Intl Ap
18.433,1.35,81.5,0.00,Kidal
18.467,94.35,85.6,0.00,Sandoway
18.5,-67.133,78.9,0.00,Aquadilla/Borinquen
18.504,-77.913,79.9,0.00,Sangster Intl
18.505,-88.327,84.2,0.00,Chetumal Intl
18.533,73.85,82.6,0.00,Pune
18.58,-72.293,83.1,0.00,Toussaint Louverture Intl / Port Au Prince Intl
18.65,-91.783,83.5,0.00,Ciudad Del Carmen
18.717,-110.95,73.0,0.00,Isla Socorro  Col.
18.737,105.671,80.3,0.00,Vinh
18.767,79.433,90.9,0.00,Ramgundam
18.767,98.963,87.6,0.00,Chiang Mai Intl
18.808,100.783,83.7,0.00,Nan
19.067,109.883,80.2,0.00,Xin-Shi
19.083,82.033,81.1,0.00,Jagdalpur
19.089,72.868,84.2,0.00,Chhatrapati Shivaji Maharaj Intl
19.1,108.617,83.1,0.00,Dongfang
19.145,-104.559,78.8,0.00,Playa De Oro Intl / Manzanillo Intl
19.2,-96.133,80.1,0.04,Veracruz/Gen Jara
19.233,110.467,82.1,0.00,Qionghai
19.283,166.65,78.2,0.00,Wake Island Airfld
19.301,97.976,92.0,0.00,Mae Hong Son
19.4,-99.183,65.8,0.00,Mexico (Central)   D.F.
19.433,-99.133,67.8,0.00,Aerop Internacional Mexico  D F
19.517,109.583,80.9,0.00,Danxian
19.55,-96.917,67.1,0.00,Jalapa  Ver.
19.683,-79.883,82.0,0.00,Cayman Brac
19.7,-101.183,70.2,0.00,Morelia  Mich.
19.719,-155.053,74.2,0.35,Hilo International Airport
19.75,-155.55,60.7,0.00,Bradshaw Aaf
19.75,105.783,78.3,0.00,Thanh Hoa
19.817,-90.5,80.1,0.00,Ingeniero Alberto Acuna Ongay Intl / Campeche Intl
19.833,-90.517,83.2,0.00,Campeche/Ignacio  &
19.85,-77.233,81.6,0.00,Cabo Cruz  Granma
19.863,75.398,83.2,0.00,Aurangabad
19.885,99.827,87.5,0.00,Chiang Rai
19.9,-75.15,80.7,0.00,Guantanamo Bay Naval Air Station
19.967,42.667,82.3,0.00,Bisha
19.97,-75.835,80.3,0.00,Antonio Maceo Intl
20.0,110.25,79.6,0.00,Haikou
20.001,-155.668,69.5,0.00,Waimea Kohala
20.033,-75.633,64.2,0.08,Gran Piedra   Santiago De Cuba
20.05,-75.817,79.6,0.00,Universidad   Santiago De Cuba
20.083,-98.367,60.8,0.00,Tulancingo  Hgo.
20.133,107.717,76.8,0.00,Bach Long Vi
20.244,85.818,84.6,0.00,Bhubaneshwar / Biju Patnaik Intl
20.25,-74.15,78.8,0.00,Punta De Maisi   Guantanamo
20.367,110.167,81.5,0.00,Xuwen
20.467,45.667,87.8,0.00,Sulayel/Assulayyil
20.507,-13.043,81.3,0.00,Atar
20.517,-103.317,65.3,0.00,Guadalajara Intl  &
20.517,-86.95,81.0,7.99,Cozumel Intl Arpt &
20.517,-86.933,81.9,0.00,Cozumel (Fam) Q Roc
20.6,-103.383,70.7,0.00,Guadalajara
20.667,116.717,76.8,0.00,Dongsha Dao
20.683,-105.25,73.9,0.91,Puerto Vallarta
20.683,-88.2,81.5,0.00,Valladolid  Yuc.
20.699,77.059,81.9,0.12,Akola
20.717,-78.0,81.1,0.00,Santa Cruz Del Sur   Camaguey
20.783,-156.95,73.2,0.00,Lanai
20.8,106.633,77.5,0.00,Phu Lien
20.85,88.25,85.1,0.00,Sandheads
20.9,-156.429,77.1,0.00,Kahului Airport
20.9,70.367,83.2,0.00,Veraval
20.917,-156.683,77.2,0.00,Kaanapali  Maui   Hawaii
20.933,-17.03,65.1,0.00,Nouadhibou
20.937,-89.658,78.6,0.00,Licenciado Manuel Crescencio Rejon Int / Merida Intl
20.95,-97.4,77.6,0.00,Tuxpan.Ver.
21.017,-86.867,82.1,0.98,Cancun Intl
21.033,109.117,78.3,0.00,Wei-Zhou Island
21.067,-101.55,74.6,0.00,Leon/San Carlos
21.092,79.047,84.0,0.12,Dr Baba Saheb Ambedkar Intl
21.15,-157.1,76.7,0.00,Molokai (Amos)
21.183,81.733,83.5,0.16,Swami Vivekananda
21.2,72.833,85.2,0.00,Surat
21.217,110.4,79.8,0.00,Zhanjiang
21.221,105.807,78.8,0.00,Noibai Intl
21.317,-158.067,73.8,0.00,Kalaeloa Arpt
21.324,-157.929,77.0,0.00,Honolulu International Airport
21.42,-77.848,77.4,0.59,Ignacio Agramonte Intl
21.45,-157.768,76.8,0.02,Kaneohe Mcas
21.45,-71.15,82.5,0.00,Turks Island
21.483,40.533,74.5,0.00,Taif/At Taif
21.483,109.1,80.4,0.00,Beihai
21.487,-158.028,73.7,0.00,Wheeler Army Airfield
21.5,39.2,81.0,0.00,Jeddah Intl
21.5,101.583,80.3,0.00,Mengla
21.517,86.933,83.3,0.00,Balasore
21.517,107.967,77.8,0.00,Mong Cai
21.733,-82.767,80.2,0.00,La Fe  Isla De La Juventud
21.733,112.767,79.6,0.00,Shangchuan Dao
21.835,-82.784,86.4,0.00,Rafael Cabrera
21.867,-84.95,80.6,0.00,Cabo San Antonio   Pinar Del Rio
21.867,111.967,79.7,0.00,Yangjiang
21.917,-80.167,77.9,0.00,Cantarrana   Cienfuegos
21.95,108.617,79.3,0.00,Qinzhou
21.984,-159.341,74.0,0.00,Lihue Airport
22.0,-98.767,81.9,0.00,Tamuin  S.L.P.
22.0,100.783,73.0,0.00,Jinghong
22.0,120.75,71.1,1.57,Hengchun
22.027,-78.79,80.6,0.00,Maximo Gomez
22.033,-159.783,77.5,0.00,Barking Sands Pacific Missile Range Fac Arpt
22.041,120.73,72.5,0.00,Hengchun
22.15,-159.65,57.2,0.00,Kokee  Kauai  Hawaii
22.15,113.592,76.1,0.00,Macau Intl
22.167,-84.1,78.0,0.47,Isabel Rubio  Pinar Del Rio
22.2,-97.85,78.3,0.00,Tampico  Tamps
22.267,112.783,77.4,0.00,Tai-Shan
22.283,-97.85,79.2,0.02,Tampico/Gen Fj Mina
22.3,73.25,82.9,0.24,Baroda
22.3,114.167,77.2,0.00,Hong Kong Observatory
22.309,70.78,88.6,0.08,Rajkot
22.309,113.915,78.0,0.00,Hong Kong Intl
22.35,110.933,80.3,0.00,Xinyi
22.35,120.9,70.2,1.57,Dawu
22.367,106.75,80.2,0.00,Longzhou
22.417,-83.683,77.6,0.31,Pinar Del Rio
22.417,120.55,72.4,0.00,Chia Tung
22.5,103.95,79.9,0.04,He-Kou
22.517,-79.45,77.3,0.00,Caibarien  Villa Clara
22.55,-83.3,75.2,1.85,Paso Real De San Diego  Pinar Del Rio
22.567,99.933,73.9,0.00,Lancang
22.577,120.35,71.7,0.00,Kaohsiung Intl
22.608,108.172,79.6,0.00,Wuxu
22.617,101.817,69.4,0.00,Jiangcheng
22.633,120.283,72.3,0.98,Kaohsiung
22.639,113.811,76.5,0.51,Baoan Intl
22.655,88.447,84.7,0.00,Netaji Subhash Chandra Bose Intl
22.667,-102.55,81.7,0.00,San Jose Del Cabo &
22.672,120.462,71.8,0.00,Pingtung South
22.683,-80.933,76.6,0.55,Colon  Matanzas
22.683,-12.7,72.9,0.00,F Derik
22.7,120.482,70.7,0.00,Pingtung North
22.717,111.55,79.2,0.00,Luoding
22.722,75.801,79.1,0.55,Devi Ahilyabai Holkar
22.75,90.367,84.6,0.00,Barisal
22.75,121.15,70.3,0.26,Taidong (=595620)
22.767,-83.55,76.8,0.63,La Palma  Pinar Del Rio
22.767,81.9,74.1,0.51,Pendra Road
22.767,100.983,71.2,0.00,Simao
22.783,-82.517,76.1,0.12,Guira De Melena   La Habana
22.783,115.367,74.1,0.20,Shanwei
22.783,120.262,70.0,0.00,Gangshan
22.793,121.182,71.1,0.00,Jhihhang
22.8,5.433,71.0,0.00,Tamanrasset
22.813,86.169,81.1,0.00,Jamshedpur
22.817,-80.083,80.2,0.08,Sagua La Grande   Villa Clara
22.917,-83.167,80.2,0.00,Bahia Honda  Pinar Del Rio
22.95,120.206,70.6,0.00,Tainan
22.989,-82.409,76.8,0.00,Jose Marti Intl
23.0,120.217,71.6,0.28,Tainan (=593580)
23.034,-81.435,79.3,0.00,Juan Gualberto Gomez Intl
23.05,112.467,79.3,0.24,Gaoyao
23.077,72.635,85.1,0.04,Ahmedabad / Sardar Vallabhbhai Patel Intl
23.083,114.417,79.2,0.39,Hui-Yang
23.083,116.3,71.2,0.08,Huilai
23.1,121.367,71.6,1.10,Cheng-Kung
23.15,-106.25,73.6,0.00,Mazatlan/G.Buelna I
23.167,-82.35,77.0,0.39,Casa Blanca   La Habana
23.178,80.052,80.1,0.43,Jabalpur
23.2,-106.417,71.2,0.00,Colonia Juan Carrasco Mazatlan  Sin.
23.267,90.7,83.5,0.00,Chandpur
23.267,119.667,72.5,0.20,Dongshi
23.287,77.337,81.8,0.79,Bhopal / Raja Bhoj
23.288,69.67,91.0,0.00,Bhuj
23.3,105.95,76.5,0.00,Napo
23.392,113.299,79.0,2.05,Baiyun Intl
23.4,110.083,79.8,0.04,Guiping
23.4,116.683,72.7,0.08,Shantou / Chaoshan
23.45,103.333,76.5,0.00,Mengzi
23.462,120.393,69.8,0.00,Chiayi
23.467,87.433,85.6,0.00,Panagarh
23.483,111.3,79.5,0.00,Wuzhou
23.483,120.95,36.0,0.75,Mount Morrison
23.5,119.5,72.4,0.00,Penghu Islands
23.5,120.45,70.2,0.20,Chiayi
23.517,119.567,73.7,0.12,Magong
23.517,120.8,49.1,0.94,Mount Alisan
23.567,99.083,81.9,0.00,Mengding
23.569,119.628,72.0,0.00,Magong / Penghu
23.583,58.283,89.6,0.00,Muscat/Seeb Intl
23.6,101.983,86.3,0.00,Yuanjiang
23.633,-103.65,66.2,0.00,Sombrerete  Zac.
23.742,-99.17,79.2,0.00,Ciudad Victoria   Tamps.
23.767,-98.2,79.2,0.00,Soto La Marina   Tamps.
23.767,90.383,82.4,0.00,Dacca/Tezgaon
23.8,114.733,74.1,0.28,Heyuan
23.85,109.417,77.4,0.00,Da-Wan
23.867,-166.283,73.9,0.00,French Frigate Shoals
23.883,113.517,74.9,0.71,Fogang
23.883,120.85,63.1,0.00,Joyutang
23.887,91.24,82.0,0.04,Agartala
23.9,106.6,81.1,0.00,Baise
23.95,100.217,69.8,0.00,Lincang
23.95,112.2,78.8,2.01,Huaiji
23.983,121.6,72.3,0.24,Hua-Lien City
24.0,97.85,79.8,0.00,Ruili
24.017,121.617,71.9,0.71,Hualian
24.023,121.618,72.0,0.00,Hualien
24.067,105.067,72.6,0.00,Guangnan
24.073,-110.362,87.8,0.00,General Manuel Marquez De Leon Intl / La Paz Intl
24.124,-104.528,75.9,0.98,Durango Intl
24.144,38.063,78.9,0.00,Yenbo / Prince Abdulmohsin Bin Abdulaziz
24.15,47.317,88.0,0.00,Al-Kharj
24.15,120.683,70.2,0.04,Taizhong
24.167,-110.3,78.3,0.00,La Paz  Bcs
24.179,23.314,76.1,0.00,Kufra
24.186,120.654,69.0,0.00,Taichung
24.2,110.517,77.3,0.00,Mengshan
24.265,120.621,67.5,0.00,Taichung Intl / Ching Chuang Kang Ab
24.283,116.067,79.7,0.04,Mei Xian
24.29,153.979,79.0,0.00,Minami Torishima
24.345,124.187,71.5,0.00,New Ishigaki
24.35,109.4,76.0,0.00,Liuzhou
24.367,114.483,72.6,1.02,Lianping
24.428,118.359,66.6,0.00,Shang Yi / Kinmen
24.467,122.983,72.7,0.00,Yonaguni-Jima
24.467,123.017,72.5,2.05,Yonagunijima
24.533,103.767,70.7,0.00,Luxi
24.544,118.128,68.2,0.02,Gaoqi
24.553,39.705,82.6,0.00,Prince Mohammad Bin Abdulaziz
24.557,-81.755,78.4,0.31,Key West International Airport
24.567,80.833,81.3,0.00,Satna
24.583,-81.683,77.8,0.55,Key West Nas
24.633,-82.917,77.7,0.00,Dry Tortugas (Cgs)
24.633,117.65,68.9,1.46,Zhangzhou
24.65,77.317,81.9,0.35,Guna
24.667,113.6,77.9,0.04,Shaoguan
24.7,108.05,73.8,0.00,Hechi
24.72,-81.12,78.1,0.00,Marathon Coast Guard Station
24.722,46.725,78.1,0.00,King Salman Ab
24.744,84.951,83.3,2.17,Gaya
24.75,121.767,70.9,0.00,Ilan
24.75,121.783,70.5,0.25,Ilan City
24.76,93.897,76.1,0.00,Imphal
24.783,125.295,70.4,0.00,Miyako
24.784,141.323,76.0,0.00,Iwoto
24.8,112.367,76.1,0.01,Lianzhou
24.817,-107.4,80.7,0.00,Culiacan (City)   &
24.818,120.939,69.2,0.00,Hsinchu
24.833,120.0,69.1,0.12,Hsinchu City
24.95,115.65,72.1,0.08,Xunwu
24.983,98.5,68.2,0.00,Tengchong
24.992,102.744,65.9,0.00,Wujiaba / Changshui
25.017,101.517,73.4,0.00,Chuxiong
25.033,121.517,68.3,0.13,Taibei
25.039,-77.466,76.1,0.04,Nassau Intl / Lynden Pindling Intl
25.05,121.217,68.3,0.20,Taoyuan
25.056,121.243,68.0,0.00,Taoyuan
25.067,116.35,77.0,0.00,Shanghang
25.067,121.533,71.6,0.28,589690
25.068,61.805,81.3,0.00,Jiwani
25.069,121.552,67.3,0.00,Songshan
25.1,117.017,73.9,0.20,Longyan
25.117,99.183,68.3,0.00,Baoshan
25.15,121.8,68.2,0.00,Chilung
25.16,75.846,87.5,0.00,Kota
25.17,-94.42,72.4,0.00,W Gulf 240 Nm South-Southeast Of Sabine
25.218,110.039,73.6,0.00,Liangjiang
25.237,-11.589,66.7,0.00,Bir Moghrein
25.25,55.333,88.1,0.00,Dubai
25.267,51.55,83.5,0.00,Doha Intl Airport
25.329,55.517,88.1,0.00,Sharjah Intl
25.35,55.383,88.1,0.00,Ash Shariqah Sw
25.367,-101.017,65.3,0.00,Plan De Guadalupe Intl / Saltillo Intl
25.367,97.4,86.5,0.00,Myitkyina
25.383,68.417,94.1,0.00,Hyderabad
25.4,114.933,73.0,0.98,Xin-Feng
25.433,105.183,69.4,0.22,Xingren
25.433,106.767,75.2,0.00,Luodian
25.44,81.734,89.0,0.02,Allahabad Arpt
25.45,82.867,84.7,0.00,Lal Bahadur Shastri Varanasi Intl
25.483,-80.383,74.4,0.31,Homestead Afb Airport
25.517,69.783,84.6,0.00,Chhor
25.517,119.783,61.3,0.00,Pingtan
25.533,-103.45,70.2,0.00,Torreon Airport   &
25.568,-103.411,77.5,0.00,Torreon Intl
25.583,103.833,70.1,0.00,Zhanyi
25.591,85.088,82.9,0.04,Jai Prakash Narayan Intl Patna
25.617,111.6,72.5,0.00,Daoxian
25.633,122.067,66.2,0.35,Pengjia Yu(=589740)
25.673,21.091,77.9,0.00,Tazerbo
25.7,100.183,65.7,0.00,Dali
25.717,118.1,53.3,0.20,Jiuxian Shan
25.733,-100.3,77.0,0.00,Monterrey  N.L.
25.733,101.867,86.0,1.97,Yuanmou
25.733,112.967,68.7,0.00,Chenzhou
25.75,71.383,88.7,0.00,Barmer
25.75,88.917,80.2,0.08,Saidpur
25.767,-97.533,75.6,0.12,Matamoros Intl
25.788,-80.317,73.6,0.51,Miami International Airport
25.833,107.55,68.6,0.00,Dushan
25.84,-89.66,75.1,0.00,Mid Gulf 180 Nm South Of Southwest Pass
25.847,131.263,71.1,0.08,Minami Daito
25.85,114.95,71.4,0.04,Ganzhou
25.85,116.367,72.1,0.08,Changting
25.866,-100.237,77.6,0.00,Del Norte Intl
25.914,-97.423,74.6,0.00,Brownsville/S Padre Island Intl Ap
25.967,108.533,73.1,0.00,Rongjiang
25.967,117.35,69.4,0.67,Yong'An
26.01,-85.91,74.1,0.00,E Gulf 260 Nm South Of Panama City  Fl
26.017,-98.233,77.6,0.04,Reynosa Intl
26.072,-80.154,75.3,0.00,Fort Lauderdale Hol
26.083,119.283,62.1,0.28,Fuzhou
26.106,91.586,76.7,0.39,Guwahati Intl / Lokpriya Gopinath Bordoloi Intl
26.133,34.25,71.6,0.00,Kosseir
26.16,119.958,58.0,0.00,Nangan
26.167,109.783,70.6,0.00,Tongdao
26.167,119.933,58.0,0.35,Mazu
26.183,117.617,71.6,0.00,Sanming
26.184,-98.254,76.7,0.00,Mc Allen Miller Intl Arpt
26.196,127.646,68.6,0.00,Naha
26.199,36.476,72.0,0.00,Wejh
26.2,127.683,67.6,0.00,Naha
26.233,111.617,70.0,0.00,Lingling
26.251,73.049,92.3,0.00,Jodhpur
26.265,50.152,78.2,0.00,King Abdulaziz Ab
26.267,50.617,77.9,0.00,Bahrain/Muharraq
26.267,127.75,66.5,0.75,Okinawa Marine Corps Air Station
26.293,78.228,84.9,0.00,Gwalior
26.3,43.767,75.2,0.00,Gassim
26.356,127.768,72.7,0.98,Kadena Ab
26.4,103.25,67.7,0.00,Huize
26.517,119.533,59.9,0.59,Luoyuan
26.532,54.825,87.1,0.00,Bandar Lengeh
26.539,106.801,70.9,0.00,Longdongbao
26.559,-78.696,79.1,0.08,Grand Bahama Intl
26.585,-81.861,73.7,0.94,Page Field Airport
26.617,-78.367,79.7,0.00,Grand Bahama Aux Af
26.633,118.15,68.0,0.28,Nanping
26.65,102.25,72.4,0.00,Huili
26.681,88.329,76.4,0.04,Bagdogra
26.685,-80.099,74.8,0.83,Palm Beach International Airport
26.733,-108.283,78.8,0.00,Choix  Sin.
26.733,110.633,69.0,0.04,Wugang
26.74,83.45,82.0,0.00,Gorakhpur
26.761,80.889,83.3,0.00,Lucknow / Chaudhary Charan Singh Intl
26.77,-80.05,70.8,0.00,Lake Worth Inlet
26.8,113.533,71.2,0.75,Chaling
26.824,75.812,84.4,0.00,Jaipur
26.833,100.217,63.7,0.00,Lijing
26.85,116.333,70.3,0.08,Guangchang
26.867,104.283,64.2,0.00,Weining
26.9,70.917,91.1,0.00,Jaisalmer
26.933,112.583,70.7,0.00,Hengyang
26.967,108.667,68.3,0.00,Sansui
26.983,87.35,68.7,0.12,Dhankuta
26.987,14.473,87.1,0.00,Sebha
27.0,120.7,57.7,0.20,Taishan
27.05,118.317,68.5,0.28,Jian'Ou
27.092,142.191,71.4,0.59,Chichi Jima Bonin Island
27.117,114.967,69.3,0.04,Ji'An
27.152,-13.219,60.8,0.00,Hassan I
27.156,77.961,86.0,0.00,Agra
27.183,111.45,69.0,0.16,Shaoyang
27.233,2.5,90.2,0.00,In-Salah
27.3,105.233,68.8,0.00,Bijie
27.3,112.7,57.7,0.35,Nanyue
27.333,103.75,59.5,0.00,Zhaotong
27.333,117.467,69.8,0.00,Shaowu
27.333,120.2,60.5,0.08,Fuding
27.383,-82.55,80.6,0.00,Sarasota Bradenton
27.426,128.701,69.8,0.28,Okierabu
27.433,-99.567,83.2,0.91,Nuevo Laredo
27.438,41.686,67.8,0.00,Hail
27.45,109.683,70.0,0.08,Zhijiang
27.45,112.2,70.2,0.00,Shuang-Feng
27.47,-80.3,73.9,0.00,Fort Pierce Coast Guard Station
27.483,-109.917,83.8,0.00,Ciudad Obregon  Son
27.484,95.017,75.2,0.00,Dibrugarh
27.5,-97.817,76.9,0.00,Kingsville Nas
27.55,-99.467,86.8,0.00,Laredo Intl Airport
27.583,116.65,67.7,0.00,Nancheng
27.633,121.05,57.2,0.16,Dong-Gua Island
27.65,-81.333,78.9,0.00,Avon Park Gunnery R
27.653,-80.243,75.6,0.12,Vero Beach Muni
27.683,-97.283,73.7,0.00,Corpus Christi Nas
27.697,85.359,62.6,0.55,Tribhuvan Intl
27.7,106.883,71.6,0.00,Zunyi
27.733,89.083,35.8,0.04,Pagri
27.741,-98.025,73.9,0.00,Alice International Arpt
27.774,-97.512,74.7,0.00,Corpus Christi International Airport
27.8,114.383,69.5,0.08,Yichun
27.815,-17.887,66.6,0.00,Hierro
27.83,-97.07,72.6,0.00,Port Aransas Coast Guard Station
27.836,128.881,69.8,0.00,Tokunoshima
27.838,-0.186,80.2,0.00,Touat Cheikh Sidi Mohamed Belkebir
27.85,-82.517,74.5,0.00,Mac Dill Afb Airport
27.9,-82.683,75.6,0.00,St Petersburg Clear
27.9,102.267,74.8,0.00,Xichang
27.917,118.533,68.5,0.16,Pucheng
27.932,-15.387,65.8,0.00,Gran Canaria
27.95,-110.767,72.5,0.00,Empalme  Son.
27.95,108.25,71.3,0.00,Sinan
27.95,117.833,55.4,0.02,Qixian Shan
27.962,-82.54,73.9,0.00,Tampa International Airport
27.969,-110.925,81.1,2.72,General Jose Maria Yanez Intl / Guaymas Intl
28.0,73.3,88.8,0.00,Bikaner
28.017,120.667,62.6,0.00,Wenzhou
28.1,119.083,69.4,0.00,Longquan
28.101,-80.644,75.5,0.00,Melbourne Intl Ap
28.133,121.217,61.7,0.00,Yu-Huan
28.15,111.633,68.5,0.00,Mei-Cheng-Zhen
28.2,-177.383,69.2,0.00,Henderson Field Airport
28.2,113.083,68.5,0.00,Changsha/Datuopu
28.233,-80.6,75.2,0.00,Patrick Afb Airport
28.25,-91.833,73.6,0.00,Eugene Island
28.267,109.683,70.2,0.00,Qian-Zhou-Zhen
28.317,-16.5,46.9,0.00,Izana
28.33,-93.02,70.0,0.00,West Cameron
28.335,46.125,77.5,0.00,Al Qaisumah Intl
28.365,36.619,63.3,0.00,Tabuk / Prince Sultan Bin Abdulaziz
28.367,-97.667,75.4,0.00,Chase Naval Air Station
28.394,129.553,68.4,0.00,Naze/Funchatoge
28.417,92.467,48.5,0.00,Lhunze
28.422,79.451,79.4,0.04,Bareilly
28.431,129.713,69.3,0.00,Amami
28.434,-81.325,74.6,0.00,Orlando International Airport
28.45,-16.25,65.9,0.00,Sta. Cruz De Tenerife
28.45,98.883,46.6,0.00,Deqen
28.45,119.917,68.5,0.00,Lishui
28.45,121.883,57.2,0.00,Dachen Dao
28.453,-13.864,64.9,0.00,Fuerteventura
28.457,-99.218,77.7,0.00,Cotulla-La Salle Co Arpt
28.467,110.4,68.3,0.00,Yuanling
28.483,-16.342,55.5,0.00,Tenerife Norte
28.483,117.983,71.2,0.00,Shangrao
28.585,77.206,85.1,0.00,Safdarjung
28.617,-80.7,72.6,0.00,Nasa Shuttle Fclty
28.617,121.417,62.6,0.00,Hongjia
28.626,-17.756,66.3,0.00,La Palma
28.633,-106.083,71.6,0.00,Chihuahua  Chih.
28.633,87.083,35.4,0.00,Tingri
28.683,118.25,69.8,0.00,Yushan
28.7,-105.967,88.2,0.91,Chihuahua Intl    &
28.725,-96.254,71.7,0.00,Palacios Municipal Airport
28.75,113.617,69.4,0.00,Pingjiang
28.78,-81.244,81.3,0.00,Orlando Sanford Airport
28.8,104.6,70.5,0.00,Yibin
28.817,62.75,85.6,0.00,Nokkundi
28.817,120.917,50.5,0.00,Kuocang Shan
28.833,108.767,68.2,0.00,Youyang
28.85,112.383,68.9,0.00,Yuanjiang
28.861,-96.93,72.2,0.00,Victoria Regional Airport
28.865,115.9,70.0,0.00,Changbei Intl
28.883,105.433,68.6,0.00,Luzhou
28.892,53.723,73.8,0.00,Fasa
28.92,-89.43,69.6,0.00,Southwest Pass Coast Guard Stati
28.945,-13.605,66.3,0.00,Lanzarote
28.95,-95.3,72.6,0.00,Freeport Coast Guard Station
28.95,107.15,58.7,0.00,Jinfo Shan (Mount)
28.967,118.867,66.4,0.00,Qu Xian
29.0,101.5,60.1,0.00,Jiulong
29.033,21.567,73.7,0.00,Jalo
29.033,114.583,67.7,0.00,Xiushui
29.05,100.3,51.8,0.00,Daocheng
29.05,111.683,69.1,0.00,Changde
29.083,-110.95,81.5,1.81,Hermosillo Intl   &
29.083,116.883,69.8,0.00,Gu-Xian-Du
29.096,-111.048,77.9,0.00,General Ignacio P Garcia Intl / Hermosillo Intl
29.117,15.95,83.7,0.00,Hon
29.17,-118.32,63.1,0.00,Isla Guadalupe
29.179,75.755,82.0,0.00,Hisar
29.183,-81.048,73.1,0.00,Daytona Beach Intl
29.2,121.95,60.5,0.00,Shipu
29.227,47.969,76.2,0.00,Kuwait Intl
29.237,0.276,80.6,0.00,Timimoun
29.25,88.883,48.0,0.00,Xigaze
29.273,-94.859,71.5,0.00,Scholes Intl At Glston Apt
29.3,-94.8,71.2,0.00,Galveston
29.3,117.2,70.7,0.00,Jingdezhen
29.333,-89.408,70.7,0.00,Baton Rouge Metro R
29.367,-100.783,79.6,0.00,Laughlin Afb Airport
29.378,-100.927,81.0,0.00,Del Rio International Airport
29.383,-98.583,75.8,0.00,Lackland Air Force Base (Kelly Field Annex)
29.383,113.083,70.1,0.00,Yueyang
29.4,110.167,70.1,0.00,Sangzhi
29.417,48.0,90.3,0.00,South Dolphin
29.433,112.183,70.2,0.00,Anxiang
29.476,60.907,80.3,0.00,Zahedan Intl
29.517,103.333,41.3,0.00,Emei Shan
29.517,106.483,71.4,0.04,Chong-Qing
29.533,-98.262,71.0,0.00,Randolph Afb Airport
29.533,109.383,71.6,0.00,Laifeng
29.539,52.589,66.9,0.00,Shiraz Shahid Dastghaib Intl
29.544,-98.484,73.1,0.00,San Antonio International Airport
29.561,34.96,71.4,0.20,Eilat
29.567,48.2,67.6,0.00,Beacon N6
29.567,94.467,52.7,0.00,Nyingchi
29.583,105.05,68.9,0.00,Neijiang
29.583,111.3,69.3,0.00,Shi-Men
29.583,115.983,58.0,0.00,Lu Shan
29.6,120.817,63.4,0.00,Shengxian
29.612,35.018,68.3,0.00,Aqaba King Hussein Intl
29.617,-95.167,73.0,0.00,Ellington Field Airport
29.626,43.491,65.8,0.00,Rafha
29.633,-83.105,70.7,0.00,Cross City Airport
29.638,-95.282,72.4,0.00,William P Hobby
29.667,91.133,53.1,0.00,Lhasa / Gonggar
29.67,-88.88,71.9,0.00,Main Pass B68
29.692,-82.276,71.3,0.00,Gainesville Rgnl
29.717,118.267,68.5,0.00,Tunxi
29.73,-93.87,71.2,0.00,Sabine Pass Coast Guard Station
29.733,-85.033,70.9,0.00,Apalachicola Muni Airport
29.75,24.533,74.3,0.00,Gighbub
29.785,40.1,64.9,0.00,Al Jouf
29.817,-90.017,70.8,0.00,New Orleans Nas
29.917,121.467,59.5,0.00,Ningbo
29.951,-94.021,73.6,0.00,Southeast Texas Regional Airport
29.98,-95.36,71.3,0.00,G Bush Intercontinental Ap/Houston Ap
29.983,103.0,67.6,0.00,Ya'An
29.997,-90.278,76.5,0.00,Louis Armstrong New Orleans Intl Ap
30.0,99.1,67.6,0.00,Batang
30.0,100.267,49.2,0.00,Litang
30.033,122.117,59.7,0.00,Dinghai
30.05,101.967,54.6,0.00,Kangding
30.067,-85.583,68.8,0.00,Tyndall Afb Airport
30.067,115.333,71.2,0.00,Qizhou
30.1,-88.2,39.7,0.00,Data Buoy 42015
30.1,46.117,73.4,0.00,Busayah
30.117,30.917,62.9,0.00,Cairo West
30.122,31.406,65.5,0.00,Cairo Intl
30.125,-93.228,70.6,0.00,Lake Charles Regional Airport
30.133,-2.167,77.5,0.00,Beni-Abbes
30.133,118.15,51.2,0.00,Huang Shan
30.152,9.715,85.3,0.00,Ghadames East
30.167,35.783,56.1,0.00,Ma'An
30.2,-97.683,73.9,0.00,Bergstrom Afb/Austi
30.2,110.667,64.4,0.00,Wu-Feng
30.205,-91.988,71.8,0.00,Lafayette Regional Airport
30.217,-81.883,72.5,0.00,Cecil Fld
30.228,120.432,61.7,0.00,Xiaoshan
30.233,-81.667,71.0,0.00,Jacksonville Nas
30.274,56.951,69.4,0.00,Kerman
30.283,109.467,68.5,0.00,Enshi
30.321,-97.76,73.8,0.00,Austin/Mueller Muni
30.333,-81.517,69.7,0.00,Jacksonville/Craig
30.333,76.467,72.0,0.12,Patiala
30.333,112.183,69.8,0.00,Jiangling
30.35,-87.317,69.0,0.00,Pensacola Nas
30.35,119.417,49.5,0.00,Tianmu Shan (Mtns)
30.367,-107.95,68.0,0.00,Nueva Casas Grandes   Chih.
30.371,-104.017,67.7,0.00,Marfa Municipal Airport
30.371,48.228,72.9,0.00,Abadan
30.381,-9.546,63.8,0.00,Inezgane
30.383,13.583,80.6,0.00,Gariat El-Sharghia
30.386,130.659,68.8,0.24,Yakushima
30.393,-84.353,69.1,0.00,Tallahassee Regional Airport
30.4,-89.067,74.5,0.00,Gulfport Biloxi Int
30.4,-81.417,72.4,0.00,Mayport Naf
30.417,-88.917,71.3,0.00,Keesler Air Force Base
30.417,-86.683,68.5,0.00,Hurlburt Field Airport
30.483,-86.517,69.6,0.00,Eglin Afb Airport
30.495,-81.694,69.2,0.00,Jacksonville International Airport
30.5,44.533,73.8,0.00,Al-Salman
30.5,101.483,49.3,0.00,Qian-Ning
30.511,-99.766,79.1,0.00,Kimble County Airport
30.533,38.9,76.0,0.00,Maarik
30.537,-91.147,71.7,0.00,Baton Rouge Metro R
30.547,130.95,66.7,0.00,Tanegashima
30.549,47.662,72.3,0.00,Basrah Intl
30.55,81.433,37.4,0.04,T'U-Ko-Erh-Ho-Kung
30.571,2.86,70.8,0.00,El Golea
30.579,103.947,65.8,0.04,Shuangliu
30.589,-96.365,74.2,0.00,Easterwood Fld
30.617,116.967,67.8,0.00,Anqing
30.65,-86.517,70.7,0.00,Duke Fld
30.683,107.8,72.6,0.00,Liangping
30.688,-88.246,71.1,0.00,Mobile Regional Airport
30.717,-87.017,72.4,0.12,Whiting Field Naval Air Station North
30.717,20.167,64.9,0.00,Agedabia
30.717,130.983,63.3,0.00,Tanegashima
30.733,111.367,70.9,0.00,Yichang
30.733,122.45,58.5,0.00,Shengsi
30.75,106.133,72.5,0.51,Gaoping
30.75,115.667,70.2,0.00,Yingshan
30.783,-86.517,68.0,0.00,Bob Sikes Airport
30.783,-83.277,70.2,0.00,Valdosta Regional Airport
30.783,110.267,55.9,0.00,Lu-Cong-Po
30.784,114.208,69.3,0.00,Tianhe
30.907,41.138,63.7,0.00,Arar
30.939,-6.909,57.2,0.00,Ouarzazate
30.95,88.633,34.1,0.08,Xainza
30.967,-83.2,69.7,0.00,Moody Afb/Valdosta
31.017,109.533,70.1,0.00,Fengjie
31.05,-93.183,73.6,0.00,Polk Army Airfield
31.067,-97.833,69.9,0.20,Robert Gray Aff Airport
31.133,-97.717,70.8,0.12,Hood Aaf Airport
31.133,-92.567,75.4,0.00,Claiborne Range  La. (Afs)
31.133,114.95,68.0,0.00,Macheng
31.15,-97.4,71.1,0.00,Draughon Miller Cen
31.15,97.167,57.7,0.00,Qamdo
31.152,-81.391,70.0,0.00,Malcolm Mc Kinnon Airport
31.167,112.633,69.8,0.00,Zhongxiang
31.183,-90.471,67.8,0.67,Mcom/Pike Co/J E Lws Fd Ap
31.184,29.949,63.6,0.00,Alexandria Intl
31.198,121.336,58.8,0.00,Hongqiao Intl
31.2,16.583,72.6,0.00,Sirte
31.2,107.5,70.5,0.00,Da Xian
31.233,34.267,54.2,0.00,Gaza International Airport
31.236,-94.754,72.4,0.00,Angelina County Airport
31.267,-85.717,69.9,0.16,Cairns Army Airfield (Fort Rucker)
31.267,45.267,70.4,0.00,Samawa
31.267,120.617,63.5,0.00,Suzhou
31.287,34.723,61.1,0.00,Teyman
31.317,-92.55,71.3,0.00,Alexandria Int
31.317,-85.45,69.3,0.08,Dothan Rgnl
31.333,118.35,66.2,0.00,Wu-Hu
31.352,-100.495,72.3,0.00,San Angelo Regional/Maths Field Ap
31.367,90.017,33.5,0.12,Baingoin
31.368,130.845,61.5,0.00,Kanoya
31.395,-92.291,72.0,0.00,Esler Regional Airport
31.4,116.333,66.7,0.00,Huoshan
31.417,95.6,49.8,0.00,Dengqen
31.433,119.483,60.8,0.00,Liyang
31.45,104.733,68.0,0.08,Mianyang
31.458,-109.606,68.3,0.00,Bisbee Douglas Intl
31.483,92.067,38.5,0.00,Nagqu
31.506,65.848,74.3,0.00,Kandahar
31.514,10.598,67.1,0.00,Nalut
31.522,74.404,81.0,0.00,Allama Iqbal Intl
31.536,-84.194,67.2,0.00,Sw Georgia Regional Arpt
31.536,-82.507,72.0,0.00,Alma/Bacon Co.
31.55,64.367,73.0,0.00,Bust
31.55,130.55,62.6,0.00,Kagoshima
31.583,105.967,71.1,0.00,Langzhong
31.588,-110.344,73.7,0.00,Sierra Vista Municipal-Libby Aaf Airport
31.607,-8.036,62.6,0.00,Menara
31.617,-91.3,68.8,0.00,Natchez/Hardy(Awos)
31.617,100.0,55.6,0.00,Garze
31.619,-97.228,68.9,0.16,Waco Regional Airport
31.633,-106.433,77.5,0.91,Ciudad Intl
31.646,-2.27,71.4,0.00,Bechar / Boudghene Ben Ali Lotfi
31.673,6.14,76.3,0.00,Oued Irara / Krim Belkacem
31.693,38.731,59.6,0.00,Turaif
31.71,74.797,80.2,0.00,Amritsar
31.733,98.567,56.6,0.00,Dege
31.742,118.862,65.3,0.00,Lukou
31.767,119.95,64.0,0.00,Changzhou
31.78,-103.202,70.0,0.00,Winkler County Airport
31.78,117.298,68.3,0.00,Luogang / Xinqiao
31.803,130.719,64.9,0.00,Kagoshima
31.811,-106.376,72.7,0.00,El Paso International Airport
31.831,-104.809,59.0,0.00,Guadalupe Pass Amos
31.85,47.167,68.7,0.00,Amarah
31.85,102.7,44.6,0.00,Ma-Tang
31.861,-86.012,72.8,0.00,Troy Municipal Airport
31.865,35.219,50.5,0.00,Jerusalem
31.877,131.449,63.4,0.00,Miyazaki
31.883,-81.567,69.7,0.00,Ft Stewart/Wright
31.883,93.783,42.3,0.04,Sog Xian
31.9,102.233,60.4,0.08,Barkam
31.905,54.277,76.3,0.00,Yazd Shahid Sadooghi
31.933,131.417,61.9,0.00,Miyazaki
31.948,-102.209,66.7,0.00,Midland International Airport
31.948,-4.398,69.3,0.00,Moulay Ali Cherif
31.95,44.317,69.8,0.00,Najaf
31.95,44.95,69.5,0.00,Diwaniya
31.973,35.992,50.6,0.04,Marka Intl
31.983,128.35,61.2,0.00,Meshima
32.0,-75.083,66.4,0.00,S Hatteras - 250 Nm East Of Charleston
32.009,-81.146,67.0,0.00,Hunter Aaf
32.011,34.887,60.1,0.04,Ben Gurion
32.033,42.283,68.0,0.00,Nukheb
32.033,110.767,64.9,0.00,Fangxian
32.05,72.667,84.9,0.00,Sargodha
32.067,108.033,71.3,0.00,Wanyuan
32.067,121.6,54.1,0.00,Lusi
32.084,131.451,61.4,0.00,Nyutabaru
32.097,20.269,65.3,0.00,Benina Airport
32.1,34.783,63.3,0.04,Sde-Dov (Tel-Aviv)
32.1,120.867,63.0,0.00,Nantong/Jinsha
32.131,-110.955,76.6,0.00,Tucson International Airport
32.131,-81.202,67.7,0.00,Savannah/Hilton Head Intl Airport
32.133,46.033,69.8,0.00,Kut-Al-Hai
32.133,114.05,69.3,0.00,Xinyang
32.15,112.667,72.1,0.00,Zaoyang
32.161,37.149,56.7,0.00,Prince Hasan
32.167,-110.883,74.1,0.00,Davis-Monthan Afb Airport
32.167,115.617,69.3,0.00,Gushi
32.243,15.021,74.0,0.00,Misurata
32.25,-107.717,70.1,0.00,Deming Muni
32.25,96.217,49.4,0.00,Nangqen
32.283,-9.233,59.5,0.00,Safi
32.283,100.333,45.2,0.00,Sertar
32.3,-86.408,67.7,0.00,Montgomery Rgnl (Dannelly Fd) Ap
32.3,84.05,35.2,0.00,Lumaringbo
32.306,10.382,67.3,0.00,Remada
32.321,-90.078,64.8,0.83,Jackson International Airport
32.334,-104.258,71.9,0.00,Cavern City Air Trml Arpt
32.335,-88.744,63.9,0.31,Key Field Airport
32.35,-85.0,65.7,0.00,Lawson Aaf Airport
32.354,-95.403,68.9,0.00,Tyler Pounds Regional Arpt
32.367,-64.683,66.9,0.00,Naval Atlantic Meterology & Oceanography Facility
32.367,-6.4,56.0,0.00,Beni-Mellal
32.367,62.183,81.7,0.00,Farah
32.383,-86.35,70.1,0.00,Maxwell Afb Airport
32.384,3.794,72.3,0.00,Noumerat Moufdi Zakaria
32.385,-94.712,69.5,0.59,Longview
32.4,48.383,72.4,0.00,Dezful
32.411,-99.682,66.8,0.00,Abilene Regional Airport
32.417,104.517,66.7,0.16,Pingwu
32.433,-99.85,67.5,0.00,Abilene Dyess Afb
32.433,111.733,68.2,0.00,Laohekou
32.447,-93.824,67.6,0.59,Shreveport Regional Airport
32.483,-80.717,67.3,0.00,Beaufort Mcas
32.5,-93.667,65.8,0.00,Barksdale Air Force Base
32.5,74.533,82.0,0.00,Sialkot City
32.5,80.083,28.8,0.00,Shiquanhe
32.516,-92.041,65.2,0.55,Monroe Regional Airport
32.516,-84.942,66.1,0.00,Columbus Metro Airport
32.533,-116.983,65.8,0.00,Tijuana
32.539,38.195,59.9,0.00,H4
32.55,-88.567,65.4,0.04,Meridian Nas/Mc Cain Fd Ap
32.555,12.056,66.2,0.00,Zuara
32.567,-117.117,63.9,0.00,Naval Auxiliary Landing Fd
32.567,44.05,69.5,0.00,Kerbela
32.583,116.783,63.9,0.00,Shouxian/Shouyang
32.633,-116.467,64.2,0.00,Campo
32.633,-115.217,85.4,0.00,Mexicali
32.633,-108.167,71.2,0.00,Bisbee Douglas Intl
32.633,-83.6,66.2,0.00,Robins Afb Airport
32.65,-114.617,82.0,0.00,Yuma Mcas
32.664,13.159,72.1,0.00,Tripoli Intl
32.666,128.833,65.0,0.00,Fukue
32.667,-114.6,81.2,0.00,Yuma Marine Corps Air Station/Yuma Intl Airport
32.667,35.183,60.1,0.04,Ramat-David
32.667,103.6,48.2,0.51,Songpan
32.683,-16.767,63.3,0.00,Funchal/S.Catarina
32.685,-83.653,67.1,0.00,Middle Georgia Regional Airport
32.693,-103.213,64.6,0.79,Lea County Regional Airport
32.7,-117.2,60.6,0.01,North Island Nas
32.7,128.833,57.4,0.00,Fukue
32.717,109.033,63.3,0.00,Ankang
32.717,133.017,64.4,0.00,Shimizu
32.733,-96.967,66.8,0.00,Naval Air Station Operations
32.733,129.867,59.9,0.00,Nagasaki
32.734,-117.183,65.0,0.01,San Diego International Airport
32.75,-118.417,57.4,0.00,Long Beach
32.751,51.862,65.1,0.00,Esfahan Shahid Beheshti Intl
32.767,-97.45,65.1,0.00,Fort Worth Naval Air Station Jrb/Carswell Field
32.782,-98.06,67.8,0.00,Mineral Wells Airport
32.783,22.583,64.7,0.00,Derna
32.783,119.45,62.6,0.00,Gaoyou
32.8,21.883,56.1,0.00,Shahat
32.8,110.8,68.9,0.00,Yun-Xian
32.817,-117.133,61.7,0.01,San Diego/Montgomer
32.817,130.7,59.0,0.00,Kumamoto
32.819,-97.361,64.5,0.00,Fort Worth Meacham
32.834,-115.579,77.7,0.00,Imperial Co
32.837,130.855,62.5,0.00,Kumamoto
32.85,-106.1,64.5,0.00,Holloman Afb
32.85,-79.95,68.8,0.00,Charleston Nas
32.85,117.3,66.7,0.00,Bengbu
32.85,120.283,59.0,0.00,Dongtai
32.852,-96.856,66.3,0.00,Dallas Love Field Airport
32.867,-117.133,60.7,0.00,San Diego Miramar Nas
32.867,115.733,69.8,0.00,Fuyang
32.883,-112.717,83.6,0.00,Gila Bend Af Aux
32.898,-97.019,63.1,0.00,Dallas/Ft Worth International Ap
32.898,59.266,76.6,0.00,Birjand
32.899,-80.041,66.5,0.00,Charleston Afb/International Airport
32.9,95.3,40.2,0.01,Zadoi
32.917,129.914,59.3,0.00,Nagasaki
32.933,73.717,81.7,0.00,Jhelum
32.933,113.917,67.7,0.00,Zhumadian
32.967,35.5,50.0,0.00,Har-Knaan (Zefat)
33.017,96.95,45.3,0.08,Yushu
33.023,-118.588,59.9,0.01,Nalf/F. Sherman Fld Arpt
33.033,40.283,61.3,0.00,Rutbah
33.067,107.033,65.5,0.00,Hanzhong
33.068,6.089,72.9,0.00,Sidi Mahdi / Nesrat Hachani
33.073,-16.35,62.8,0.00,Porto Santo
33.1,112.483,70.7,0.00,Nanyang
33.115,139.786,64.6,0.00,Hachijojima
33.117,139.783,61.5,0.04,Hachijojima
33.2,126.267,57.6,0.00,Mosulpo (Kor-Afb)
33.212,-87.616,66.0,0.00,Tuscaloosa Municipal Arpt
33.221,-92.814,63.3,1.10,S. Ar Rgnl At Gdwin Fld Ap
33.233,131.617,57.7,0.00,Oita
33.237,-107.268,67.3,0.00,Trh Or Conseqces Muni Arpt
33.24,-119.458,59.3,0.08,San Nicolas Island Naval Outlying Field
33.25,126.567,59.7,0.00,Seogwipo
33.25,134.183,58.1,0.00,Murotomisaki
33.267,44.233,68.5,0.00,Baghdad Intl Airport
33.3,-117.35,63.3,0.00,Marine Corps Air Station
33.3,-111.667,78.2,0.00,Williams Gateway Airport
33.308,-104.508,67.5,0.00,Roswell International Air Center Ap
33.317,130.417,63.6,0.00,Metabaru (Jasdf)
33.333,118.667,66.2,0.00,Hongze Hu (Lake)
33.35,10.483,64.4,0.00,Medenine
33.364,-81.963,62.5,0.55,Augusta Regional At Bush Field Ap
33.367,-7.59,56.9,0.00,Mohammed V
33.4,104.917,71.6,0.00,Wudu
33.412,36.516,55.9,0.00,Damascus Intl
33.417,109.15,63.8,0.00,Chen-An
33.428,-112.004,79.7,0.00,Phoenix Sky Harbor Intl Airport
33.433,48.283,61.2,0.00,Khorram Abad
33.45,108.25,62.9,0.00,Wen-Huang-Ping
33.45,135.75,60.6,0.04,Shionomisaki
33.456,-93.988,63.3,0.98,Texarkana Regional Airport-Webb Field
33.467,101.483,38.3,0.12,Jigzhi
33.479,131.737,63.6,0.00,Oita
33.483,-90.985,63.9,0.00,Mid Delta Rgnl
33.483,-77.583,67.4,0.00,Frying Pan Shoals   Nc.
33.496,-90.087,61.9,0.08,Greenwood Leflore
33.511,6.777,68.4,0.00,Guemar
33.511,126.493,56.5,0.00,Jeju Intl
33.517,126.533,57.0,0.00,Jeju
33.533,65.267,45.9,0.00,Chakhcharan
33.533,68.417,60.8,0.00,Ghazni
33.546,133.669,70.0,0.00,Kochi
33.55,-112.367,76.3,0.00,Luke Afb Airport
33.557,-7.66,58.8,0.00,Anfa
33.566,-86.745,61.1,0.39,Birmingham International Airport
33.567,133.55,63.5,0.04,Kochi
33.583,102.967,44.9,0.00,Ruo'Ergai
33.583,130.383,56.8,0.00,Fukuoka
33.586,130.451,55.7,0.00,Fukuoka
33.587,-85.856,62.9,0.63,Anniston Metropolitan Arpt
33.6,-102.05,62.5,0.00,Reese Afb/Lubbock
33.6,119.033,61.5,0.00,Qingjiang
33.617,73.099,79.7,0.00,Chaklala
33.619,-114.714,82.9,0.00,Blythe Airport
33.627,-116.159,76.8,0.00,Desert Resorts Rgnl Arpt
33.63,-84.442,60.0,0.51,Hartsfield-Jackson Atlanta Intl Ap
33.633,-95.45,63.3,0.00,Cox Fld
33.65,-88.45,62.2,0.00,Columbus Afb Airport
33.662,135.364,66.2,0.00,Nanki Shirahama
33.666,-101.823,58.9,0.00,Lubbock International Airport
33.667,-117.733,60.8,0.00,El Toro Mcas
33.668,56.893,87.4,0.00,Tabas
33.68,-117.866,61.1,0.00,J. Wayne Apt-Orange Co Apt
33.683,-78.933,66.7,0.00,Myrtle Beach Intl Airport
33.685,131.04,54.9,0.00,Tsuiki
33.7,-117.833,61.9,0.02,Tustin Mcaf
33.717,1.083,50.6,0.00,El-Bayadh
33.749,129.785,61.0,0.00,Iki
33.75,99.65,36.3,0.16,Darlag
33.75,105.75,66.2,0.00,Cheng-Xian
33.75,120.3,57.6,0.00,Sheyang
33.767,-118.167,60.1,0.01,Long Beach
33.783,114.517,69.8,0.00,Xihua
33.783,115.733,70.2,0.00,Boxian
33.8,97.133,31.1,0.27,Qingshui-He
33.812,-118.146,63.1,0.02,Long Beach / Daugherty Field / Airport
33.816,-78.72,69.3,0.00,Grand Strand Airport
33.817,-106.667,62.3,0.00,Stallion Aaf  Nm
33.821,35.488,61.1,0.00,Rafic Hariri Intl
33.827,132.7,60.0,0.00,Matsuyama
33.833,-116.5,75.7,0.00,Palm Springs Intl
33.836,130.947,63.3,0.00,Kitakyushu
33.85,132.783,57.6,0.00,Matsuyama
33.875,10.775,63.7,0.00,Zarzis / Djerba
33.877,10.103,64.0,0.00,Gabes / Matmata
33.879,-5.515,54.7,0.00,Bassatine
33.88,-78.02,65.9,0.00,South Port / Oak Island Coast Gu
33.883,130.653,55.7,0.00,Ashiya
33.895,51.577,76.6,0.00,Kashan
33.9,-117.25,59.3,0.08,March Air Reserve Base
33.9,117.95,68.4,0.31,Suining
33.917,-84.517,61.9,0.47,Dobbins Air Reserve Base Airport
33.921,-80.801,62.7,1.34,Mc Entire Jngb
33.927,-4.978,55.1,0.00,Saiss
33.93,131.279,65.5,0.00,Yamaguchi Ube
33.938,-118.389,59.9,0.02,Los Angeles International Airport
33.94,8.111,72.3,0.00,Nefta
33.942,-81.118,61.3,0.55,Columbia Metropolitan Airport
33.948,-83.328,61.9,0.35,Athens/Ben Epps Airport
33.95,130.933,57.4,0.00,Shimonoseki
33.967,-80.467,63.7,0.91,Shaw Air Force Base
33.967,113.217,69.8,0.00,Jiaxian
33.979,-98.493,59.3,0.00,Sheppard Afb/Wichita Falls Muni Ap
34.0,113.967,66.2,0.00,Xuchang
34.0,134.633,61.4,0.00,Komatsujima (Jasdf)
34.017,71.583,83.3,0.00,Peshawar
34.02,-119.75,47.9,0.00,Santa Cruz Island
34.033,36.717,48.2,0.16,Nabk
34.035,131.549,57.6,0.00,Hofu
34.045,131.052,57.1,0.00,Ozuki
34.051,-6.752,59.6,0.00,Rabat Sale Intl
34.067,-117.65,62.8,0.03,Ontario
34.067,134.567,60.8,0.00,Tokushima
34.067,136.2,55.4,0.35,Owase
34.074,139.56,63.1,0.00,Miyakejima
34.083,74.833,62.6,0.00,Srinagar
34.083,111.067,66.0,0.00,Lushi
34.095,-117.235,60.2,0.08,San Bernardino International Airport
34.117,-119.117,58.8,0.19,Point Mugu
34.117,139.517,59.9,0.59,Miyakejima
34.133,42.35,63.6,0.00,Hadithah
34.133,95.783,32.3,0.18,Qumarleb
34.133,134.607,59.8,0.00,Tokushima
34.138,49.847,57.2,0.00,Arak
34.15,112.1,64.4,0.00,Tien-Hu
34.15,132.233,57.5,0.00,Iwakuni
34.18,-91.934,60.3,0.04,Grider Field Airport
34.188,-79.731,62.3,0.04,Florence Regional Airport
34.198,129.292,55.6,0.00,Izuhara
34.201,-118.358,60.3,0.00,Burbank-Glendale-Pasa Arpt
34.21,-118.489,57.8,0.00,Van Nuys Airport
34.214,134.016,63.4,0.00,Takamatsu
34.217,-4.0,56.2,0.00,Taza
34.217,92.433,29.5,0.05,Tuotuohe
34.233,135.167,59.0,0.04,Wakayama
34.257,-111.339,65.6,0.00,Payson
34.262,-88.771,62.2,0.00,Tupelo C D Lemons Arpt
34.268,-77.9,65.5,0.00,Wilmington New Hanover County
34.283,117.15,66.4,0.00,Xuzhou
34.3,-97.017,59.4,0.00,Ardmore Municipal
34.3,129.3,62.0,0.00,Tsushima
34.317,134.05,57.6,0.00,Takamatsu
34.346,47.158,50.3,0.00,Shahid Ashrafi Esfahani
34.348,-85.161,62.5,0.35,Richard B Russell Airport
34.35,45.383,64.7,0.00,Khanaqin
34.35,107.133,62.1,0.00,Baoji
34.367,41.95,68.9,0.00,Anah
34.367,63.15,18.9,0.00,Obe
34.383,-103.317,60.4,0.00,Cannon Afb Airport
34.383,-89.533,58.0,0.00,Oxford University
34.4,-119.7,56.2,0.00,Santa Barbara Harbor
34.4,70.499,76.4,0.00,Jalalabad
34.4,115.633,68.5,0.00,Shangqiu
34.4,132.467,59.5,0.00,Hiroshima
34.417,40.917,59.9,0.00,Abukmal
34.417,116.333,67.6,0.00,Tang-Shan
34.422,8.823,63.5,0.00,Gafsa
34.426,-119.843,57.1,0.12,Santa Barbara Municipal Airport
34.427,-100.283,60.1,0.00,Childress Municipal Ap
34.436,132.919,62.7,0.00,Hiroshima
34.447,108.752,63.0,0.00,Xianyang
34.467,-93.083,64.8,0.00,Memorial Fld
34.483,110.083,54.1,0.00,Hua Shan
34.498,-82.71,63.2,0.12,Anderson Rgnl
34.517,45.583,64.4,0.00,Ghasre-Shirin
34.52,113.841,70.0,0.00,Xinzheng
34.533,136.683,60.1,0.00,Akeno (Jasdf)
34.557,38.317,60.8,0.00,Palmyra
34.566,69.212,62.9,0.00,Kabul Intl
34.567,-120.667,56.9,0.00,Point Arguello(Cgs)
34.583,-117.383,61.0,0.00,Southern California Logistics Airport
34.583,105.75,65.2,0.00,Tianshui
34.59,32.988,62.2,0.00,Akrotiri
34.596,135.603,61.6,0.00,Yao
34.6,-76.53,61.9,0.00,Cape Lookout Coast Guard Station
34.6,138.217,58.6,0.47,Omaezaki
34.644,-86.787,59.6,0.16,Huntsville Intl/C.T.Jones Field Airport
34.65,-99.267,57.6,0.00,Altus Afb Airport
34.65,-98.4,58.9,0.00,Henry Post Aaf Airport
34.652,-112.421,62.3,0.00,Prescott Municipal Ap
34.667,112.417,71.6,0.00,Luo-Yang
34.683,-94.617,10.7,0.00,Page  Ok.
34.683,3.25,51.0,0.00,Djelfa/Tletsi
34.683,135.517,58.8,0.00,Osaka
34.7,135.217,58.1,0.00,Kobe
34.708,-77.44,62.8,0.28,Jacksonville
34.717,104.883,52.4,0.00,Wu-Shan
34.718,10.691,62.8,0.00,Thyna
34.718,32.486,61.3,0.00,Pafos Intl
34.727,-92.239,61.2,0.20,Little Rock Adams Field
34.733,101.6,45.9,0.00,Henan
34.733,127.75,58.1,0.00,Yeosu
34.741,-118.212,58.9,0.00,General William J. Fox Airfield Airport
34.744,-118.724,43.6,0.20,Sandberg
34.744,-87.6,57.9,0.12,North West Alabama Regional Airport
34.75,-120.567,62.4,0.00,Vandenberg Afb
34.75,114.417,69.8,0.00,Kaifeng
34.75,137.703,59.5,0.00,Hamamatsu
34.75,139.367,56.1,0.24,Oshima
34.757,133.855,67.1,0.00,Okayama
34.768,-114.619,83.4,0.00,Needles Airport
34.782,139.36,62.9,0.00,Oshima
34.786,135.438,56.4,0.00,Osaka Intl
34.787,-1.924,57.5,0.00,Angads
34.793,5.738,73.4,0.00,Biskra / Mohamed Khider
34.8,107.867,61.1,0.00,Cui-Mu
34.8,138.183,60.3,0.00,Shizuoka Airport
34.813,138.298,60.3,0.00,Shizuhama
34.817,36.133,56.9,0.00,Safita
34.817,126.383,56.3,0.00,Mokpo
34.833,-92.25,59.9,0.00,Little Rock Wsfo
34.85,119.133,57.4,0.00,Ganyu
34.85,128.433,58.1,0.00,Tongyeong
34.854,-116.786,69.9,0.00,Barstow-Daggett Airport
34.875,33.625,61.5,0.00,Larnaka Intl
34.882,-95.783,57.8,0.00,Mc Alester Regional Arpt
34.899,-120.449,57.5,0.28,Santa Maria Pub/Capt G A Hancock Ap
34.9,-117.867,62.7,0.00,Edwards Air Force Base
34.9,-76.883,62.6,0.00,Cherry Point Mcas
34.9,132.067,53.6,0.00,Hamada
34.906,-82.213,59.7,0.63,Greenville-Spartanburg Intl Airport
34.917,-92.15,59.8,0.00,Little Rock Afb Airport
34.917,-81.95,59.5,0.00,Spartanburg Downtown Memorial Airport
34.917,98.217,34.0,0.00,Madoi
34.983,-78.883,61.0,0.00,Fayetteville Rgnl G
34.983,139.867,59.9,0.20,Tateyama
34.987,139.829,60.6,0.00,Tateyama
34.989,-99.053,57.0,0.00,Hobart Municipal Airport
35.0,102.9,48.4,0.01,Hezuo
35.017,-1.333,55.4,0.00,Tlemcen/Zenata
35.017,135.733,56.8,0.04,Kyoto
35.028,-110.721,65.0,0.00,Winslow-Lindbergh Regional Airport
35.034,-85.2,61.5,0.39,Lovell Field Airport
35.042,-106.616,64.4,0.00,Albuquerque Intl Sunport Airport
35.05,118.35,62.6,0.00,Linyi
35.056,-89.987,59.5,0.08,Memphis International Airport
35.068,-77.048,61.3,0.12,Craven County Reg Airport
35.083,128.083,56.1,0.00,Sacheon Ab
35.1,129.033,58.3,0.00,Busan
35.117,36.75,59.3,0.00,Hama
35.117,111.067,71.8,0.00,Yuncheng
35.12,-75.98,64.2,0.00,Oracoke Coast Guard Station
35.126,126.809,57.8,0.00,Gwangju
35.133,-78.933,62.3,0.12,Simmons Aaf Airport
35.133,128.7,61.9,0.00,Chinhae (Kor-Army)
35.144,-111.666,52.9,0.00,Flagstaff Pulliam Arpt
35.167,109.05,65.2,0.00,Tongchuan
35.167,126.9,58.3,0.00,Gwangju
35.167,128.033,55.6,0.00,Jinju
35.167,136.967,56.1,0.20,Nagoya
35.174,-79.009,61.3,0.20,Pope Afb Airport
35.177,-3.84,62.1,0.00,Cherif El Idrissi
35.18,128.938,57.0,0.00,Gimhae Intl
35.182,-103.603,57.1,0.00,Tucumcari Municipal Arpt
35.2,48.683,49.3,0.00,Nowjeh
35.217,93.083,23.5,0.18,Wudaoliang
35.224,-80.955,60.7,0.43,Charlotte/Douglas International Ap
35.23,-101.704,55.0,0.00,Amarillo Rick Husband Intl Airport
35.233,-75.622,64.0,0.00,Cape Hatteras
35.247,47.009,50.7,0.00,Sanandaj
35.25,115.433,69.4,0.00,Heze/Caozhou
35.255,136.924,56.6,0.00,Nagoya
35.259,-113.95,65.6,0.00,Kingman
35.267,-117.433,61.1,0.00,Cuddleback Gunnery
35.267,59.217,73.4,0.00,Torbat-Heydarieh
35.267,100.65,48.2,0.00,Tongde
35.28,-2.956,65.3,0.00,Melilla
35.283,62.35,69.8,0.00,Gyshgy
35.285,40.176,65.9,0.00,Deir Zzor
35.317,-77.633,63.8,0.00,Kinston Regional Jetport At Stalling Field
35.317,138.867,57.5,0.00,Fuji (Jasdf)
35.333,-99.2,61.4,0.00,Clinton-Sherman
35.333,-94.363,59.9,0.00,Fort Smith Regional Airport
35.34,25.18,60.7,0.00,Nikos Kazantzakis
35.344,-77.965,60.7,0.00,Seymour-Johnson Afb Airport
35.35,-89.867,57.8,0.12,Memphis Nas
35.383,105.0,52.1,0.00,Huajialing
35.389,-97.601,58.3,0.00,Will Rogers World Airport
35.394,136.87,54.4,0.00,Gifu
35.4,139.917,60.7,0.00,Kisarazu
35.414,132.89,62.2,0.00,Izumo
35.417,-97.383,57.1,0.00,Tinker Afb Airport
35.432,-82.538,54.6,0.55,Asheville Regional Airport
35.432,8.121,55.0,0.00,Cheikh Larbi Tebessi
35.433,119.533,55.4,0.00,Rizhao
35.433,126.433,57.2,0.00,Yong Jung-Ri
35.433,139.65,56.3,0.08,Yokohama
35.434,-119.054,63.8,0.16,Meadows Field Airport
35.45,133.067,54.0,0.00,Matsue
35.45,135.317,50.9,0.00,Maizuru
35.45,139.45,56.0,0.00,Atsugi Nas
35.469,44.349,56.7,0.00,Kirkuk Ab
35.483,112.4,65.7,0.00,Yangcheng
35.483,134.233,51.1,0.00,Tottori
35.492,133.236,54.0,0.00,Miho
35.498,12.618,60.1,0.02,Lampedusa
35.514,-108.794,59.9,0.00,Gallup Municipal Airport
35.514,139.394,61.2,0.00,Kastner Aaf / Camp Zama Japan
35.517,137.817,52.2,0.04,Iida
35.53,134.167,58.1,0.00,Tottori
35.532,24.15,59.0,0.00,Souda
35.533,24.15,60.8,0.00,Souda Bay Crete
35.533,35.767,62.9,0.00,Lattakia
35.55,8.683,49.6,0.08,Thala
35.55,45.45,48.2,0.00,Sulymaniyah
35.55,106.667,57.4,0.08,Pingliang
35.55,118.75,60.3,0.00,Juxian
35.552,139.78,58.0,0.00,Tokyo Intl
35.567,116.85,68.0,0.00,Yanzhou
35.591,53.495,72.8,0.00,Semnan
35.593,-88.917,58.2,0.51,Mckellar-Sipes Rgnl Arpt
35.593,129.352,54.7,0.00,Ulsan
35.617,-106.089,60.3,0.00,Santa Fe Municipal Airport
35.624,-0.621,61.6,0.00,Es Senia / Ahmed Benbella
35.654,-105.142,49.2,0.00,Las Vegas Municipal Arpt
35.667,-75.9,67.0,0.00,Dare County Gunnery Range  Nc.
35.667,10.1,61.7,0.00,Kairouan
35.667,10.75,61.1,0.00,Monastir-Skanes
35.667,138.55,56.5,0.00,Kofu
35.67,-120.628,54.9,0.08,Paso Robles Municipal Arpt
35.683,139.767,57.6,0.00,Tokyo
35.688,-117.693,66.5,0.01,China Lake
35.689,51.313,64.3,0.00,Mehrabad Intl
35.7,139.4,61.6,0.00,Tachikawa (Jasdf)
35.727,-5.917,59.1,0.00,Tanger Ibn Batouta Intl
35.733,107.633,60.3,0.00,Xifengzhen
35.733,140.85,55.2,0.20,Choshi
35.743,-81.382,55.3,0.83,Hickory Rgnl
35.748,139.348,52.1,0.04,Yokota Ab
35.752,6.309,57.9,0.00,Batna / Mostepha Ben Boulaid
35.77,-75.52,58.9,0.00,Oregon Inlet Coast Guard Station
35.799,140.011,55.3,0.00,Shimofusa
35.818,-83.986,58.1,0.28,Mc Ghee Tyson Airport
35.833,-90.633,57.4,0.00,Jonesboro Muni
35.833,127.117,57.2,0.00,Jeonju
35.842,139.411,55.3,0.00,Iruma
35.85,128.583,61.4,0.00,Camp Walker (H-805)
35.857,14.478,59.2,0.00,Luqa
35.883,128.617,57.4,0.00,Taegu Acc (Kor-Afb)
35.892,-78.782,54.0,0.55,Raleigh-Durham International Ap
35.894,128.659,57.2,0.00,Daegu Ab
35.9,-82.817,53.2,0.00,Hot Springs (Awrs)
35.917,126.617,55.2,0.00,Kunsan Ab
35.95,-112.15,60.4,0.00,Grand Canyon Park
35.95,62.917,73.9,0.00,Tagtabazar
35.951,-85.081,53.8,0.21,Crossville Mem Whit
35.967,-89.95,57.0,0.01,Arkansas International Airport
35.967,105.717,51.8,0.00,Xi-Ji
35.967,120.483,54.5,0.00,Flashing Light
35.988,129.42,55.2,0.00,Pohang Gyeongju
36.0,-89.409,57.6,0.04,Dyersburg Municipal Arpt
36.0,-5.6,59.9,0.08,Tarifa
36.002,126.763,52.5,0.00,Gunsan
36.01,-94.169,52.3,0.00,Drake Field Airport
36.017,-102.55,53.7,0.00,Dalhart Municipal
36.017,106.283,56.3,0.00,Guyuan
36.033,129.383,55.4,0.00,Pohang
36.033,140.2,59.0,0.00,Kasumigaura (Jasdf)
36.05,103.883,66.9,0.00,Lanzhou
36.05,114.133,70.1,0.00,Anyang
36.072,-115.163,70.3,0.04,Mccarran International Airport
36.097,-79.943,52.6,0.51,Piedmont Triad International Airport
36.117,128.317,59.8,0.00,Gumi
36.119,-86.689,55.1,0.08,Nashville International Airport
36.151,-5.35,61.3,0.00,Gibraltar
36.168,57.595,71.6,0.00,Sabzevar
36.181,37.224,59.9,0.00,Aleppo Intl
36.181,140.415,48.7,0.00,Hyakuri
36.183,118.15,63.6,0.00,Yiyuan
36.199,-95.887,56.1,0.00,Tulsa International Airport
36.2,133.333,50.9,0.00,Saigo
36.213,1.332,63.7,0.00,Ech Cheliff / Chlef
36.217,127.983,53.6,0.00,Chupungnyeong
36.233,115.667,69.3,0.00,Xinxian
36.235,59.641,69.2,0.00,Mashhad Intl / Shahid Hashemi Nejad Intl
36.24,50.047,60.1,0.00,Ghazvin
36.25,117.1,51.3,0.00,Tai Shan
36.25,137.967,45.9,0.00,Matsumoto
36.261,-76.175,58.9,0.00,Monroe Co
36.266,120.374,57.4,0.00,Liuting / Qingdao Intl
36.267,-93.157,52.1,0.00,Boone Co
36.267,121.383,55.8,0.00,Qian-Li Island
36.274,23.017,57.0,0.00,Kithira / Alexandros Aristotelous Onassis
36.276,6.62,54.4,0.00,Mohamed Boudiaf Intl
36.297,-99.769,52.5,0.00,Gage/Shattuck
36.3,2.233,50.5,0.00,Miliana
36.3,98.1,46.4,0.00,Doulan
36.3,127.4,55.4,0.00,Taejon
36.306,43.147,56.2,0.00,Mosul
36.317,41.833,63.5,0.00,Sinjar
36.333,-119.95,56.5,0.55,Naval Air Station
36.333,-97.917,51.0,0.00,Vance Afb
36.35,100.783,53.0,0.00,Gonghe
36.383,28.117,62.4,0.00,Rhodes/Paradissi  &
36.383,33.933,63.7,0.00,Silifke
36.383,140.467,50.0,0.16,Mito
36.395,136.407,51.4,0.00,Komatsu
36.4,139.067,53.4,0.00,Maebashi
36.405,28.086,62.4,0.00,Diagoras
36.417,54.95,65.9,0.00,Shahrud
36.417,94.9,51.3,0.00,Golmud
36.417,128.167,61.3,0.00,Sangju
36.449,-103.154,48.4,0.00,Clayton Municipal Airpark Airport
36.45,96.467,50.3,0.00,Nuo-Mu-Hong
36.473,-82.404,55.1,0.08,Bristol Tri City Airport
36.483,8.8,58.0,0.04,Jendouba
36.5,40.75,58.3,0.00,Hassakah
36.515,139.871,55.8,0.00,Utsunomiya
36.517,126.317,56.9,0.00,Anmyeondo
36.533,61.217,75.8,0.00,Saragt
36.55,139.867,51.3,0.98,Utsunomiya
36.573,-79.335,54.2,0.24,Danville Regional Airport
36.583,-121.833,55.3,0.00,Monterey Peninsula
36.583,104.683,61.7,0.00,Jingyuan
36.583,136.633,52.7,0.00,Kanazawa
36.6,109.5,60.3,0.00,Yan An
36.617,101.767,58.1,0.00,Xining / Caojiapu
36.632,128.355,54.2,0.00,Yecheon
36.633,127.45,53.4,0.00,Cheongju
36.648,137.188,57.2,0.00,Toyama
36.65,-6.35,61.5,0.00,Rota Naval Air Station
36.664,-121.608,57.3,0.08,Salinas Muni
36.667,-87.483,52.2,0.16,Campbell Aaf Airport
36.667,138.2,48.2,0.08,Nagano
36.675,-4.499,62.5,0.00,Malaga
36.683,-121.767,59.4,0.29,Fritzsche Aaf
36.683,15.133,60.0,0.02,Cozzo Spadaro
36.683,116.983,71.4,0.00,Jinan/Tsinan
36.691,3.215,58.0,0.00,Houari Boumediene
36.7,38.95,57.8,0.00,Tel Abiadh
36.7,110.933,59.9,0.00,Xi-Xian
36.707,67.21,86.5,0.00,Mazar I Sharif / Mawlana Jalaluddin Muhammad Balkhi
36.712,5.07,61.5,0.00,Soummam Abane Ramdane
36.717,71.6,47.8,0.00,Ishkashim
36.717,137.2,52.2,0.16,Toyama
36.733,-91.85,56.3,0.00,West Plains  Mo
36.733,24.433,60.1,0.00,Milos
36.737,-97.102,52.2,0.00,Ponca City Muni
36.744,-108.229,58.9,0.00,Four Corners Regional Arpt
36.745,-6.06,61.1,0.02,Jerez
36.767,-96.017,58.4,0.00,Bartlesville Muni
36.767,-90.467,53.6,0.01,Poplar Bluff(Amos)
36.767,107.2,59.0,0.04,Hung-Te
36.767,119.183,63.1,0.00,Weifang
36.767,121.167,59.3,0.00,Haiyang
36.767,126.5,52.7,0.00,Seosan
36.774,48.359,46.4,0.00,Zanjan
36.78,-119.719,58.4,0.00,Fresno Yosemite International Airport
36.783,99.083,48.5,0.00,Cha-Ka
36.8,42.1,55.4,0.00,Rabiah
36.817,-76.033,55.4,0.00,Oceana Nas
36.817,11.969,57.6,0.24,Pantelleria
36.822,7.809,61.1,0.00,Annaba / Rabah Bitat
36.833,21.7,57.0,0.00,Methoni
36.844,-2.37,63.2,0.00,Almeria
36.85,11.083,58.7,0.00,Kelibia
36.851,10.227,61.3,0.00,Carthage
36.867,81.7,66.8,0.00,Yutian/Keriya
36.899,30.8,60.8,0.00,Antalya
36.9,-75.72,57.2,0.00,Norfolk / Chesapeak
36.903,-76.192,55.0,0.01,Norfolk International Airport
36.909,54.401,62.6,0.00,Gorgan
36.91,50.68,56.6,0.00,Ramsar
36.917,-94.017,48.9,0.00,Monette
36.93,-76.0,56.8,0.00,Cape Henry Coast Guard Light Sta
36.933,-111.45,62.3,0.00,Page Muni (Amos)
36.937,-76.289,56.4,0.00,Norfolk Nas
36.95,-116.05,59.1,0.20,Yucca Flats Test S T
36.95,140.9,53.2,0.24,Onahama
36.965,-86.424,53.5,0.04,Bow Grn-Warren Co. Rgnl Ap
36.967,127.033,52.3,0.00,A 511 / Desiderio Aaf-Pyeongtaek / Camp Humphreys Rok
36.971,-25.171,61.0,0.00,Santa Maria
36.98,8.877,60.3,0.31,Tabarka 7 Novembre / Ain Draham
36.983,68.033,78.0,0.00,Ajvadz
37.0,-8.95,58.5,0.00,Sagres
37.0,35.417,60.1,0.00,Incirlik Ab
37.0,129.417,56.3,0.00,Uljin
37.014,-7.966,61.6,0.02,Faro
37.021,41.191,53.0,0.00,Kamishly
37.033,-100.95,54.4,0.00,Liberal Muni
37.033,111.917,62.9,0.24,Jiexiu
37.056,-88.774,52.6,0.05,Paducah Barkley Field
37.067,82.717,67.8,0.00,Minfeng
37.067,92.867,48.5,0.00,T'A-Erh-Ting
37.067,112.983,61.1,0.12,Yushe
37.083,-76.36,56.4,0.00,Langley Afb Airport
37.083,14.217,58.3,0.12,Gela
37.087,-84.077,55.6,0.04,Cape Girardeau Rgnl
37.091,127.03,51.2,0.00,Osan Ab
37.1,25.367,59.9,0.00,Naxos
37.1,138.25,52.0,0.39,Takada
37.117,70.517,64.4,0.00,Feyzabad
37.133,-76.6,58.0,0.00,Felker Army Airfield
37.133,-76.483,53.7,0.01,Newport News Willia
37.133,79.933,68.9,0.00,Hotan
37.14,-107.76,58.3,0.00,Durango-La Plata Co
37.15,108.383,58.7,0.00,Pin-Kou-Men
37.152,-94.495,53.7,0.00,Joplin Regional Airport
37.175,-5.616,59.7,0.04,Moron Ab
37.183,114.367,68.7,0.00,Xingtai
37.189,-3.777,54.0,0.12,Granada
37.2,102.867,42.8,0.00,Wushaoling
37.217,28.367,57.2,0.00,Mugla
37.225,-89.571,53.5,0.12,Cape Girardeau Rgnl
37.233,69.083,70.1,0.00,Pyandj
37.239,127.007,53.1,0.00,Suwon
37.24,-93.39,49.8,0.00,Springfield-Branson Regional Airport
37.245,9.791,58.8,0.47,Sidi Ahmed Air Base
37.262,-104.338,52.1,0.00,Perry Stokes Airport
37.267,126.983,51.4,0.00,Suwon
37.287,67.31,79.8,0.00,Termez
37.296,-81.208,50.4,0.31,Mercer Co
37.3,-108.633,64.7,0.00,Cortez Muni
37.317,-79.974,52.0,0.08,Roanoke Regional/Woodrum Field Ap
37.321,-79.207,53.7,0.24,Lynchburg Rgnl/Preston Glenn Fld Ap
37.333,100.133,41.5,0.00,Gangca
37.35,59.633,70.1,0.00,Kaka
37.35,126.917,55.0,0.00,Sv Ri San
37.359,-121.924,59.8,0.00,N Y. Mineta Sn Jo Intl Apt
37.367,-6.0,61.5,0.01,Sevilla/Tablada
37.367,97.367,50.3,0.00,Delingha
37.367,101.617,46.7,0.00,Hao-Men
37.371,-118.358,56.4,0.04,Bishop Airport
37.383,-120.567,55.2,0.75,Castle Afb
37.383,60.517,80.3,0.00,Tedzhen
37.383,136.9,49.3,0.00,Wajima
37.4,-121.133,58.8,0.26,Crows Landing
37.4,14.917,55.0,0.00,Sigonella
37.4,122.683,54.3,0.00,Chengshantou
37.406,-122.048,58.2,0.30,Moffett Federal Airfield
37.418,-5.893,58.2,0.04,Sevilla
37.433,116.317,68.0,0.02,Dezhou
37.433,127.633,59.7,0.00,Yeoju Range
37.439,-105.861,51.4,0.00,San Luis Valley Regional Airport
37.446,127.114,57.4,0.00,Seoul Ab
37.467,15.066,54.7,0.39,Catania Fontanarossa
37.467,49.467,57.6,0.00,Anzali
37.467,53.967,61.1,0.12,Esenguly
37.467,126.633,50.5,0.00,Incheon
37.48,-76.32,60.1,0.00,Milford Haven Coast Guard Statio
37.483,69.383,72.4,0.00,Parkhar
37.483,105.683,62.6,0.00,Zhongning
37.483,130.9,54.0,0.00,Ulleungdo
37.483,139.917,46.8,0.04,Wakamatsu
37.493,57.308,72.5,0.00,Bojnord
37.5,71.5,56.6,0.00,Khorog
37.5,111.1,63.4,0.20,Lishi
37.5,117.533,67.4,0.00,Huimin
37.5,129.133,62.4,0.00,Donghae Radar
37.512,-77.323,54.0,0.12,Richmond International Airport
37.517,66.017,84.9,0.00,Carsanga
37.522,126.979,61.5,0.00,H 264 Heliport
37.53,-75.62,53.3,0.00,Parramore Beach
37.531,22.404,50.2,0.00,Tripolis
37.533,126.967,57.5,0.00,Sinyongsan
37.55,118.733,62.6,0.00,Yongan
37.558,126.791,54.6,0.00,Gimpo
37.567,126.967,57.2,0.00,Seoul City
37.6,62.183,78.8,0.00,Bajramaly
37.617,-109.467,57.4,0.00,Blanding
37.617,-97.267,53.9,0.00,Mcconnell Afb Airport
37.617,54.783,63.1,0.00,Gyzyletrek
37.617,78.283,70.1,0.00,Pishan
37.617,120.317,59.7,0.00,Longkou
37.62,-122.365,55.8,0.35,San Francisco International Airport
37.624,-120.951,56.8,0.00,Mdsto Cty-Co H Sham Fd Apt
37.648,-97.43,51.7,0.00,Wichita Eisenhower National
37.667,67.017,77.0,0.00,Shirabad
37.668,45.069,48.5,0.00,Uromiyeh
37.67,-95.484,52.5,0.00,Chanute Martin Johnson Apt
37.69,26.912,59.0,0.00,Samos
37.706,-112.146,48.6,0.00,Bryce Canyon Airport
37.709,-113.094,58.3,0.00,Cedar City Regional Arpt
37.721,-122.221,58.9,0.24,Metro Oakland Intl Airport
37.733,-122.317,57.0,0.35,Alameda(Usn)
37.733,-87.167,52.5,0.00,Owensboro Daviess C
37.741,-25.698,59.5,0.00,Ponta Delgada
37.747,112.628,62.4,0.04,Wusu
37.75,-92.15,50.7,0.00,Waynesville Regional Airport At Forney Field
37.754,128.944,56.3,0.00,Gangneung
37.767,-89.25,54.1,0.00,Southern Illinois
37.767,-80.333,50.7,0.00,White Sulphur Sprng
37.767,140.467,51.8,0.02,Fukushima
37.769,-99.968,47.4,0.00,Dodge City Regional Airport
37.771,128.868,59.8,0.00,Gangneung
37.775,-0.812,65.3,0.00,Murcia San Javier
37.783,126.85,59.6,0.00,Yeongdongri
37.784,-81.123,52.2,0.08,Raleigh County Memorial Airport
37.785,30.582,45.6,0.00,Isparta
37.8,61.55,72.0,0.00,Chashkent
37.8,107.383,59.3,0.00,Yanchi
37.817,68.783,74.4,0.00,Kurgan-Tyube
37.817,113.567,58.1,0.00,Yangquan
37.833,65.2,79.4,0.00,Kerki Intl
37.842,-4.849,58.0,0.04,Cordoba
37.85,95.367,44.2,0.00,Da-Qaidam
37.85,136.917,50.9,0.00,Hegurashima (Lgt-H)
37.858,-80.399,49.0,0.00,Greenbrier Valley
37.882,23.735,59.9,0.00,Athinai
37.884,127.718,60.4,0.00,A 306
37.889,-121.226,57.5,0.31,Stockton Metropolitan Airport
37.894,40.201,53.2,0.08,Diyarbakir
37.9,-85.967,51.3,0.35,Godman Aaf Airport
37.9,127.733,52.2,0.00,Chuncheon
37.9,139.017,51.4,0.00,Niigata
37.911,12.488,59.1,0.41,Trapani Birgi
37.917,69.783,70.1,0.00,Kulyab
37.917,127.05,60.4,0.00,Camp Casey/Tongduch
37.921,21.293,56.7,0.00,Andravida
37.927,-100.725,47.5,0.00,Garden City Regional Arpt
37.933,124.667,55.7,0.00,Baengnyeongdo Ab
37.937,-75.466,54.4,0.00,Wallops Flight Facility Airport
37.95,-79.833,41.4,0.00,Ingalls Fld
37.95,128.317,57.7,0.00,Hyun Ni (Kor-Army)
37.95,139.117,51.8,0.00,Niigata Airport
37.951,-1.23,66.2,0.00,Alcantarilla
37.967,126.567,56.1,0.00,Kaesong
37.979,32.562,46.0,0.00,Konya
37.987,58.361,67.6,0.00,Ashgabat
38.033,125.7,58.2,0.00,Haeju
38.033,138.233,50.0,0.02,Aikawa
38.041,-84.606,51.5,0.67,Blue Grass Airport
38.044,-87.521,49.7,0.20,Evansville Regional Airport
38.049,-103.513,55.9,0.00,La Junta Municipal Airport
38.05,138.417,52.9,0.00,Sado
38.051,-117.09,53.5,0.00,Tonopah Airport
38.064,23.556,59.5,0.00,Elefsis
38.065,-97.861,52.4,0.00,Hutchinson Municipal Arpt
38.067,114.35,63.9,0.00,Shijiazhuang
38.071,15.652,58.2,0.00,Reggio Calabria
38.079,-7.932,54.0,0.24,Beja
38.083,-102.617,52.2,0.00,Lamar
38.083,62.8,80.3,0.00,Uchadzhy
38.131,-91.768,49.8,0.02,Rolla/Vichy Airport
38.134,46.235,48.9,0.00,Tabriz Intl
38.137,-78.455,55.8,0.00,Charlottesville Albemarle Arpt
38.14,140.917,58.2,0.00,Sendai
38.15,85.55,72.3,0.00,Qiemo/Qarqan
38.15,124.883,52.5,0.00,Ryongyon
38.167,72.633,36.0,0.00,Ihrt
38.167,120.783,57.5,0.00,Tuoji Island
38.176,13.091,60.4,0.06,Palermo
38.181,-85.739,51.7,0.43,Louisville Intl-Standiford Field Ap
38.2,15.55,56.3,0.46,Messina
38.228,-85.664,50.8,0.00,Bowman Field Airport
38.233,100.25,48.2,0.00,Babao
38.233,127.967,56.1,0.00,Wonju Ab
38.233,140.917,55.7,0.00,Kasuminome (Jasdf)
38.25,-78.05,69.7,0.00,Orange Co
38.25,66.833,66.2,0.00,Akrabat
38.25,90.85,41.7,0.00,Mangnai
38.25,140.35,48.7,0.00,Yamagata
38.251,128.565,59.0,0.00,Sokcho
38.267,-121.933,57.8,0.43,Travis Air Force Base
38.267,-78.9,49.6,0.00,Shenandoah Valley Rg
38.267,67.9,71.2,0.00,Denau
38.267,109.783,61.2,0.00,Yulin
38.267,140.9,51.6,0.04,Sendai
38.282,-0.558,62.8,0.00,Alicante
38.289,-104.506,52.6,0.00,Pueblo Memorial Airport
38.3,-76.417,53.1,0.00,Naval Air Station
38.329,-96.195,51.3,0.00,Emporia Municipal Airport
38.33,-75.08,51.2,0.00,Ocean City
38.333,116.833,68.0,0.00,Cangzhou
38.341,-75.51,54.5,0.00,Salisbury Ocean Cit
38.365,-82.555,56.2,0.12,Tri-State/M.J.Fergus
38.371,-110.715,63.0,0.00,Hanksville
38.379,-81.59,58.8,0.16,Yeager Airport
38.38,-76.38,58.1,0.00,Cove Point Coast Guard Light Sta
38.383,117.35,65.3,0.00,Huanghua
38.405,141.22,50.2,0.00,Matsushima
38.412,140.371,53.6,0.00,Yamagata
38.417,-113.017,59.8,0.00,Milford Municipal Ap
38.417,127.283,55.2,0.00,Pyonggang
38.433,56.3,67.1,0.00,Garryqala
38.433,57.417,67.7,0.00,Bakherden
38.433,77.267,66.2,0.00,Shache
38.433,141.3,51.8,0.00,Ishinomaki
38.435,38.091,51.5,0.00,Erhac / Malatya
38.45,48.883,53.6,0.08,Astara
38.467,64.367,81.1,0.00,Byrdalyk
38.467,102.183,56.6,0.00,Jin-Chang
38.47,-70.56,47.1,0.00,Hotel 200Nm East Of Cape May Nj
38.483,106.217,61.2,0.00,Yinchuan / Hedong
38.5,-107.883,49.7,0.00,Montrose
38.5,126.533,57.0,0.00,Singye
38.504,-77.305,56.1,0.00,Quantico Mcaf
38.507,-121.495,56.9,0.00,Sacramento Executive Airport
38.513,27.01,59.1,0.00,Cigli
38.517,-122.817,58.6,0.00,C M Schulz Sonoma Co
38.517,-5.117,54.0,0.00,Hinojosa Del Duque
38.517,125.767,56.8,0.00,Sariwon
38.52,-28.716,60.1,0.00,Horta
38.533,-106.05,57.4,0.00,Salida/Alexander
38.534,-106.933,53.7,0.00,Gunnison Co. (Awos)
38.543,68.825,68.3,0.00,Dushanbe
38.55,-89.85,51.6,0.35,Scott Air Force Base/Midamerica Airport
38.567,-121.3,56.9,0.39,Mather Field
38.567,-7.9,52.1,0.12,Evora
38.567,63.183,80.6,0.00,Repatek
38.567,68.333,64.4,0.00,Sahrinau
38.583,-92.15,52.3,0.00,Jefferson City Mem
38.6,-106.92,49.3,0.00,Gunnison Aviation Weather Report
38.607,39.291,51.8,0.08,Elazig
38.617,55.183,64.4,0.00,Bekibent
38.617,66.267,73.0,0.00,Guzar
38.633,103.083,62.8,0.00,Minqin
38.65,66.933,58.1,0.00,Minchukur
38.667,-121.4,55.5,0.31,Sacramento Mcclellan Afb
38.678,-104.757,50.8,0.00,Butts Aaf Airport
38.683,29.4,48.2,0.00,Usak
