lat,lon,temp,precip,name
-90.0,0.0,-58.9,0.00,Amundsen-Scott
-77.883,166.733,10.8,0.00,Mcmurdo Sound Naf
-75.917,-83.917,-18.0,0.00,Siple Station
-70.767,11.833,15.3,0.00,Novolazarevskaja
-70.3,-2.35,2.5,0.00,Sanae Saf-Base
-69.5,159.383,-3.1,0.00,Leningradskaya
-69.0,39.583,-3.6,0.00,Syowa
-68.583,77.967,3.7,0.00,Davis
-67.667,45.85,6.3,0.00,Molodeznaja
-67.6,62.883,12.0,0.00,Mawson Aus-Base   &
-66.667,140.017,5.0,0.00,Dumont Fre-Base
-66.283,110.533,21.0,0.00,Casey
-64.967,-60.05,36.0,0.00,Matienzo Arg-Base
-64.883,-62.883,35.6,0.51,Brown Arg-Base
-64.233,-56.717,35.9,0.00,Base Marambio (Centro Met. Antartico)
-64.15,-60.95,35.9,0.04,Primavera Arg-Base
-63.4,-56.983,37.8,0.00,Base Esperanza
-63.317,-57.9,32.3,0.08,Bernardo O`Higgins
-62.5,-59.683,40.0,0.00,Prat Chi-Base
-62.25,-58.933,35.1,0.00,Frei Chi-Base
-60.733,-44.733,34.4,0.00,Base Orcadas
-59.45,-27.267,26.6,0.00,Corbeta Uruguay Dn
-56.475,-68.73,38.5,0.00,Isla Diego Ramirez
-54.933,-67.633,50.0,0.00,Puerto Williams
-54.499,158.937,38.3,0.00,Macquarie Island
-53.778,-67.749,43.6,0.00,Rio Grande
-53.003,-70.855,46.6,0.02,Carlos Ibanez Del Campo Intl
-52.55,169.15,42.1,0.00,Campbell Island
-52.4,-75.1,51.3,0.00,Islotes Evangelistas
-51.609,-69.313,54.4,0.00,Rio Gallegos
-50.017,-68.579,55.0,0.00,Santa Cruz
-49.35,70.25,36.5,0.39,Port-Aux-Francais (Iles Kerguelen)
-49.307,-67.803,57.9,0.00,San Julian
-46.875,37.86,38.8,0.00,Marion Island
-46.433,51.85,37.4,0.00,Alfred Faure (Iles Crozet)
-46.412,168.313,46.4,0.00,Invercargill
-46.167,166.633,47.3,0.55,Puysegur Pt (Lgt-H)
-45.916,-71.689,50.5,0.00,Balmaceda
-45.785,-67.466,50.0,0.00,Comodoro Rivadavia
-45.767,170.733,45.9,0.00,Taiaroa Head
-45.4,-72.7,52.2,0.00,Puerto Aysan / Cabo Juan Roman
-43.81,-176.457,55.4,0.01,Chatham Islands
-43.489,172.532,48.8,0.00,Christchurch Intl
-43.211,-65.27,63.5,0.00,Almirante Zar
-42.908,-71.139,56.5,0.00,Esquel
-42.883,147.333,53.3,0.00,Hobart (Ellerslie Road)
-42.836,147.51,52.6,0.00,Hobart
-42.717,170.983,45.8,1.65,Hokitika Aerodrome
-42.15,145.283,57.9,0.00,Strahan Aerodrome
-41.75,171.6,50.0,0.00,Westport Harbour
-41.733,174.2,54.0,0.00,Cape Campbell
-41.545,147.214,48.0,0.00,Launceston
-41.439,-73.094,54.5,0.02,El Tepual Intl
-41.3,173.217,51.5,0.08,Nelson Aerodrome
-41.283,174.767,54.8,0.00,Wellington
-41.25,-71.617,51.4,0.00,Catedral 2000
-41.151,-71.158,52.5,0.00,San Carlos De Bariloche
-41.0,148.35,57.6,0.00,Larapuna (Eddystone Point)
-40.869,-63.0,63.1,0.00,Gobernador Castello
-40.55,173.0,54.0,0.16,Farewell Spit
-40.35,-9.883,51.8,1.26,Gough Island
-40.206,175.388,55.4,0.08,Ohakea
-40.117,148.017,56.1,0.00,Whitemark
-40.1,148.0,56.0,0.00,Flinders Island Airport
-39.933,143.85,59.5,0.00,King Island Currie
-39.65,-73.086,55.0,0.00,Pichoy
-39.467,175.683,46.9,0.16,Waiouru
-39.017,174.183,59.3,0.31,New Plymouth Aerodr
-38.949,-68.156,62.8,0.00,Presidente Peron
-38.85,143.517,58.6,0.00,Cape Otway Lighthouse
-38.767,-72.637,55.4,0.00,Maquehue
-38.725,-62.169,59.3,0.00,Comandante Espora
-38.667,177.983,59.9,0.02,Gisborne Aerodrome
-38.483,-58.833,64.7,0.00,Necochea Airport
-38.387,-60.33,60.6,0.00,Tres Arroyos
-38.099,147.149,54.7,0.00,East Sale
-37.976,145.102,61.4,0.00,Melbourne Moorabbin
-37.934,-57.573,55.1,0.00,Mar Del Plata
-37.867,144.75,60.4,0.00,Laverton Raaf
-37.817,144.967,60.0,0.00,Melbourne Regional Office
-37.8,77.533,64.1,0.00,Martin De Vivies (Ile Amsterdam)
-37.733,140.783,56.4,0.00,Mount Gambier Aero
-37.667,144.85,56.7,0.00,Melbourne Intl Arpt
-37.667,176.2,61.7,0.08,Tauranga Aerodrome
-37.6,-62.383,60.8,0.00,Pigue Airport
-37.567,149.9,58.5,0.00,Gabo Island Lighthouse
-37.433,-61.883,63.3,0.00,Coronel Suarez Aero
-37.237,-59.228,57.8,0.00,Tandil
-37.235,-57.029,63.8,0.00,Villa Gesell
-37.008,174.792,62.0,0.04,Auckland Intl
-36.9,149.9,60.6,0.00,Merimbula Airport
-36.773,-73.063,53.0,0.00,Carriel Sur Intl
-36.75,-59.833,60.4,0.00,Azul Airport
-36.588,-64.276,57.0,0.00,Santa Rosa
-36.35,-57.733,57.4,0.00,Dolores Airport
-36.317,141.633,56.8,0.02,Nhill Aerodrome
-36.187,-61.076,61.2,0.00,Bolivar
-35.845,-61.858,60.5,0.00,Comodoro P Zanni
-35.696,-63.758,60.7,0.00,General Pico
-35.494,-69.574,63.9,0.00,Malargue
-35.45,-60.883,68.0,0.00,Nueve De Julio
-35.417,149.1,56.2,0.00,Tuggeranong Isabella Plains
-35.367,-57.283,61.7,0.00,Punta Indio B.A.
-35.333,136.117,62.2,0.12,Neptune Island
-35.307,149.195,53.0,0.24,Canberra
-35.165,147.466,57.5,0.31,Wagga Wagga
-35.083,150.8,64.4,0.04,Jervis Bay
-35.067,173.283,59.7,0.51,Kaitaia Aerodrome
-34.972,-57.895,56.2,0.00,La Plata
-34.967,-71.217,55.8,0.00,Curico/Gen Freire
-34.95,138.533,62.2,0.00,Adelaide
-34.949,150.537,63.8,0.04,Nowra
-34.945,138.531,63.1,0.35,Adelaide Intl
-34.941,117.802,62.0,0.00,Albany Airport
-34.917,138.617,61.9,0.00,Kent Town
-34.838,-56.031,63.2,0.00,Carrasco Intl
-34.833,20.017,67.1,0.00,Cape Agulhas
-34.822,-58.536,58.2,0.00,Ministro Pistarini
-34.683,-58.65,60.7,0.00,Moron(Aafb)
-34.61,-58.613,61.5,0.00,El Palomar
-34.588,-68.403,66.4,0.00,San Rafael
-34.583,-58.483,63.0,0.00,Buenos Aires (Obs)
-34.559,-58.416,64.6,0.00,Aeroparque Jorge Newbery
-34.546,-60.931,59.2,0.00,Junin
-34.501,-58.604,60.8,0.00,Don Torcuato
-34.367,115.133,65.0,0.00,Cape Leeuwin
-34.183,22.15,68.6,0.00,Mossel Bay (Lgt-H)
-34.135,-63.362,60.2,0.00,Laboulaye
-34.006,22.379,64.7,0.08,George
-34.0,137.533,66.2,0.00,Warburto Point
-33.985,25.617,67.2,0.00,Port Elizabeth Intl / Chief Dawid Stuurman Intl
-33.965,18.602,63.6,0.00,Cape Town Intl
-33.95,151.2,67.6,0.00,Sydney Intl Airport
-33.946,151.177,66.6,0.16,Sydney Intl
-33.924,150.988,67.1,0.00,Sydney Bankstown
-33.85,148.65,63.7,0.00,Cowra Airport Comparison
-33.85,151.2,67.2,0.00,Sydney (Observatory Hill)
-33.833,121.893,62.0,0.04,Esperance
-33.767,-69.033,60.8,0.00,San Carlos
-33.73,-65.387,61.3,0.00,Villa Reynolds
-33.633,-78.833,65.1,0.00,Juan Fernandez
-33.601,150.781,67.3,0.00,Richmond
-33.517,-53.35,60.3,0.00,St.Vitoria Do Palmar
-33.483,145.517,59.9,0.47,Hillston Airport
-33.393,-70.786,58.3,0.00,Arturo Merino Benitez Intl
-33.383,149.117,57.0,0.00,Orange Airport Comparison
-33.273,-66.356,64.6,0.00,San Luis
-33.085,-64.261,59.1,0.00,Rio Cuarto Area De Material
-33.083,-68.417,61.4,0.00,San Martin
-33.036,27.826,66.2,0.00,East London / King Phalo
-33.01,-58.613,58.1,0.00,Gualeguaychu
-32.904,-60.785,62.4,0.00,Rosario
-32.833,-70.083,32.7,0.00,Cristo Redentor
-32.833,17.85,61.3,0.00,Cape Columbine
-32.832,-68.793,63.7,0.01,El Plumerillo
-32.795,151.834,68.9,1.10,Williamtown
-32.79,-71.522,59.4,0.00,Quintero
-32.684,-62.158,63.4,0.00,Marcos Juarez
-32.6,-69.333,55.8,0.00,Uspallata
-32.217,148.575,64.0,0.71,Dubbo
-32.183,-64.383,60.8,0.00,Embalse Rio Tercero
-32.133,133.7,60.0,0.01,Ceduna Amo
-32.017,-52.083,66.7,0.00,Rio Grande
-31.945,-65.146,65.8,0.00,Villa Dolores
-31.94,115.967,60.8,0.02,Perth Intl
-31.933,115.967,58.5,0.00,Perth Intl/Belmont
-31.917,115.867,61.2,0.00,Perth Metro
-31.795,-60.48,58.8,0.00,General Urquiza
-31.718,-52.328,63.5,0.00,Pelotas / Joao Simoes Lopes Neto
-31.712,-60.812,64.0,0.00,Sauce Viejo
-31.667,-63.883,61.6,0.00,Pilar Observatorio
-31.606,29.522,70.2,0.00,Port St Johns
-31.571,-68.418,64.9,0.00,San Juan
-31.542,159.079,69.8,0.00,Lord Howe Island Aero
-31.483,145.833,64.7,0.47,Cobar Mo
-31.391,-54.112,62.6,0.00,Comandante Gustavo Kraemer
-31.333,-66.6,64.1,0.00,Chepes
-31.333,-54.1,59.9,0.00,Bage
-31.324,-64.208,58.4,0.00,Ambrosio L V Taravella
-31.297,-57.997,62.0,0.00,Comodoro Pierrestegui
-31.144,136.817,63.0,0.00,Woomera
-31.083,125.65,65.3,0.00,Balgair
-31.08,150.85,70.3,0.00,Tamworthamo/Mo.From1966
-30.833,128.1,63.6,0.00,Forrest Airport
-30.789,121.462,63.4,0.00,Kalgoorlie Boulder
-30.533,-52.517,60.4,0.12,Encruzilhada Do Sul
-30.47,138.42,62.2,0.00,Leigh Creek Aero
-30.367,-66.283,66.5,0.00,Chamical Aero
-30.321,153.116,70.9,0.00,Coffs Harbour
-30.272,-57.64,65.4,0.00,Monte Caseros
-30.25,-68.75,62.2,0.00,Jachal
-29.994,-51.171,61.1,0.00,Salgado Filho
-29.97,30.951,69.8,0.00,Durban Intl
-29.946,-51.144,62.2,0.00,Canoas / Campo Nossa Senhora De Fatima
-29.916,-71.2,58.7,0.00,La Florida
-29.9,-63.683,62.3,0.00,Villa Maria Del Rio
-29.883,-61.95,66.7,0.00,Ceres
-29.782,-57.038,66.2,0.00,Rubem Berta
-29.771,-57.979,65.2,0.00,Curuzu Cuatia
-29.75,-57.083,65.8,0.00,Uruguaiana
-29.711,-53.688,61.2,0.00,Santa Maria
-29.7,-53.7,62.2,0.00,Santa Maria
-29.689,-57.152,66.9,0.00,Paso De Los Libres
-29.65,138.067,66.6,0.00,Marree Comparison
-29.467,149.85,78.2,0.00,Moree
-29.382,-66.796,65.1,0.00,La Rioja
-29.333,-49.733,65.3,0.00,Torres
-29.25,-177.933,68.6,0.02,Raoul Island Kermadec Islands
-29.233,16.867,54.1,0.00,Port Nolloth
-29.224,-67.439,61.3,0.00,Chilecito
-29.183,-59.7,65.6,0.00,Reconquista Aero
-29.093,26.302,58.7,0.00,Bloemfontein Intl / Bram Fischer Intl
-29.042,167.939,68.9,0.00,Norfolk Island Intl
-28.883,121.333,65.1,0.00,Leonora
-28.803,24.765,63.4,0.12,Kimberley
-28.796,114.708,62.8,0.20,Geraldton
-28.705,121.891,60.5,0.16,Murrin Murrin
-28.596,-70.756,64.0,0.00,Vallenar
-28.596,-65.752,64.4,0.00,Catamarca
-28.567,16.533,61.1,0.00,Alexander Bay
-28.5,32.4,70.4,0.75,Cape St. Lucia
-28.4,-55.017,64.4,0.00,Sao Luiz Gonzaga
-28.399,21.26,69.5,0.00,Upington
-28.244,-52.327,59.5,0.00,Lauro Kurtz
-28.067,145.683,77.7,0.00,Cunnamulla Post Office
-27.766,-64.31,68.7,0.00,Santiago Del Estero
-27.67,-48.547,67.6,0.00,Hercilio Luz
-27.617,-144.333,70.2,0.00,Rapa
-27.55,135.45,61.7,0.08,Oodnadatta Airport
-27.483,-55.133,65.3,0.00,Obera
-27.45,-59.056,62.4,0.00,Resistencia
-27.446,-58.762,68.4,0.00,Corrientes
-27.417,153.067,72.8,0.00,Brisbane Airport
-27.411,151.735,70.2,0.00,Oakey
-27.4,-56.45,73.4,0.00,Yasi-Reta
-27.4,-51.2,56.3,0.00,Campos Novos
-27.386,-55.971,68.9,0.00,Posadas
-27.383,153.117,72.7,0.00,Brisbane Intl Arpt
-27.317,-55.833,68.0,0.00,Encarnacion
-27.296,-70.414,64.0,0.00,Chamonate
-27.183,-53.233,62.2,0.00,Irai
-27.165,-109.422,66.2,0.00,Mataveri Intl
-26.833,-65.2,61.5,0.08,Tucuman/Teniente Be
-26.757,-60.493,65.6,0.00,Presidencia Roque Saenz Pena / Termal
-26.683,15.25,57.2,0.00,Luderitz (Diaz Point)
-26.667,-57.15,73.0,0.00,San Juan Bautista
-26.614,118.537,70.0,0.00,Meekatharra Airport
-26.55,148.783,76.3,0.00,Roma Airport
-26.54,18.111,68.8,0.04,Keetmanshoop
-26.413,146.263,79.3,0.00,Charleville
-26.333,-70.607,63.5,0.00,Chanaral
-26.213,-58.228,67.7,0.00,Formosa
-26.139,28.246,62.3,0.00,Johannesburg Intl
-25.921,32.573,73.7,0.04,Maputo
-25.9,139.35,71.2,0.00,Birdsville Police S
-25.89,28.171,64.4,0.00,Pretoria(Met)
-25.8,-57.217,66.2,0.00,Carapegua
-25.767,-56.433,71.6,0.00,Villarrica
-25.737,-54.473,68.1,0.00,Cataratas Del Iguazu
-25.55,45.533,75.7,0.00,Faux-Cap
-25.533,-54.6,69.8,0.00,Ciudad Del Este
-25.528,-49.176,55.0,0.00,Afonso Pena
-25.517,-48.517,64.4,0.31,Paranagua
-25.467,-50.633,54.5,0.00,Irati
-25.405,-49.232,55.4,0.08,Bacacheri
-25.24,-57.519,68.2,0.00,Silvio Pettirossi Intl
-25.05,33.633,74.9,0.12,Xai Xai
-25.038,46.956,73.9,0.00,Tolagnaro
-25.033,128.3,68.4,0.00,Giles Meteorological Office
-24.888,113.67,70.7,0.00,Carnarvon Airport
-24.856,-65.486,56.7,0.04,Salta
-24.721,-60.549,69.8,0.00,Alferez Armando Rodriguez
-24.667,-56.433,69.8,0.00,San Estanislao
-24.393,-65.098,60.0,0.00,Jujuy
-24.117,152.717,76.3,0.01,Lady Elliot Island
-23.933,-46.317,68.9,0.00,Santos
-23.867,29.45,65.9,0.02,Polokwane
-23.867,35.383,78.2,0.28,Inhambane
-23.85,151.267,76.9,0.00,Gladstone Radar
-23.807,133.902,66.6,0.24,Alice Springs
-23.8,133.917,66.5,0.00,Alice Springs Arpt
-23.627,-46.655,60.2,0.04,Congonhas Deputado Freitas Nobre
-23.5,-46.617,59.9,0.04,Sao Paulo
-23.444,-70.445,62.0,0.00,Cerro Moreno Intl / Andres Sabella Intl
-23.442,-57.427,73.4,0.00,Teniente Col Carmelo Peralta
-23.433,144.283,78.4,0.00,Longreach Aero
-23.43,144.28,75.6,0.00,Longreachamo.
-23.417,119.8,75.8,0.00,Newman Aero
-23.383,-51.183,64.9,0.00,Londrina
-23.383,43.728,75.9,0.00,Toliara
-23.382,150.475,74.0,0.00,Rockhampton
-23.365,-149.524,75.2,0.00,Tubuai Mataura
-23.153,-64.329,66.0,0.00,Oran
-23.133,-134.967,77.0,0.00,Mangareva
-23.007,-47.135,63.5,0.00,Viracopos
-22.983,-43.367,70.2,0.00,Rio/Jacarepagua
-22.932,-43.719,68.4,0.00,Santa Cruz / Campo Nero Moura
-22.922,-42.074,59.6,0.00,Cabo Frio
-22.91,-43.163,61.5,0.00,Santos Dumont
-22.883,14.433,59.3,0.00,Walvis Bay (Pelican Point)
-22.809,-43.244,67.3,0.00,Galeao Antonio Carlos Jobim
-22.805,47.821,74.5,0.08,Farafangana
-22.62,-63.794,66.0,0.00,General Enrique Mosconi Tartagal
-22.55,-61.55,72.5,0.00,Pelayo Prat Gill
-22.55,45.4,71.2,0.00,Ranohira
-22.533,-55.7,64.8,0.00,Ponta Pora
-22.483,-44.467,63.5,0.00,Resende
-22.48,17.471,64.7,0.00,Hosea Kutako Intl
-22.345,-49.054,66.2,0.00,Bauru
-22.333,40.333,79.6,0.00,Ile Europa
-22.267,166.45,73.4,0.04,Noumea
-22.25,118.333,79.4,0.00,Wittenoom
-22.236,114.089,74.2,0.00,Learmonth
-22.217,30.0,76.3,0.00,Beitbridge
-22.151,-65.578,54.3,0.00,La Quiaca / Dr Guillermo Eugenio Snopek
-22.045,-60.622,72.3,0.00,Dr Luis Maria Argana Intl
-22.015,166.213,71.6,0.00,Noumea La Tontouta
-21.961,-63.652,65.7,0.00,Yacuiba
-21.817,-138.8,78.8,0.00,Muroroa Atoll (Mil)
-21.792,-43.387,59.9,0.00,Francisco De Assis
-21.698,-41.302,69.3,0.12,Bartolomeu Lisandro
-21.667,150.267,77.0,0.00,Middle Percy Island
-21.633,115.117,78.2,0.00,Onslow
-21.556,-64.701,59.8,0.00,Capitan Av Oriel Lea Plaza Intl
-21.442,47.112,68.0,0.00,Fianarantsoa
-21.267,-43.761,60.1,0.00,Major Brigadeiro Doorgal Borges
-21.233,-45.0,62.2,0.00,Lavras
-21.203,-159.806,75.5,0.01,Rarotonga Intl
-21.202,48.358,74.5,0.00,Mananjary
-21.133,-175.183,78.5,0.04,Nukualofa
-21.117,149.217,74.1,0.02,Mackay Mo
-21.05,29.367,72.5,0.04,West Nicholson
-21.008,31.579,72.3,0.08,Buffalo Range
-20.933,165.317,73.8,0.00,Poindimie (Nlle-Caledonie)
-20.887,55.51,75.7,0.00,St Denis Gillot / La Reunion Roland Garros
-20.783,-51.7,68.0,0.00,Tres Lagoas
-20.775,167.24,77.4,0.00,Lifou Ouanaham
-20.717,-61.917,71.6,0.00,Nueva Asuncion
-20.667,-178.717,77.3,0.28,Ono-I-Lau Aws
-20.664,139.489,82.4,0.00,Mount Isa
-20.55,-47.433,64.0,0.00,Franca
-20.546,164.256,75.7,0.00,Koumac
-20.533,-70.183,64.7,0.00,Iquique
-20.469,-54.673,68.0,0.00,Campo Grande
-20.45,-54.617,66.7,0.00,Campo Grande
-20.43,57.684,75.5,0.00,Sir Seewoosagur Ramgoolam Intl
-20.378,118.626,80.2,0.00,Port Hedland Intl
-20.317,-40.333,71.6,0.04,Vitoria
-20.285,44.318,77.7,0.00,Morondava
-20.258,-40.286,74.1,0.00,Goiabeiras / Eurico De Aguiar Salles Intl
-20.233,169.767,75.2,0.00,Aneityum
-20.2,32.617,72.0,0.00,Chipinge
-20.133,-157.35,76.6,0.12,Mauke Island
-20.05,-63.567,64.9,0.00,Camiri
-20.021,28.627,71.6,0.00,J M Nkomo Intl / Bulawayo
-19.917,138.117,84.2,0.00,Camooweal Township
-19.851,-43.951,66.2,0.00,Pampulha Carlos Drummond De Andrade
-19.817,47.067,63.5,0.00,Antsirabe
-19.8,-42.15,62.6,0.00,Caratinga
-19.796,34.908,79.8,0.00,Beira
-19.777,-174.341,77.9,0.00,Haapai
-19.758,63.361,79.1,0.00,Plaine Corail
-19.75,-47.917,72.5,0.00,Uberaba
-19.65,-43.883,66.7,0.00,Lagoa Santa Airport
-19.634,-43.969,66.7,0.00,Tancredo Neves Intl
-19.633,134.183,84.3,0.00,Tennant Creek Airport
-19.602,18.123,74.6,0.00,Grootfontein
-19.543,-65.724,51.2,0.00,Capitan Nicolas Rojas
-19.533,-59.367,72.3,0.00,Adrian Jara
-19.455,169.224,74.5,0.00,Tanna
-19.436,29.862,66.6,0.00,Gweru Thornhill
-19.253,146.765,75.5,0.00,Townsville
-19.25,146.767,75.7,0.00,Townsville(Civ/Mil)
-19.151,33.429,73.0,0.00,Chimoio
-19.133,179.75,80.6,0.04,Matuku Aws
-19.083,152.383,74.1,0.00,Marion Reef
-19.067,-169.917,75.9,0.20,Alofi
-19.05,178.167,79.9,0.12,Vunisea
-19.033,47.167,65.3,0.00,Arivonimamo
-19.007,-65.289,56.0,0.00,Juana Azurduy De Padilla
-18.831,-159.764,78.4,0.35,Aitutaki
-18.797,47.479,65.1,0.00,Ivato
-18.717,125.967,86.7,0.00,Fitzroy Crossing Ca
-18.65,-173.983,75.9,0.00,Vavau
-18.483,163.083,77.5,0.00,Ile Surprise
-18.349,-70.339,64.8,0.00,Chacalluta
-18.317,-59.75,72.5,0.00,Robore (Civ/Mil)
-18.3,143.55,81.5,0.00,Georgetown Post Office
-18.233,-178.8,80.8,0.00,Lakemba Island
-18.233,127.667,83.3,0.04,Halls Creek Airport
-18.183,-47.95,68.4,0.00,Catalao
-18.11,49.393,78.5,0.00,Toamasina
-18.096,25.839,73.8,0.00,Victoria Falls Intl
-18.075,-140.946,83.1,0.00,Hao
-18.067,-163.183,81.0,0.00,Palmerston *
-18.053,-70.276,62.6,0.00,Coronel Carlos Ciriani Santa Rosa Intl
-18.05,44.033,78.1,0.00,Maintirano
-18.043,178.559,78.2,0.12,Nausori Intl
-17.963,-67.076,53.9,0.00,Juan Mendoza
-17.956,19.719,74.1,0.00,Rundu
-17.945,122.232,79.6,0.00,Broome Intl
-17.93,31.094,67.2,0.00,Robert Gabriel Mugabe Intl / Harare
-17.917,-50.917,67.6,0.00,Rio Verde
-17.856,36.869,82.4,0.00,Quelimane
-17.85,-41.517,68.4,0.00,Teofilo Otoni
-17.833,-60.75,77.5,0.00,San Jose
-17.812,-63.171,70.1,0.00,El Trompillo
-17.755,177.443,77.9,0.00,Nadi Intl
-17.75,168.3,73.8,0.00,Port Vila/Bauerfld
-17.717,148.45,76.7,0.00,Flinders Reef
-17.667,141.083,82.4,0.00,Normanton
-17.652,-39.253,73.4,0.00,Caravelas
-17.583,-69.45,39.9,0.00,Charana
-17.554,-149.607,82.1,0.00,Tahiti Faa A
-17.432,32.185,73.4,0.00,Mutoko
-17.421,-66.177,59.8,0.04,Jorge Wilstermann Intl
-17.37,123.67,87.0,0.00,Derby Airport
-17.3,123.617,87.4,0.00,Derby
-17.094,49.816,81.1,0.00,Sainte Marie
-17.05,42.717,81.2,0.00,Ile Juan De Nova
-17.0,178.7,78.8,0.00,Nabouwalu
-16.95,46.833,82.4,0.00,Maevatanana
-16.886,145.755,73.8,0.00,Cairns Intl
-16.883,145.767,74.4,0.00,Cairns Airport
-16.833,29.617,73.0,0.00,Karoi
-16.783,31.583,72.0,0.00,Mount Darwin
-16.767,-153.95,83.3,0.00,Mopelia
-16.742,44.481,81.1,0.00,Besalampy
-16.707,-43.819,70.4,0.00,Mario Ribeiro
-16.7,177.583,81.2,0.00,Yasawa
-16.632,-49.221,69.3,0.00,Santa Genoveva
-16.513,-68.192,43.6,0.04,El Alto Intl
-16.45,59.617,80.9,0.00,St. Brandon (St. Raphael)
-16.444,-151.751,82.4,0.00,Bora Bora Motu Mute
-16.417,167.8,79.2,0.00,Lamap/Malekoula Isl
-16.401,-61.045,75.9,0.00,San Ignacio De Velasco Airport
-16.341,-71.583,58.9,0.00,Rodriguez Ballon
-16.288,149.965,78.5,0.00,Willis Island
-16.27,133.38,81.0,0.00,Dalywaters Police Station
-16.267,-62.467,71.2,0.00,San Javier
-16.25,133.367,83.5,0.00,Daly Waters Aws
-16.183,33.583,84.2,0.00,Tete
-16.133,-179.983,80.9,0.00,Udu Point Aws
-16.05,-57.683,72.5,0.00,Caceres
-16.0,-41.283,66.2,0.00,Pedra Azul
-15.95,-173.767,77.0,0.00,Keppel
-15.883,54.517,80.4,0.00,Serge-Frolow (Ile Tromelin)
-15.863,-47.913,65.1,0.00,Presidente Juscelino Kubitschek
-15.833,-54.383,67.1,0.00,Poxoreo (Poxoreu)
-15.783,-47.933,66.2,0.00,Brasilia
-15.75,136.8,83.5,0.00,Centre Island
-15.717,-63.1,76.1,0.00,Ascencion Guarayos
-15.667,46.352,79.9,0.00,Philibert Tsiranana
-15.567,-175.617,79.3,0.00,Niuafoou
-15.55,-56.117,78.3,0.31,Cuiaba
-15.501,167.223,78.8,0.00,Santo Pekoa Intl
-15.483,128.117,90.0,0.00,Wyndham
-15.467,-70.158,49.4,0.08,Juliaca / Inca Manco Capac Intl
-15.383,-75.167,67.6,0.00,San Juan De Marcona
-15.106,39.282,78.8,0.00,Nampula
-14.999,50.32,78.1,0.00,Antsirabato
-14.867,-66.75,75.7,0.00,San Borja/Capt Germ
-14.819,-64.918,76.9,0.00,Tte Av Jorge Henrich Arauz
-14.8,-39.067,76.0,0.00,Ilheus
-14.733,-68.417,71.9,0.00,Apolo
-14.63,47.764,84.2,0.00,Analalava
-14.483,-145.033,82.8,0.00,Takaroa
-14.483,-67.483,77.3,0.00,Rurrenabaque
-14.467,132.267,79.9,0.00,Katherine Country Club
-14.4,-56.45,73.4,0.00,Diamantino
-14.331,-170.714,81.9,0.04,Tafuna/Pago Pago International Ap
-14.3,-67.367,83.0,0.00,Reyes
-14.279,50.175,78.8,0.00,Sambava
-14.233,129.45,84.9,0.00,Port Keats Aws Aut
-14.117,123.533,83.3,0.00,Browse Island Aws
-14.05,-42.617,68.0,0.00,Caetite
-13.85,167.55,79.5,0.31,Sola/Vanua Lava Isl
-13.8,-171.783,79.8,0.00,Apia/Upolu Island
-13.75,143.117,79.1,0.00,Coen Airport
-13.745,-76.22,69.1,0.00,Pisco Intl
-13.7,-73.35,51.2,0.00,Andahuaylas
-13.65,136.933,82.1,0.00,North East Island
-13.536,-71.939,50.9,0.39,Teniente Alejandro Velasco Astete Intl
-13.376,50.003,79.7,0.00,Vohimarina
-13.333,-64.15,81.2,0.00,Magdalena
-13.274,35.266,68.0,0.00,Lichinga
-13.267,-70.667,71.5,0.00,Quincemil
-13.262,-43.408,74.8,0.00,Bom Jesus Da Lapa
-13.155,-74.204,65.9,0.08,Coronel Fap Alfredo Mendivil Duarte
-13.067,-64.667,78.8,0.00,San Joaquin
-13.017,-38.517,78.8,0.00,Salvador
-12.987,40.522,79.1,0.00,Pemba
-12.911,-38.331,80.0,0.00,Deputado Luis Eduardo Magalhaes
-12.805,45.281,79.2,0.24,Dzaoudzi Pamandzi
-12.783,143.3,81.4,0.00,Lockhart River Airport
-12.617,131.05,84.4,0.00,Noonamah Airstrip
-12.614,-69.229,75.2,0.00,Padre Aldamiz
-12.567,-41.383,72.5,0.98,Lencois
-12.5,177.05,80.9,0.00,Rotuma Island
-12.415,130.877,81.2,0.08,Darwin Intl
-12.349,49.292,79.2,0.00,Arrachart
-12.2,-56.5,75.2,0.00,Gleba Celeste
-12.15,-45.0,75.2,0.43,Barreiras
-12.033,135.567,84.2,0.00,Elcho Island
-12.022,-77.114,68.6,0.00,Jorge Chavez Intl
-11.783,130.017,81.3,0.00,Cape Fourcroy
-11.7,43.233,81.1,0.00,Moroni Airport (Grande-Comore)
-11.583,47.283,79.4,0.00,Iles Glorieuses
-11.3,-41.867,69.4,0.87,Irece
-11.04,-68.783,76.7,0.00,Heroes Del Acre / Cap Av Civ Anibal Arab Fadul Intl
-11.017,-66.117,78.1,0.00,Riberalta / Cap Av Selin Zeitun Lopez
-11.017,136.75,82.1,0.00,Cape Wessel Aws
-10.951,142.459,71.1,0.00,Bamaga Injinoo
-10.917,-37.05,77.6,0.00,Aracaju
-10.915,-165.839,86.7,0.00,Pukapuka Arpt
-10.817,-65.35,79.2,0.00,Guayaramerin
-10.567,142.217,81.1,0.00,Thursday Island
-10.433,56.6,82.4,0.00,Agalega
-10.172,123.671,86.0,0.00,El Tari
-10.05,-161.1,83.5,0.28,Rakahanga Atoll
-10.0,-105.0,41.0,0.00,Environm Buoy 32301
-9.879,-76.205,71.0,0.00,Alferez Fap D F Fernandini
-9.8,-139.033,81.7,0.00,Hiva-Oa
-9.667,-35.7,77.9,0.24,Maceio
-9.511,-35.792,79.2,0.00,Zumbi Dos Palmares
-9.433,147.217,81.3,0.04,Port Moresby W.O.
-9.383,-171.25,84.6,0.00,Fakaofo Atoll
-9.383,-40.483,74.3,0.47,Petrolina
-9.347,-77.598,65.5,0.00,Comandante Fap German Arias Graziani
-9.2,-171.917,85.4,0.00,Nukunono
-9.15,-78.524,70.6,0.00,Teniente Jaime A De Montreuil Morales
-9.133,-75.95,78.1,0.04,Tingo Maria
-9.017,-158.067,84.6,0.00,Penrhyn Island
-8.933,33.467,66.2,0.00,Mbeya
-8.75,116.267,80.6,0.00,Mataram-Lombok Intl Airport / Zainuddin Abdul Madjid
-8.749,115.167,82.6,0.00,Denpasar Ngurah Rai
-8.641,122.237,82.4,0.39,Wai Oti
-8.547,125.525,86.0,0.00,Presidente Nicolau Lobato Intl
-8.533,-172.517,85.6,0.00,Atafu
-8.517,179.217,84.7,0.00,Funafuti Intl Arpt
-8.489,117.412,81.6,0.00,Sumbawa Besar
-8.378,-74.574,73.7,1.50,Cap Fap David Abensur Rengifo Intl
-8.348,-49.302,76.6,0.00,Conceicao Do Araguaia
-8.126,-34.924,82.1,0.00,Guararapes Gilberto Freyre Intl
-8.081,-79.109,70.2,0.00,Capitan Fap Carlos Martinez De Pinillos
-8.05,-34.917,80.6,0.00,Recife
-7.983,131.3,84.8,0.00,Saumlaki
-7.97,-14.394,83.7,0.00,Ascension Aux Af
-7.733,109.017,80.8,0.47,Cilacap
-7.669,35.752,63.1,0.08,Iringa
-7.38,112.787,84.9,0.75,Surabaya Juanda
-7.3,72.4,82.6,0.00,Diego Garcia Naval Air Station
-7.217,112.717,82.4,1.14,Surabaya/Perak
-7.169,-76.729,76.7,0.00,Juanjui
-7.139,-78.489,62.2,0.00,Gen Fap Armando Revoredo Iglesias
-7.1,-34.867,81.2,0.00,Joao Pessoa
-7.05,113.967,81.6,0.12,Kalianget (Madura Is)
-6.983,110.383,84.2,0.43,Jenderal Ahmad Yani
-6.883,107.6,73.0,0.51,Bandung
-6.878,39.203,79.0,0.00,Mwalimu Julius K Nyerere Intl
-6.85,109.15,80.6,0.00,Tegal
-6.787,-79.828,72.9,0.00,Cap Fap Jose A Quinones Gonzales Intl
-6.75,108.267,83.3,0.51,Cirebon/Jatiwangi
-6.733,147.0,77.7,2.68,Lae
-6.509,-76.373,76.2,0.00,Cadete Guillermo Del Castillo Paredes
-6.5,106.75,80.2,0.59,Bogor/Dermaga
-6.3,106.567,78.4,0.20,Tangerang/Budiarto Arpt
-6.267,106.891,80.3,0.00,Halim Perdanakusuma Intl
-6.202,-77.856,62.6,0.00,Chachapoyas
-6.183,106.833,80.2,0.00,Jakarta/Observatory
-6.17,35.753,72.5,0.00,Dodoma
-6.15,106.85,79.7,0.28,Jakarta/Kemayoran
-6.117,106.133,84.6,0.01,Serang
-6.1,106.867,81.1,2.36,Jakarta/Tanjung Priok
-6.033,-76.967,73.0,0.12,Moyobamba
-5.911,-35.248,82.1,0.00,Campo Augusto Severo
-5.894,-76.118,77.8,0.00,Moises Benzaquen Rengifo / Yurimaguas
-5.85,112.633,80.8,0.00,Sangkapura (Bawean Is.)
-5.683,132.75,86.0,0.00,Tual/Dumatubun
-5.242,105.179,79.4,0.00,Radin Inten Ii
-5.217,145.8,79.7,0.08,Madang W.O.
-5.206,-80.616,79.0,0.00,Capitan Fap Guillermo Concha Iberico
-5.202,-37.364,84.6,0.00,Dix Sept Rosado
-5.167,-40.667,75.7,2.36,Crateus
-5.092,39.071,80.2,0.00,Tanga
-5.083,-42.817,76.6,0.98,Teresina
-5.083,32.833,69.8,0.00,Tabora Airport
-5.062,119.554,78.1,0.00,Sultan Hasanuddin Intl
-5.06,-42.823,76.1,0.00,Senador Petronio Portella
-4.95,-66.9,80.2,0.00,Carauari
-4.816,11.887,80.6,0.00,Pointe Noire / Antonio Agostinho Neto
-4.674,55.522,83.3,0.00,Seychelles Intl
-4.577,-81.254,75.1,0.00,Capitan Fap Victor Montes Intl
-4.378,-79.941,74.0,0.04,Jose Maria Velasco Ibarra
-4.252,15.253,84.2,0.00,Maya Maya
-4.2,12.7,83.6,0.00,Dolisie
-4.2,152.183,78.4,0.00,Rabaul
-4.193,-69.943,77.3,1.57,Alfredo Vasquez Cobo
-4.083,37.717,71.2,0.04,Same
-4.082,122.417,79.7,0.00,Wolter Monginsidi
-4.035,39.594,79.8,0.12,Mombasa Moi Intl
-4.0,-79.367,77.2,0.00,Loja/Camilo Ponce
-3.864,102.339,79.7,0.08,Fatmawati Soekarno
-3.855,-32.423,81.1,0.00,Fernando De Noronha
-3.785,-73.309,78.2,0.98,Coronel Francisco Secada Vignetta Intl
-3.776,-38.533,80.9,0.00,Pinto Martins Intl
-3.767,-38.6,81.1,0.00,Fortaleza
-3.71,128.089,80.6,0.00,Pattimura
-3.683,13.35,85.1,0.00,Sibiti
-3.553,-80.381,79.2,0.00,Cap Fap Pedro Canga Rodriguez
-3.483,12.617,85.4,0.00,Makabana
-3.442,114.763,80.2,0.28,Syamsudin Noor
-3.429,37.074,73.8,0.20,Kilimanjaro Intl
-3.4,38.567,77.0,0.00,Voi
-3.35,37.333,74.5,0.02,Moshi
-3.269,-79.962,81.1,0.00,General Manuel Serrano
-3.254,-52.254,75.7,0.00,Altamira
-3.229,40.102,79.4,0.08,Malindi
-3.146,-59.986,80.2,0.00,Campo Ponta Pelada
-3.083,-41.783,79.2,0.94,Parnaiba
-3.039,-60.05,81.2,0.00,Eduardo Gomes Intl
-2.898,104.701,79.3,1.18,Sultan Mahmud Badaruddin Ii
-2.894,-41.732,79.3,0.08,Parnaiba Prefeito Dr Joao Silva Filho
-2.889,-78.984,58.7,0.00,Mariscal Lamar
-2.746,107.755,78.5,0.35,H As Hanandjoeddin
-2.617,16.217,83.8,0.00,M'Pouya
-2.585,-44.234,78.4,0.71,Marechal Cunha Machado Intl
-2.444,32.933,76.1,0.00,Mwanza
-2.422,-54.793,81.0,0.00,Santarem / Maestro Wilson Fonseca
-2.283,37.833,73.4,0.00,Makindu
-2.252,40.913,82.4,0.01,Lamu Manda
-2.205,-80.989,77.8,0.00,General Ulpiano Paez
-2.17,106.13,79.2,0.47,Pangkalpinang / Depati Amir
-2.157,-79.884,79.4,0.00,Simon Bolivar Intl / Jose Joaquin De Olmedo Intl
-2.083,126.0,84.6,0.08,Sanana / Namniwel
-2.067,147.433,79.7,0.12,Momote/Manus Island
-1.867,15.867,81.0,0.00,Gamboma
-1.638,103.644,78.8,1.30,Sultan Thaha
-1.379,-48.476,76.5,0.00,Val De Cans Julio Cezar Ribeiro Intl
-1.319,36.928,64.4,0.00,Jkia / Nairobi Jomo Kenyatta Intl
-1.268,116.894,80.6,0.20,Sultan Aji Muhammad Sulaiman Sepinggan
-1.19,136.108,82.4,0.00,Frans Kaisiepo
-1.133,35.833,68.7,0.00,Narok
-1.042,-80.472,80.6,0.00,Reales Tamarindos
-1.033,-80.467,80.4,0.00,Portoviejo/Reales
-0.95,-80.683,80.3,0.00,Eloy Alfaro Intl
-0.875,100.352,82.4,0.67,Tabing
-0.683,119.733,80.8,0.08,Palu/Mutiara
-0.583,-80.417,79.8,0.00,San Vicente Aeropuerto
-0.479,104.579,78.8,2.36,Dabo
-0.464,39.648,83.8,2.13,Garissa
-0.35,102.333,79.9,0.91,Rengat/Japura Arpt
-0.267,36.1,63.0,0.51,Nakuru
-0.151,109.404,77.7,0.01,Supadio
-0.141,-78.488,57.2,0.02,Mariscal Sucre Intl
-0.086,34.729,72.5,0.00,Kisumu
0.051,-51.072,75.7,0.83,Macapa / Alberto Alcolumbre
0.083,37.65,66.8,1.50,Meru
0.1,-76.883,78.3,0.00,Nueva Loja Aeropuer
0.378,6.712,83.8,0.00,Sao Tome Intl
0.461,101.445,77.9,0.12,Sultan Syarif Kasim Ii
0.483,35.3,65.6,0.00,Eldoret
0.505,-76.501,81.5,0.00,Tres De Mayo
0.637,122.85,80.6,0.04,Jalaluddin / Djalaluddin
0.831,127.381,85.3,0.00,Babullah
0.862,-77.672,55.8,0.00,San Luis
0.923,104.532,76.3,1.02,Kijang
0.972,34.959,66.2,0.00,Kitale
1.36,103.91,77.3,0.00,Paya Lebar
1.382,173.147,84.6,0.00,Bonriki Intl
1.393,-77.291,68.4,0.00,Antonio Narino
1.485,110.347,77.1,0.39,Kuching Intl
1.549,124.926,77.5,0.55,Sam Ratulangi
1.616,16.038,83.9,0.00,Ouesso
1.817,-78.75,77.4,0.79,Tumaco/La Florida
2.033,-56.117,77.0,1.81,Sipaliwini
2.262,111.985,79.5,0.43,Sibu
2.263,102.252,79.5,0.00,Malacca
2.454,-76.609,66.2,0.04,Guillermo Leon Valencia
2.846,-60.69,85.1,0.00,Boa Vista / Atlas Brasil Cantanhede
2.95,9.9,83.8,0.00,Kribi
3.122,35.609,88.1,0.00,Lodwar
3.124,113.02,79.3,0.00,Bintulu
3.131,101.549,79.9,0.00,Sultan Abdul Aziz Shah Intl
3.2,106.25,79.5,0.00,Tarempa
3.333,117.567,82.2,0.00,Tarakan/Juwata
3.367,-57.333,77.7,0.51,Coeroeni
3.543,-76.382,71.3,0.16,Alfonso Bonilla Aragon Intl
3.558,98.672,81.1,0.02,Polonia / Kualanamu Intl
3.723,11.553,75.2,0.00,Yaounde Nsimalen
3.775,103.209,77.5,0.00,Kuantan
3.783,-56.15,77.5,0.02,Tafelberg
3.82,-76.99,78.4,3.15,Gerardo Tobar Lopez
3.967,13.2,76.4,0.16,Abong-Mbang
4.006,9.719,78.8,1.02,Douala
4.167,73.5,84.2,0.00,Male Island
4.217,100.7,80.2,0.00,Sitiawan
4.222,15.786,81.2,0.00,Berberati
4.283,-74.8,82.1,0.08,Girardot/Santiago Villa
4.322,113.987,82.4,0.00,Miri
4.35,-54.417,81.4,0.00,Stoelmanseiland
4.398,18.519,82.4,0.00,Bangui M Poko
4.417,-7.367,81.4,0.00,Tabou
4.517,-75.517,48.7,0.12,El Paso/La Linea
4.55,-70.917,80.2,0.06,Las Gaviotas
4.702,-74.147,58.7,0.00,El Dorado Intl
4.733,22.833,87.8,0.00,Bangassou
4.747,-6.661,83.3,0.00,San Pedro
4.813,-75.74,70.7,0.51,Matecana
4.82,-52.36,81.8,0.00,Rochambeau / Cayenne Felix Eboue
4.95,-6.083,82.4,0.00,Sassandra/Drewin
4.95,9.933,73.8,0.83,Nkongsamba
4.95,114.917,81.1,0.00,Brunei Intl
5.05,21.2,80.6,0.04,Alindao
5.261,-3.926,85.2,0.04,Abidjan Felix Houphouet Boigny Intl
5.297,100.277,80.1,0.00,Penang Intl
5.3,-3.3,84.7,0.02,Adiake
5.4,26.5,81.5,0.00,Obo
5.453,-55.188,76.6,0.00,Johan A Pengel Intl
5.524,95.42,78.5,0.24,Sultan Iskandar Muda
5.6,14.067,72.9,0.00,Betare-Oya
5.717,9.283,79.7,0.00,Mamfe
5.811,-55.191,77.5,0.00,Zorg En Hoop
5.85,20.65,85.1,0.00,Bambari
5.874,95.34,80.2,0.16,Maimun Saleh
5.883,-60.5,79.2,0.00,Kamarang
5.901,118.059,81.9,0.00,Sandakan
5.937,116.051,81.9,0.00,Kota Kinabalu Intl
5.95,-57.03,79.5,0.00,Nickerie
5.967,15.633,74.3,0.00,Bouar
6.05,125.1,79.9,0.00,Gen. Santos
6.117,81.133,82.4,0.00,Hambantota
6.133,-5.95,80.6,0.08,Gagnoa
6.166,1.255,86.0,0.00,Gnassingbe Eyadema Intl
6.167,102.293,81.1,0.00,Sultan Ismail Petra
6.22,-75.591,70.3,1.06,Olaya Herrera
6.357,2.384,86.2,0.00,Card Bernardin Gadin De Cadjehoun Intl
6.483,17.433,83.3,0.00,Bossangoa
6.5,-58.25,79.1,0.00,Georgetown
6.5,23.267,82.4,0.00,Yalinga
6.52,101.743,83.9,0.00,Narathiwat
6.533,14.367,70.2,0.00,Meiganga
6.533,21.983,83.3,0.00,Bria
6.583,1.5,84.2,0.00,Tabligbo
6.65,-4.7,87.0,0.00,Dimbokro City
6.661,100.08,81.1,2.76,Khoun Khan
6.783,11.817,70.5,1.46,Banyo
6.785,101.154,82.0,0.00,Pattani
6.793,-6.473,82.4,0.00,Daloa
6.8,-58.15,82.0,0.00,Georgetown
6.822,79.886,80.6,0.00,Colombo Ratmalana
6.9,79.867,77.5,0.00,Colombo
6.903,-5.366,83.4,0.00,Yamoussoukro
6.922,122.06,83.2,0.00,Zamboanga Intl
6.933,100.393,79.7,0.08,Hat Yai Intl
6.967,80.767,62.1,0.00,Nuwara Eliya
7.01,-74.715,79.2,0.87,Otu Remedios
7.024,-73.807,83.1,1.50,Yariguies
7.069,-70.737,85.1,0.00,Santiago Perez
7.126,125.646,83.2,0.00,Francisco Bangoy Intl
7.127,-73.185,70.9,0.04,Palonegro
7.167,2.067,83.7,0.04,Bohicon
7.181,79.866,83.5,0.00,Bandaranaike Intl Colombo
7.187,100.608,83.8,0.02,Songkhla
7.272,-7.587,81.1,0.00,Man
7.333,134.483,82.1,0.00,Babelthuap/Koror Air
7.357,13.559,68.0,1.10,Ngaoundere
7.467,151.85,83.1,0.00,Chuuk International Airport
7.509,99.617,79.6,0.55,Trang
7.583,1.117,80.3,0.01,Atakpame/Akpaka
7.706,81.679,86.0,0.00,Batticaloa
7.739,-5.074,81.5,0.00,Bouake
7.883,98.4,80.6,0.12,Phuket
7.928,-72.512,82.9,0.00,Camilo Daza
8.033,2.467,83.2,0.00,Save
8.033,79.833,83.0,0.00,Puttalam
8.05,-2.783,86.3,0.00,Bondoukou/Soko
8.113,98.317,80.4,0.04,Phuket Intl
8.3,73.15,83.5,0.00,Minicoy
8.367,126.333,82.1,0.04,Hinatuan
8.391,-82.435,81.9,0.00,Enrique Malek Intl
8.417,124.617,81.7,0.00,Lumbia Airport
8.471,99.956,82.0,3.15,Cha Ian
8.483,76.95,84.5,0.28,Thiruvananthapuram
8.539,81.182,84.7,0.00,China Bay
8.601,123.334,85.1,0.00,Dipolog
8.683,98.25,81.1,0.35,Takua Pa
8.683,106.6,83.5,0.00,Con Son
8.733,167.733,78.2,0.16,Bucholz Aaf Kwajalein Kmr Atol Ap
8.824,-75.826,85.6,0.00,Los Garzones
8.917,-79.6,84.3,0.00,Howard
8.983,1.15,83.2,0.00,Sokode
9.071,-79.383,81.9,0.00,Tocumen Intl
9.133,99.136,81.1,0.04,Surat Thani
9.183,105.15,81.9,0.00,Ca Mau
9.333,-79.983,83.0,0.00,Ft Sherman (Rocob)
9.334,123.3,84.2,0.00,Dumaguete
9.336,13.37,91.0,0.00,Garoua
9.35,2.617,81.5,0.00,Parakou
9.387,-5.557,85.5,0.00,Korhogo
9.467,100.05,81.5,0.16,Ko Samui
9.483,138.083,83.3,0.00,Yap International Airport
9.5,-7.567,85.1,0.00,Odienne
9.55,1.167,86.8,0.00,Kara
9.664,123.853,82.1,0.20,Tagbilaran
9.742,118.759,85.0,0.00,Puerto Princesa
9.778,98.585,79.5,1.14,Ranong
9.783,125.483,79.4,0.39,Surigao
9.8,80.067,87.4,0.00,Kankasanturai
9.946,76.272,84.7,0.00,Cochin
9.994,-84.209,68.9,0.83,Juan Santamaria Intl
10.083,-2.508,87.3,0.00,Wa
10.15,-85.45,77.4,0.00,Nicoya / Miguel Angel Castillo Zumbado
10.217,103.967,83.3,0.00,Phu Quoc
10.283,22.783,92.5,0.00,Birao
10.308,123.979,84.0,0.00,Mactan Cebu Intl
10.317,1.383,85.4,0.00,Natitingou
10.333,-3.183,86.4,0.00,Gaoua
10.367,0.467,90.9,0.20,Mango/Sansanne
10.442,-75.513,84.2,0.00,Rafael Nunez
10.451,14.257,88.4,0.00,Salak
10.595,-61.337,79.9,0.00,Piarco
10.603,-66.991,81.8,0.00,Simon Bolivar Intl
10.711,99.362,81.4,0.16,Chumphon
10.713,122.541,85.7,0.00,Iloilo
10.765,78.71,90.7,0.00,Tiruchirappalli
10.817,106.667,87.5,0.00,Ho Chi Minh/Tansonn
10.819,106.652,84.2,0.00,Tan Son Nhat Intl
10.89,-74.781,86.0,0.00,Ernesto Cortissoz
10.933,108.1,86.5,0.00,Phan Thiet
11.031,77.044,84.2,0.00,Coimbatore
11.036,125.742,82.4,0.00,Guiuan
11.12,-74.231,85.6,0.00,Simon Bolivar
11.133,2.933,92.8,0.00,Kandi
11.15,-60.833,78.1,0.00,Crown Point Airport   Tobago
11.16,-4.331,86.3,0.00,Bobo Dioulasso
11.228,125.028,83.5,0.00,Daniel Z Romualdez
11.25,75.783,81.7,0.43,Kozhikode
11.35,-5.683,90.6,0.00,Sikasso
11.417,-85.833,83.0,0.00,Rivas
11.417,-7.5,88.4,0.00,Bougouni
11.526,-72.926,83.8,0.00,Almirante Padilla
11.55,43.15,85.6,0.00,Djibouti
11.667,92.717,80.6,0.00,Port Blair
11.75,-2.933,91.0,0.00,Boromo
11.767,79.767,86.9,0.00,Cuddalore
11.783,124.883,81.5,0.00,Catbalogan
11.788,99.805,81.9,0.00,Prachuap
11.883,3.45,94.7,0.00,Gaya
11.895,-15.654,84.2,0.00,Bissau Oswaldo Vieira Intl
11.991,-83.774,83.1,0.00,Bluefields
12.0,-95.0,47.8,0.00,Moored Buoy 43011
12.033,0.367,92.7,0.00,Fada N'Gourma
12.131,-68.269,82.0,0.00,Flamingo
12.141,-86.168,82.2,0.06,Managua Intl / Augusto Cesar Sandino Intl
12.189,-68.96,82.5,0.00,Hato
12.25,109.2,84.2,0.00,Nha Trang
12.353,-1.512,92.1,0.00,Ouagadougou
12.369,123.629,82.1,0.00,Masbate
12.383,-5.467,92.3,0.00,Koutiala
12.433,98.6,83.8,0.00,Mergui
12.501,-70.015,82.1,0.00,Reina Beatrix Intl
12.534,-7.95,95.3,0.00,Senou / President Modibo Keita
12.556,-16.282,82.2,0.00,Ziguinchor
12.572,-12.22,97.5,0.00,Kedougou
12.584,-81.711,82.2,0.00,Gustavo Rojas Pinilla
12.6,102.117,83.1,1.69,Chanthaburi
12.636,99.952,83.4,0.00,Hua Hin
12.683,100.983,82.6,0.00,Sattahip
12.683,101.0,82.8,0.00,U-Taphao Intl(Navy)
12.833,45.033,84.6,0.00,Aden Khormaksar
12.85,-11.233,95.7,0.00,Kenieba
12.883,-14.967,93.2,0.00,Kolda
12.961,74.89,84.7,0.08,Mangalore
12.967,77.583,84.2,0.00,Bangalore
12.994,80.181,87.4,0.00,Chennai Intl
13.067,-9.467,93.2,0.00,Kita
13.075,-59.492,81.0,0.00,Grantley Adams Intl
13.157,123.746,81.7,0.00,Legazpi
13.167,100.8,82.4,0.35,Ko Sichang
13.233,11.983,94.3,0.00,Maine-Soroa
13.3,-87.183,91.1,0.00,Choluteca
13.333,-4.833,92.3,0.00,San
13.333,43.267,87.8,0.00,Mokha/Al Mocha
13.367,100.983,82.8,0.59,Chon Buri/Sattahip / Suvarnabhumi Intl
13.417,121.183,84.7,0.00,Calapan/Mindoro Isl
13.482,2.184,94.7,0.00,Diori Hamani
13.483,144.8,81.0,0.01,Guam International Airport
13.503,7.127,89.3,0.00,Maradi
13.567,-89.833,82.0,0.00,Acajutla/Sonsonate
13.567,-2.417,95.3,0.00,Ouahigouya
13.567,144.917,78.5,0.00,Andersen Afb
13.576,124.206,81.1,0.00,Virac
13.699,-89.12,75.3,0.00,Ilopango Intl
13.7,102.504,85.1,0.01,Aranyaprathet
13.733,-60.953,83.7,0.00,Hewanorra Intl
13.733,100.567,85.0,0.43,Bangkok Metropolis
13.737,-13.653,93.9,0.00,Tambacounda
13.767,109.217,85.1,0.00,Quy Nhon
13.779,8.984,88.0,0.00,Zinder
13.8,5.25,95.6,0.00,Birni-N'Konni
13.913,100.607,84.3,0.87,Bangkok Intl / Don Mueang Intl
13.97,-89.53,77.3,0.00,Santa Ana/El Palmar
14.017,99.533,84.2,1.38,Kanchana Buri
14.02,-60.993,81.5,0.00,George F L Charles
14.033,-61.017,81.1,0.12,Castries
14.033,-0.033,94.1,0.00,Dori
14.047,-83.387,81.5,0.00,Puerto Cabezas
14.061,-87.217,77.3,0.00,Toncontin Intl
14.078,101.38,85.1,0.51,Khao E To
14.083,121.05,84.0,0.00,Ambulong
14.129,122.98,82.0,0.00,Daet
14.147,-16.051,87.5,0.00,Kaolack
14.2,1.45,99.0,0.00,Tillabery
14.233,76.433,85.7,0.00,Chitradurga
14.25,13.117,94.3,0.00,N'Guigmi
14.45,79.983,88.3,0.00,Nellore
14.467,100.133,84.7,0.28,Suphan Buri
14.482,-11.44,91.0,0.00,Kayes/Dag-Dag
14.509,121.02,86.8,7.99,Ninoy Aquino Intl
14.513,-4.08,96.0,0.00,Ambodedjo
14.583,-90.527,65.3,0.00,La Aurora
14.583,77.633,93.2,0.00,Pbo Anantapur
14.591,-61.003,79.8,0.28,Le Lamentin
14.65,-16.233,92.0,0.00,Diourbel
14.65,121.05,86.0,0.00,Science Garden
14.74,-17.49,75.7,0.00,Leopold Sedar Senghor Intl
14.75,42.983,88.9,0.00,Al Hudaydah/Hodeida
14.75,121.65,80.9,0.00,Infanta
14.8,100.617,85.5,0.16,Lop Buri
14.8,120.267,85.8,0.00,Subic Bay Weather
14.876,5.265,92.2,0.00,Tahoua
14.883,-92.3,86.4,0.00,Tapachula/Airport
14.883,103.5,85.2,0.00,Surin
14.9,-85.933,88.1,0.00,Catacamas
14.935,102.079,85.6,0.31,Khorat
15.117,105.767,87.8,0.00,Pakse
15.117,145.733,81.7,0.04,Saipan/Isley (Cgs)
15.186,120.56,85.5,0.00,Clark Intl / Diosdado Macapagal Intl
15.233,-9.35,93.8,0.00,Nioro Du Sahel
15.251,104.87,84.5,0.00,Ubon Ratchathani
15.261,-83.781,84.0,0.00,Puerto Lempira
15.317,-91.467,65.4,0.00,Huehuetenango
15.317,120.383,95.5,0.00,Crow Valley Gunnery Range
15.333,-1.683,93.8,0.00,Hombori
15.383,-15.117,97.9,0.00,Linguere
15.417,75.633,87.0,0.00,Gadag
15.453,-87.924,85.5,0.00,La Mesa Intl / Ramon Villeda Morales Intl
15.483,44.217,72.0,0.00,Sanaa Intl/Rahaba
15.483,73.817,85.5,0.00,Goa/Panjim
15.547,-61.3,83.2,0.00,Melville Hall
15.65,-13.25,97.6,0.00,Matam/Ouro Sogui
15.673,100.137,87.5,0.39,Nakhon Sawan
15.731,-88.584,81.8,0.00,Puerto Barrios
15.733,120.933,86.5,0.00,Munoz
15.742,-86.853,84.4,0.00,Goloson Intl
15.8,78.067,93.7,0.00,Kurnool
15.8,102.033,83.8,0.00,Chaiyaphum
15.859,74.618,82.4,0.00,Belgaum
16.044,108.199,83.2,0.00,Danang Intl
16.051,-16.463,80.3,0.00,Saint Louis Ousmane Masseck Ndiaye
16.07,103.646,84.2,0.12,Rob Muang
16.083,120.35,86.9,0.00,Dagupan
16.2,81.15,86.5,0.00,Machilipatnam/Franchpet
16.248,-0.005,91.7,0.00,Gao
16.267,122.133,81.4,0.00,Casiguran
16.375,120.62,68.4,0.04,Baguio
16.467,102.784,86.3,0.47,Khon Kaen
16.533,104.717,82.4,0.02,Mukdahan
16.533,111.617,84.5,0.00,Sanhu Dao
16.557,104.76,91.0,0.00,Savannakhet
16.59,-11.406,95.9,0.00,Kiffa
16.65,-14.967,98.0,0.00,Podor
16.676,101.195,82.1,0.08,Phetchabun
16.7,98.545,79.6,0.00,Mae Sot
16.73,-3.008,88.1,0.00,Tombouctou
16.733,-169.533,77.1,0.00,Johnston Atoll Airport
16.741,-22.949,76.7,0.00,Amilcar Cabral Intl
16.75,-93.133,81.6,0.00,Francisco Sarabia / Tuxtla Gutierrez Intl
16.75,97.667,84.6,0.00,Hpaan
16.757,-99.754,80.3,0.00,General Juan N Alvarez Intl / Acapulco Intl
16.783,100.279,86.5,0.00,Phitsanulok
16.833,112.333,82.8,0.00,Xisha Dao
16.896,99.253,84.2,0.08,Tak
16.9,96.183,83.4,0.00,Mingaladon
16.95,82.233,87.6,0.00,Kakinada
16.967,7.967,83.2,0.00,Agadez / Mano Dayak
16.983,7.983,62.2,0.00,Agadez (8350)
16.983,73.333,83.2,0.00,Ratnagiri
17.0,-96.733,75.9,0.00,Xoxocotlan Intl / Oaxaca Intl
17.137,-61.793,78.0,0.00,V C Bird Intl
17.15,104.133,86.0,0.20,Sakon Nakhon
17.233,99.05,84.2,0.00,Bhumibol Dam
17.283,-62.733,78.8,0.00,Basseterre
17.311,-62.719,77.7,0.00,Robert L Bradshaw
17.386,102.788,85.6,0.00,Udon Thani
17.4,-83.933,80.0,0.00,Islas Del Cisne
17.417,104.783,84.2,0.00,Nakhon Phanom
17.439,101.722,80.3,0.24,Loei
17.452,78.461,90.3,0.00,Begumpet Airport / Hyderabad Intl
17.483,106.6,81.1,0.00,Dong Hoi
17.539,-88.308,84.6,0.00,Philip S W Goldson Intl
17.555,120.356,86.4,0.00,Vigan
17.617,100.1,87.8,0.00,Uttaradit
17.628,75.935,93.5,0.00,Solapur
17.65,-101.45,77.7,0.00,Zihuatanejo
17.7,-64.813,76.9,0.12,Christiansted/Alex.
17.717,83.217,86.9,0.00,Vishakhapatnam Ctlz
17.867,102.75,85.6,0.31,Nong Khai
17.936,-76.788,82.2,0.24,Norman Manley Intl
17.988,102.563,85.7,0.00,Wattay Intl
18.017,-92.95,85.5,0.00,Villahermosa      &
18.041,-63.109,79.1,0.08,Princess Juliana Intl
18.098,-15.948,93.7,0.00,Nouakchott
18.132,100.165,87.4,0.31,Phrae
18.15,-94.417,84.2,0.00,Coatzacoalcos     &
18.167,97.933,82.4,0.00,Mae Sariang
18.178,120.532,86.5,0.00,Laoag Intl
18.217,109.583,83.1,0.00,Sanya
18.25,-67.15,77.4,0.00,Eugenio Maria De Ho
18.251,-71.12,79.2,0.01,Maria Montez Intl
18.255,-65.641,74.7,0.47,Naval Station Roosevelt Roads Ceiba
18.271,99.504,81.5,0.00,Lampang
18.336,-64.98,81.4,0.00,Cyril E King Airport
18.417,-66.0,76.3,0.59,San Juan Intl Arpt
18.43,-69.669,79.9,0.00,De Las Americas Intl
18.433,-69.883,78.3,0.02,Santo Domingo
18.433,-66.011,76.3,0.00,San Juan L M Marin Intl Ap
18.467,94.35,91.4,0.00,Sandoway
18.5,-67.133,76.0,0.00,Aquadilla/Borinquen
18.5,110.0,83.3,0.00,Ling-Shui
18.504,-77.913,73.8,0.43,Sangster Intl
18.505,-88.327,84.5,0.00,Chetumal Intl
18.533,73.85,88.3,0.00,Pune
18.58,-72.293,84.6,0.00,Toussaint Louverture Intl / Port Au Prince Intl
18.617,-69.317,78.8,0.00,Cabo Engano
18.65,-91.783,84.5,0.91,Ciudad Del Carmen
18.683,12.917,86.0,0.00,Bilma
18.737,105.671,80.3,14.96,Vinh
18.767,79.433,94.0,0.00,Ramgundam
18.767,98.963,87.1,0.00,Chiang Mai Intl
18.808,100.783,83.8,0.08,Nan
19.05,-69.383,77.0,0.02,Sabana De La Mar
19.083,82.033,87.8,0.00,Jagdalpur
19.089,72.868,84.7,0.00,Chhatrapati Shivaji Maharaj Intl
19.1,108.617,84.9,0.00,Dongfang
19.145,-104.559,71.9,0.00,Playa De Oro Intl / Manzanillo Intl
19.2,-96.133,81.5,0.08,Veracruz/Gen Jara
19.233,110.467,78.8,0.51,Qionghai
19.283,166.65,79.2,0.02,Wake Island Airfld
19.301,97.976,89.6,0.00,Mae Hong Son
19.406,-70.605,76.3,0.04,Cibao Intl
19.433,-99.133,59.0,0.00,Aerop Internacional Mexico  D F
19.517,109.583,82.9,0.00,Danxian
19.683,-79.883,81.3,0.00,Cayman Brac
19.719,-155.053,70.6,0.00,Hilo International Airport
19.75,-155.55,56.1,0.00,Bradshaw Aaf
19.758,-70.57,77.0,0.04,Gregorio Luperon Intl
19.817,-90.5,76.6,0.00,Ingeniero Alberto Acuna Ongay Intl / Campeche Intl
19.833,-90.517,81.2,0.00,Campeche/Ignacio  &
19.863,75.398,91.2,0.00,Aurangabad
19.885,99.827,86.9,0.00,Chiang Rai
19.897,102.161,82.0,0.00,Luang Phabang Intl
19.9,-75.15,79.4,0.63,Guantanamo Bay Naval Air Station
19.967,42.667,84.6,0.00,Bisha
19.97,-75.835,78.1,0.20,Antonio Maceo Intl
20.0,110.25,82.6,0.00,Haikou
20.001,-155.668,68.8,0.00,Waimea Kohala
20.033,-75.633,64.4,0.04,Gran Piedra   Santiago De Cuba
20.083,-98.367,67.6,0.00,Tulancingo
20.133,107.717,82.2,0.00,Bach Long Vi
20.243,0.977,85.3,0.00,Tessalit
20.244,85.818,87.1,0.00,Bhubaneshwar / Biju Patnaik Intl
20.451,121.98,83.1,0.00,Basco
20.507,-13.043,93.7,0.00,Atar
20.517,-103.317,73.4,0.00,Guadalajara Intl  &
20.517,-86.95,79.7,0.00,Cozumel Intl Arpt &
20.517,-86.933,78.1,0.00,Cozumel (Fam) Q Roc
20.667,116.717,83.0,0.00,Dongsha Dao
20.683,-105.25,70.9,0.00,Puerto Vallarta
20.683,-88.2,77.0,0.00,Valladolid  Yuc.
20.699,77.059,93.9,0.00,Akola
20.783,-156.95,72.1,0.00,Lanai
20.8,106.633,79.1,0.00,Phu Lien
20.85,88.25,85.3,0.00,Sandheads
20.9,-156.429,74.6,0.00,Kahului Airport
20.9,70.367,83.8,0.00,Veraval
20.917,-156.683,76.0,0.00,Kaanapali  Maui   Hawaii
20.933,-17.03,77.5,0.00,Nouadhibou
20.937,-89.658,81.5,0.00,Licenciado Manuel Crescencio Rejon Int / Merida Intl
20.95,-97.4,78.8,0.00,Tuxpan.Ver.
21.017,-86.867,80.6,0.00,Cancun Intl
21.067,-101.55,77.6,0.00,Leon/San Carlos
21.092,79.047,92.1,0.00,Dr Baba Saheb Ambedkar Intl
21.15,-157.1,74.2,0.00,Molokai (Amos)
21.183,81.733,93.2,0.00,Swami Vivekananda
21.2,72.833,92.3,0.00,Surat
21.217,110.4,79.3,0.01,Zhanjiang
21.221,105.807,80.6,0.00,Noibai Intl
21.317,-158.067,74.7,0.00,Kalaeloa Arpt
21.324,-157.929,73.0,0.00,Honolulu International Airport
21.42,-77.848,73.8,0.55,Ignacio Agramonte Intl
21.45,-157.768,74.4,0.16,Kaneohe Mcas
21.483,40.533,81.3,0.00,Taif/At Taif
21.483,109.1,80.2,0.00,Beihai
21.487,-158.028,72.2,0.00,Wheeler Army Airfield
21.5,39.2,82.6,0.00,Jeddah Intl
21.5,101.583,80.6,0.00,Mengla
21.517,86.933,84.0,0.00,Balasore
21.55,107.967,77.9,0.00,Dong-Xing
21.733,112.767,79.1,0.00,Shangchuan Dao
21.835,-82.784,80.6,0.00,Rafael Cabrera
21.867,111.967,79.7,0.00,Yangjiang
21.914,84.05,91.8,0.00,Jharsuguda / Veer Surendra Sai
21.917,-84.467,76.6,0.79,La Bajada  Pinar Del Rio
21.917,-80.167,78.3,0.16,Cantarrana   Cienfuegos
21.95,108.617,78.8,0.00,Qinzhou
21.984,-159.341,73.2,0.08,Lihue Airport
22.0,100.783,79.5,0.00,Jinghong
22.0,120.75,81.1,0.00,Hengchun
22.033,-159.783,76.0,0.00,Barking Sands Pacific Missile Range Fac Arpt
22.033,121.55,77.5,0.00,Lan Yu
22.041,120.73,82.7,0.00,Hengchun
22.067,-81.033,80.6,0.31,Playa Giron  Matanzas
22.15,113.592,79.7,0.00,Macau Intl
22.167,-84.1,78.1,1.50,Isabel Rubio  Pinar Del Rio
22.267,112.783,81.1,0.00,Tai-Shan
22.283,-97.85,81.5,0.00,Tampico/Gen Fj Mina
22.3,114.167,79.5,0.00,Hong Kong Observatory
22.309,70.78,91.7,0.00,Rajkot
22.309,113.915,81.1,0.00,Hong Kong Intl
22.35,110.933,77.0,0.00,Xinyi
22.367,106.75,81.3,0.02,Longzhou
22.417,-83.683,73.8,1.18,Pinar Del Rio
22.417,120.55,83.5,0.00,Chia Tung
22.5,103.95,72.2,0.04,He-Kou
22.55,-83.3,75.2,1.89,Paso Real De San Diego  Pinar Del Rio
22.567,99.933,74.7,0.00,Lancang
22.577,120.35,80.5,0.00,Kaohsiung Intl
22.608,108.172,80.6,0.00,Wuxu
22.617,101.817,75.2,0.00,Jiangcheng
22.639,113.811,82.9,0.00,Baoan Intl
22.655,88.447,86.9,0.00,Netaji Subhash Chandra Bose Intl
22.667,-102.55,78.5,0.00,San Jose Del Cabo &
22.672,120.462,82.4,0.00,Pingtung South
22.7,120.482,80.9,0.00,Pingtung North
22.722,75.801,91.2,0.00,Devi Ahilyabai Holkar
22.75,121.15,80.3,0.00,Taidong
22.767,81.9,89.3,0.00,Pendra Road
22.767,100.983,64.7,0.00,Simao
22.783,115.367,77.0,0.00,Shanwei
22.783,120.262,80.0,0.00,Gangshan
22.793,121.182,79.3,0.00,Jhihhang
22.8,5.433,71.6,0.00,Tamanrasset
22.813,86.169,91.1,0.00,Jamshedpur
22.95,120.206,80.4,0.00,Tainan
22.989,-82.409,75.7,0.00,Jose Marti Intl
23.0,120.217,83.4,0.00,Tainan
23.034,-81.435,76.8,0.20,Juan Gualberto Gomez Intl
23.05,112.467,79.1,0.00,Gaoyao
23.15,-106.25,75.0,0.00,Mazatlan/G.Buelna I
23.167,-82.35,75.2,1.69,Casa Blanca   La Habana
23.178,80.052,88.9,0.00,Jabalpur
23.267,90.7,85.5,0.00,Chandpur
23.287,77.337,92.8,0.00,Bhopal / Raja Bhoj
23.288,69.67,93.9,0.00,Bhuj
23.3,105.95,72.9,0.59,Napo
23.314,85.322,88.1,0.00,Birsa Munda
23.392,113.299,78.8,0.00,Baiyun Intl
23.4,110.083,78.5,0.35,Guiping
23.4,116.683,79.7,0.00,Shantou / Chaoshan
23.45,103.333,77.0,0.20,Mengzi
23.462,120.393,81.7,0.00,Chiayi
23.483,111.3,76.8,0.04,Wuzhou
23.517,119.567,80.9,0.00,Magong
23.567,99.083,79.3,0.00,Mengding
23.569,119.628,79.2,0.00,Magong / Penghu
23.583,58.283,81.5,0.00,Muscat/Seeb Intl
23.6,101.983,88.3,0.00,Yuanjiang
23.767,90.383,91.8,0.00,Dacca/Tezgaon
23.8,114.733,76.0,0.01,Heyuan
23.883,113.517,75.5,0.91,Fogang
23.887,91.24,88.8,0.00,Agartala
23.9,106.6,79.7,0.31,Baise
23.95,100.217,71.4,0.00,Lincang
23.964,32.82,81.5,0.00,Aswan Intl
23.967,115.967,79.7,0.00,Song-Lin-Ba
24.0,97.85,76.5,0.00,Ruili
24.017,121.617,80.2,0.00,Hualian
24.023,121.618,79.5,0.00,Hualien
24.067,105.067,74.2,0.00,Guangnan
24.073,-110.362,77.2,0.00,General Manuel Marquez De Leon Intl / La Paz Intl
24.124,-104.528,72.3,0.08,Durango Intl
24.144,38.063,86.0,0.00,Yenbo / Prince Abdulmohsin Bin Abdulaziz
24.15,47.317,82.4,0.00,Al-Kharj
24.15,120.683,80.6,0.00,Taizhong
24.179,23.314,79.7,0.00,Kufra
24.186,120.654,77.9,0.00,Taichung
24.2,110.517,75.5,0.35,Mengshan
24.265,120.621,77.9,0.00,Taichung Intl / Ching Chuang Kang Ab
24.283,116.067,79.0,0.04,Mei Xian
24.29,153.979,75.2,0.00,Minami Torishima
24.3,91.733,89.6,0.00,Srimangal
24.345,124.187,80.2,0.00,New Ishigaki
24.35,109.4,74.9,0.83,Liuzhou
24.367,114.483,73.1,0.24,Lianping
24.428,118.359,70.8,0.00,Shang Yi / Kinmen
24.467,122.983,81.1,0.00,Yonaguni-Jima
24.533,103.767,71.3,0.00,Luxi
24.544,118.128,72.9,0.18,Gaoqi
24.553,39.705,89.8,0.00,Prince Mohammad Bin Abdulaziz
24.557,-81.755,77.2,2.83,Key West International Airport
24.567,80.833,90.2,0.00,Satna
24.583,-81.683,76.6,4.17,Key West Nas
24.633,117.65,75.7,0.00,Zhangzhou
24.65,77.317,89.2,0.20,Guna
24.667,113.6,73.6,0.31,Shaoguan
24.7,108.05,76.1,0.43,Hechi
24.722,46.725,90.8,0.00,King Salman Ab
24.744,84.951,94.0,0.00,Gaya
24.75,121.767,80.6,0.00,Ilan
24.76,93.897,79.1,0.00,Imphal
24.783,125.295,79.4,0.00,Miyako
24.8,112.367,74.7,0.39,Lianzhou
24.8,118.583,66.7,0.01,Jin-Jiang
24.817,-107.4,73.9,0.00,Culiacan (City)   &
24.818,120.939,78.1,0.00,Hsinchu
24.9,91.883,86.0,0.00,Sylhet
24.907,67.161,84.7,0.00,Jinnah Intl
24.95,115.65,74.2,0.83,Xunwu
24.983,98.5,65.5,0.00,Tengchong
24.992,102.744,67.8,0.00,Wujiaba / Changshui
25.017,101.517,70.1,0.00,Chuxiong
25.033,121.517,76.3,0.00,Taibei
25.039,-77.466,73.6,0.02,Nassau Intl / Lynden Pindling Intl
25.05,121.217,77.9,0.00,Taoyuan
25.056,121.243,76.4,0.00,Taoyuan
25.069,121.552,77.6,0.00,Songshan
25.078,121.233,75.6,0.00,Chiang Kai Shek Intl / Taoyuan Intl
25.1,117.017,76.2,0.30,Longyan
25.117,99.183,64.7,0.00,Baoshan
25.17,-94.42,71.4,0.00,W Gulf 240 Nm South-Southeast Of Sabine
25.218,110.039,73.4,0.83,Liangjiang
25.25,55.333,85.1,0.00,Dubai
25.267,51.55,84.6,0.00,Doha Intl Airport
25.329,55.517,84.8,0.00,Sharjah Intl
25.35,55.383,84.8,0.00,Ash Shariqah Sw
25.367,97.4,85.1,0.00,Myitkyina
25.433,105.183,70.7,0.00,Xingren
25.433,106.767,77.3,1.89,Luodian
25.483,-80.383,74.4,6.85,Homestead Afb Airport
25.517,119.783,68.5,1.14,Pingtan
25.533,-103.45,81.2,0.00,Torreon Airport   &
25.583,103.833,69.5,0.00,Zhanyi
25.591,85.088,92.3,0.00,Jai Prakash Narayan Intl Patna
25.617,111.6,67.6,1.65,Daoxian
25.633,122.067,76.0,0.00,Pengjia Yu
25.671,32.707,78.3,0.00,Luxor Intl
25.673,21.091,80.2,0.00,Tazerbo
25.7,100.183,64.4,0.00,Dali
25.717,118.1,58.5,0.32,Jiuxian Shan
25.733,101.867,82.8,0.00,Yuanmou
25.733,112.967,72.3,0.12,Chenzhou
25.767,-97.533,78.4,0.00,Matamoros Intl
25.788,-80.317,75.1,16.22,Miami International Airport
25.833,107.55,70.1,0.12,Dushan
25.84,-89.66,73.4,0.00,Mid Gulf 180 Nm South Of Southwest Pass
25.847,131.263,74.9,0.00,Minami Daito
25.85,114.95,76.1,0.08,Ganzhou
25.85,116.367,73.4,0.51,Changting
25.866,-100.237,83.9,0.00,Del Norte Intl
25.914,-97.423,74.2,0.00,Brownsville/S Padre Island Intl Ap
25.967,108.533,75.7,0.51,Rongjiang
25.967,117.35,72.3,0.32,Yong'An
26.01,-85.91,74.3,0.00,E Gulf 260 Nm South Of Panama City  Fl
26.017,-98.233,78.8,0.00,Reynosa Intl
26.017,88.4,88.2,0.00,Thakurgaon
26.072,-80.154,75.5,0.00,Fort Lauderdale Hol
26.083,119.283,69.8,1.46,Fuzhou
26.106,91.586,84.9,0.00,Guwahati Intl / Lokpriya Gopinath Bordoloi Intl
26.16,119.958,63.9,0.00,Nangan
26.167,109.783,71.1,1.93,Tongdao
26.167,119.933,64.1,0.00,Mazu
26.183,117.617,66.2,0.71,Sanming
26.184,-98.254,77.0,0.00,Mc Allen Miller Intl Arpt
26.196,127.646,76.8,0.00,Naha
26.199,36.476,79.3,0.00,Wejh
26.2,127.683,76.1,0.00,Naha
26.233,111.617,74.5,1.34,Lingling
26.265,50.152,81.9,0.00,King Abdulaziz Ab
26.267,50.617,82.2,0.00,Bahrain/Muharraq
26.267,127.75,76.7,0.00,Okinawa Marine Corps Air Station
26.3,43.767,82.9,0.00,Gassim
26.356,127.768,77.2,0.00,Kadena Ab
26.4,103.25,65.6,0.00,Huize
26.517,119.533,67.6,0.00,Luoyuan
26.539,106.801,72.1,0.00,Longdongbao
26.559,-78.696,72.0,0.24,Grand Bahama Intl
26.585,-81.861,75.6,1.89,Page Field Airport
26.617,92.783,86.9,0.00,Tezpur
26.633,118.15,74.4,0.04,Nanping
26.65,102.25,65.4,0.00,Huili
26.681,88.329,87.4,0.00,Bagdogra
26.685,-80.099,70.9,1.97,Palm Beach International Airport
26.729,127.762,77.0,0.00,Ie Shima Aux Ab
26.733,110.633,73.4,0.08,Wugang
26.74,83.45,93.9,0.00,Gorakhpur
26.761,80.889,89.6,0.00,Lucknow / Chaudhary Charan Singh Intl
26.8,113.533,71.6,0.04,Chaling
26.824,75.812,91.2,0.00,Jaipur
26.833,100.217,60.4,0.00,Lijing
26.85,116.333,70.3,1.18,Guangchang
26.867,104.283,64.2,0.00,Weining
26.933,112.583,73.0,0.12,Hengyang
26.967,108.667,67.5,0.04,Sansui
27.0,120.7,60.0,0.98,Taishan
27.05,118.317,70.2,0.35,Jian'Ou
27.092,142.191,76.3,0.00,Chichi Jima Bonin Island
27.117,114.967,71.2,0.59,Ji'An
27.152,-13.219,67.1,0.00,Hassan I
27.156,77.961,94.4,0.00,Agra
27.183,111.45,76.0,0.04,Shaoyang
27.233,2.5,85.1,0.00,In-Salah
27.295,94.098,83.3,0.00,Lilabari
27.3,105.233,66.5,0.00,Bijie
27.3,112.7,60.8,0.12,Nanyue
27.333,103.75,64.1,0.04,Zhaotong
27.333,117.467,68.7,0.04,Shaowu
27.333,120.2,65.2,0.67,Fuding
27.383,-82.55,75.2,0.00,Sarasota Bradenton
27.426,128.701,76.1,0.00,Okierabu
27.433,-99.567,81.6,0.00,Nuevo Laredo
27.45,109.683,72.1,0.00,Zhijiang
27.45,112.2,73.4,0.12,Shuang-Feng
27.483,-109.917,85.0,0.00,Ciudad Obregon  Son
27.484,95.017,82.4,0.00,Dibrugarh
27.5,-97.817,73.8,0.00,Kingsville Nas
27.55,-99.467,78.3,0.00,Laredo Intl Airport
27.583,116.65,67.5,0.24,Nancheng
27.65,-81.333,71.7,1.46,Avon Park Gunnery R
27.653,-80.243,72.5,0.71,Vero Beach Muni
27.683,-97.283,74.7,0.00,Corpus Christi Nas
27.7,-8.167,77.0,0.00,Tindouf
27.7,106.883,71.3,0.00,Zunyi
27.733,89.083,32.7,0.00,Pagri
27.741,-98.025,74.1,0.00,Alice International Arpt
27.774,-97.512,73.1,0.00,Corpus Christi International Airport
27.8,114.383,70.8,0.00,Yichun
27.815,-17.887,65.4,0.00,Hierro
27.833,66.633,84.7,0.00,Khuzdar
27.836,128.881,73.1,0.00,Tokunoshima
27.85,-82.517,73.3,0.35,Mac Dill Afb Airport
27.9,-82.683,73.7,0.00,St Petersburg Clear
27.9,102.267,70.0,0.12,Xichang
27.917,118.533,68.5,1.22,Pucheng
27.932,-15.387,63.8,0.00,Gran Canaria
27.95,108.25,73.4,0.00,Sinan
27.95,117.833,56.4,0.59,Qixian Shan
27.962,-82.54,72.7,0.35,Tampa International Airport
27.969,-110.925,79.7,0.00,General Jose Maria Yanez Intl / Guaymas Intl
28.017,120.667,63.1,0.98,Wenzhou
28.05,115.533,69.8,0.12,Qingjiang/Zhangshuz
28.052,9.643,76.6,0.00,In Amenas
28.101,-80.644,72.9,0.00,Melbourne Intl Ap
28.133,121.217,59.5,0.35,Yu-Huan
28.15,111.633,73.0,0.00,Mei-Cheng-Zhen
28.2,-177.383,71.6,0.00,Henderson Field Airport
28.2,113.083,71.8,0.04,Changsha/Datuopu
28.233,-80.6,73.1,0.31,Patrick Afb Airport
28.25,-91.833,73.8,0.00,Eugene Island
28.267,109.683,72.5,0.04,Qian-Zhou-Zhen
28.317,-16.5,57.2,0.00,Izana
28.33,-93.02,71.6,0.00,West Cameron
28.335,46.125,83.6,0.00,Al Qaisumah Intl
28.365,36.619,70.2,0.00,Tabuk / Prince Sultan Bin Abdulaziz
28.367,-97.667,70.8,0.00,Chase Naval Air Station
28.394,129.553,75.7,0.02,Naze/Funchatoge
28.417,-16.75,63.7,0.00,Teneife Sur
28.417,92.467,42.3,0.00,Lhunze
28.422,79.451,92.2,0.00,Bareilly
28.431,129.713,73.4,0.00,Amami
28.434,-81.325,70.5,0.98,Orlando International Airport
28.45,-16.25,65.3,0.00,Sta. Cruz De Tenerife
28.45,98.883,49.8,0.00,Deqen
28.45,119.917,65.9,1.14,Lishui
28.45,121.883,57.0,0.73,Dachen Dao
28.453,-13.864,65.0,0.00,Fuerteventura
28.457,-99.218,75.6,0.00,Cotulla-La Salle Co Arpt
28.467,110.4,72.9,0.00,Yuanling
28.483,-16.342,56.6,0.00,Tenerife Norte
28.5,-90.12,70.4,0.00,Grand Isle B95
28.585,77.206,89.6,0.00,Safdarjung
28.617,-80.7,71.0,0.51,Nasa Shuttle Fclty
28.617,121.417,60.4,0.24,Hongjia
28.626,-17.756,64.9,0.00,La Palma
28.633,87.083,40.6,0.00,Tingri
28.683,118.25,65.3,0.83,Yushan
28.7,-105.967,73.1,0.00,Chihuahua Intl    &
28.725,-96.254,72.2,0.00,Palacios Municipal Airport
28.75,113.617,70.2,0.04,Pingjiang
28.78,-81.244,72.0,0.00,Orlando Sanford Airport
28.8,104.6,75.4,0.00,Yibin
28.817,120.917,55.9,0.92,Kuocang Shan
28.833,108.767,65.5,0.00,Youyang
28.85,112.383,71.6,0.00,Yuanjiang
28.861,-96.93,72.6,0.00,Victoria Regional Airport
28.865,115.9,69.1,0.24,Changbei Intl
28.883,105.433,75.8,0.00,Luzhou
28.945,-13.605,65.4,0.00,Lanzarote
28.95,-95.3,72.2,0.00,Freeport Coast Guard Station
28.95,107.15,57.2,0.00,Jinfo Shan (Mount)
28.967,118.867,65.8,0.21,Qu Xian
29.0,101.5,51.3,0.00,Jiulong
29.033,114.583,66.8,0.06,Xiushui
29.05,100.3,44.9,0.00,Daocheng
29.05,111.683,71.6,0.00,Changde
29.07,-80.92,71.2,0.00,Ponce De Leon Inlet
29.083,-110.95,82.4,0.00,Hermosillo Intl   &
29.083,116.883,69.3,0.08,Gu-Xian-Du
29.15,119.633,64.0,0.08,Jinhua
29.179,75.755,90.3,0.00,Hisar
29.183,-81.048,71.2,1.46,Daytona Beach Intl
29.2,121.95,57.5,0.75,Shipu
29.227,47.969,86.6,0.00,Kuwait Intl
29.237,0.276,76.6,0.00,Timimoun
29.25,88.883,45.9,0.00,Xigaze
29.273,-94.859,71.5,0.00,Scholes Intl At Glston Apt
29.3,47.933,80.0,0.00,Rabyah
29.3,117.2,67.1,0.04,Jingdezhen
29.33,-89.4,87.0,0.00,Boothville
29.333,-89.408,69.9,0.04,Baton Rouge Metro R
29.367,-100.783,73.5,0.00,Laughlin Afb Airport
29.369,-10.18,62.6,0.02,Sidi Ifni
29.378,-100.927,75.6,0.00,Del Rio International Airport
29.383,-98.583,73.7,0.00,Lackland Air Force Base (Kelly Field Annex)
29.383,113.083,67.5,0.12,Yueyang
29.4,110.167,72.1,0.00,Sangzhi
29.417,48.0,87.6,0.00,South Dolphin
29.517,48.6,88.1,0.00,Beacon M28
29.517,103.333,51.3,0.04,Emei Shan
29.517,106.483,73.0,0.00,Chong-Qing
29.533,-98.262,71.0,0.00,Randolph Afb Airport
29.533,109.383,68.4,0.08,Laifeng
29.544,-98.484,75.5,0.00,San Antonio International Airport
29.561,34.96,74.8,0.00,Eilat
29.567,48.2,70.4,0.00,Beacon N6
29.567,94.467,54.7,0.00,Nyingchi
29.583,105.05,75.5,0.00,Neijiang
29.583,111.3,71.1,0.08,Shi-Men
29.583,115.983,53.6,0.26,Lu Shan
29.6,120.817,62.3,0.04,Shengxian
29.612,35.018,74.1,0.00,Aqaba King Hussein Intl
29.617,-95.167,72.0,0.00,Ellington Field Airport
29.626,43.491,73.5,0.00,Rafha
29.633,-83.105,68.9,2.13,Cross City Airport
29.638,-95.282,71.6,0.00,William P Hobby
29.667,91.133,49.5,0.00,Lhasa / Gonggar
29.67,-88.88,69.2,0.00,Main Pass B68
29.692,-82.276,68.3,1.57,Gainesville Rgnl
29.717,113.883,65.5,0.16,Puqi
29.717,118.267,64.0,0.24,Tunxi
29.733,-85.033,69.6,1.54,Apalachicola Muni Airport
29.75,24.533,64.4,0.00,Gighbub
29.767,48.367,69.7,0.00,Bubyan Island
29.785,40.1,65.1,0.00,Al Jouf
29.817,-90.017,71.0,0.12,New Orleans Nas
29.917,121.467,59.9,0.12,Ningbo
29.951,-94.021,72.7,0.00,Southeast Texas Regional Airport
29.98,-95.36,71.4,0.00,G Bush Intercontinental Ap/Houston Ap
29.983,103.0,72.5,0.00,Ya'An
29.997,-90.278,72.0,0.71,Louis Armstrong New Orleans Intl Ap
30.0,99.1,60.1,0.00,Batang
30.0,100.267,42.3,0.00,Litang
30.033,122.117,57.4,0.14,Dinghai
30.05,101.967,59.0,0.00,Kangding
30.067,-85.583,68.1,3.23,Tyndall Afb Airport
30.067,115.333,66.7,3.23,Qizhou
30.1,46.117,83.5,0.00,Busayah
30.117,30.917,64.6,0.00,Cairo West
30.122,31.406,66.9,0.00,Cairo Intl
30.125,-93.228,72.1,0.00,Lake Charles Regional Airport
30.133,-2.167,73.4,0.00,Beni-Abbes
30.133,118.15,47.9,1.14,Huang Shan
30.167,35.783,60.1,0.00,Ma'An
30.2,-97.683,72.0,0.00,Bergstrom Afb/Austi
30.2,110.667,66.2,0.04,Wu-Feng
30.205,-91.988,73.6,0.00,Lafayette Regional Airport
30.217,-81.883,68.6,1.77,Cecil Fld
30.228,120.432,60.3,0.39,Xiaoshan
30.233,-81.667,70.1,1.34,Jacksonville Nas
30.283,109.467,67.6,0.00,Enshi
30.321,-97.76,72.7,0.00,Austin/Mueller Muni
30.333,-81.517,69.9,0.00,Jacksonville/Craig
30.333,76.467,87.3,0.00,Patiala
30.333,112.183,65.9,0.51,Jiangling
30.35,-87.317,68.9,1.61,Pensacola Nas
30.35,119.417,51.3,0.59,Tianmu Shan (Mtns)
30.371,-104.017,68.3,0.00,Marfa Municipal Airport
30.371,48.228,84.8,0.00,Abadan
30.381,-9.546,64.5,0.00,Inezgane
30.383,13.583,80.2,0.00,Gariat El-Sharghia
30.386,130.659,71.6,0.08,Yakushima
30.393,-84.353,68.7,2.40,Tallahassee Regional Airport
30.4,-81.417,69.0,0.47,Mayport Naf
30.417,-88.917,70.2,2.83,Keesler Air Force Base
30.417,-86.683,69.9,0.47,Hurlburt Field Airport
30.483,-86.517,66.8,0.83,Eglin Afb Airport
30.495,-81.694,69.7,0.98,Jacksonville International Airport
30.5,44.533,80.2,0.00,Al-Salman
30.5,101.483,42.2,0.00,Qian-Ning
30.511,-99.766,74.0,0.00,Kimble County Airport
30.533,38.9,85.6,0.00,Maarik
30.537,-91.147,72.5,0.00,Baton Rouge Metro R
30.547,130.95,68.0,0.00,Tanegashima
30.549,47.662,78.8,0.00,Basrah Intl
30.55,81.433,42.8,0.00,T'U-Ko-Erh-Ho-Kung
30.571,2.86,70.8,0.00,El Golea
30.579,103.947,71.6,0.00,Shuangliu
30.589,-96.365,70.9,0.00,Easterwood Fld
30.617,116.967,65.1,0.04,Anqing
30.617,121.083,57.2,0.24,Zha-Pu
30.65,-86.517,68.1,0.00,Duke Fld
30.683,107.8,67.5,0.00,Liangping
30.688,-88.246,68.1,0.20,Mobile Regional Airport
30.717,-87.017,65.7,1.54,Whiting Field Naval Air Station North
30.717,20.167,78.8,0.00,Agedabia
30.717,130.983,65.8,0.16,Tanegashima
30.733,111.367,70.2,0.00,Yichang
30.733,122.45,57.4,0.04,Shengsi
30.75,106.133,73.2,0.00,Gaoping
30.75,115.667,65.3,0.24,Yingshan
30.783,-86.517,66.9,0.02,Bob Sikes Airport
30.783,-83.277,69.0,0.51,Valdosta Regional Airport
30.783,110.267,55.0,0.08,Lu-Cong-Po
30.784,114.208,65.1,0.08,Tianhe
30.82,30.191,77.0,0.00,Jiyanklis New
30.907,41.138,69.8,0.00,Arar
30.939,-6.909,68.0,0.00,Ouarzazate
30.95,88.633,33.5,0.00,Xainza
30.967,-83.2,69.3,0.79,Moody Afb/Valdosta
31.017,46.233,80.4,0.00,Nasiriya
31.017,109.533,66.2,0.20,Fengjie
31.05,-93.183,75.3,0.00,Polk Army Airfield
31.067,-97.833,75.0,0.00,Robert Gray Aff Airport
31.13,-81.37,69.7,0.00,Saint Simon Island Coast Guard S
31.133,-97.717,76.1,0.00,Hood Aaf Airport
31.133,-92.567,76.6,0.00,Claiborne Range  La. (Afs)
31.133,114.95,63.1,0.08,Macheng
31.15,-97.4,75.4,0.00,Draughon Miller Cen
31.15,97.167,51.5,0.00,Qamdo
31.152,-81.391,69.6,0.20,Malcolm Mc Kinnon Airport
31.167,112.633,66.5,0.02,Zhongxiang
31.183,-90.471,70.6,0.00,Mcom/Pike Co/J E Lws Fd Ap
31.198,121.336,59.9,0.08,Hongqiao Intl
31.2,16.583,80.2,0.00,Sirte
31.2,107.5,69.1,0.00,Da Xian
31.236,-94.754,70.2,0.00,Angelina County Airport
31.267,-85.717,65.0,1.73,Cairns Army Airfield (Fort Rucker)
31.267,45.267,81.1,0.00,Samawa
31.267,120.617,60.8,0.08,Suzhou
31.287,34.723,63.2,0.00,Teyman
31.317,-92.55,70.0,0.00,Alexandria Int
31.317,-85.45,64.6,1.14,Dothan Rgnl
31.325,27.222,68.0,0.00,Mersa Matruh
31.333,118.35,63.1,0.71,Wu-Hu
31.352,-100.495,76.5,0.00,San Angelo Regional/Maths Field Ap
31.367,90.017,35.1,0.00,Baingoin
31.368,130.845,64.3,0.00,Kanoya
31.395,-92.291,74.9,0.00,Esler Regional Airport
31.399,-9.683,60.8,0.00,Essaouira / Mogador Intl
31.4,116.333,64.0,0.08,Huoshan
31.417,95.6,46.1,0.00,Dengqen
31.433,119.483,61.8,0.47,Liyang
31.45,104.733,71.6,0.00,Mianyang
31.458,-109.606,66.7,0.00,Bisbee Douglas Intl
31.483,92.067,35.4,0.00,Nagqu
31.506,65.848,80.6,0.00,Kandahar
31.514,10.598,78.8,0.00,Nalut
31.536,-84.194,64.5,0.00,Sw Georgia Regional Arpt
31.536,-82.507,66.8,0.55,Alma/Bacon Co.
31.55,130.55,66.0,0.24,Kagoshima
31.583,105.967,74.2,0.00,Langzhong
31.588,-110.344,71.9,0.00,Sierra Vista Municipal-Libby Aaf Airport
31.607,-8.036,63.1,0.00,Menara
31.617,100.0,45.0,0.00,Garze
31.619,-97.228,73.8,0.00,Waco Regional Airport
31.633,-106.433,70.7,0.00,Ciudad Intl
31.646,-2.27,69.1,0.00,Bechar / Boudghene Ben Ali Lotfi
31.673,6.14,75.2,0.00,Oued Irara / Krim Belkacem
31.693,38.731,62.3,0.00,Turaif
31.71,74.797,88.1,0.00,Amritsar
31.717,113.367,62.2,0.00,Suizhou
31.733,98.567,50.7,0.00,Dege
31.742,118.862,63.0,0.67,Lukou
31.767,119.95,61.2,0.00,Changzhou
31.78,-103.202,74.8,0.00,Winkler County Airport
31.78,117.298,62.1,0.67,Luogang / Xinqiao
31.803,130.719,65.6,0.00,Kagoshima
31.811,-106.376,77.2,0.00,El Paso International Airport
31.831,-104.809,65.2,0.00,Guadalupe Pass Amos
31.85,47.167,81.6,0.00,Amarah
31.85,102.7,41.3,0.00,Ma-Tang
31.861,-86.012,63.0,0.28,Troy Municipal Airport
31.865,35.219,54.3,0.00,Jerusalem
31.877,131.449,66.1,0.00,Miyazaki
31.883,-81.567,66.5,0.28,Ft Stewart/Wright
31.883,93.783,40.5,0.00,Sog Xian
31.9,102.233,50.9,0.00,Barkam
31.933,131.417,65.8,0.24,Miyazaki
31.948,-102.209,76.0,0.00,Midland International Airport
31.948,-4.398,70.1,0.00,Moulay Ali Cherif
31.95,44.317,76.5,0.00,Najaf
31.95,44.95,76.0,0.00,Diwaniya
31.973,35.992,56.3,0.00,Marka Intl
31.983,128.35,62.2,0.04,Meshima
32.0,-75.083,67.8,0.00,S Hatteras - 250 Nm East Of Charleston
32.009,-81.146,68.2,0.51,Hunter Aaf
32.011,34.887,61.3,0.00,Ben Gurion
32.033,42.283,75.2,0.00,Nukheb
32.033,110.767,63.6,0.00,Fangxian
32.067,108.033,66.7,0.00,Wanyuan
32.067,121.6,57.2,0.00,Lusi
32.084,131.451,64.6,0.00,Nyutabaru
32.097,20.269,73.8,0.00,Benina Airport
32.1,34.783,62.8,0.00,Sde-Dov (Tel-Aviv)
32.1,120.867,59.9,0.00,Nantong/Jinsha
32.131,-110.955,71.2,0.00,Tucson International Airport
32.131,-81.202,67.7,1.10,Savannah/Hilton Head Intl Airport
32.133,46.033,78.8,0.00,Kut-Al-Hai
32.133,114.05,59.7,0.00,Xinyang
32.15,112.667,60.3,0.08,Zaoyang
32.161,37.149,61.3,0.00,Prince Hasan
32.167,-110.883,71.3,0.00,Davis-Monthan Afb Airport
32.167,65.1,78.8,0.00,Kajaki
32.167,115.617,59.3,0.28,Gushi
32.2,68.35,64.8,0.00,Wazakhaw
32.25,-107.717,70.5,0.00,Deming Muni
32.25,96.217,47.3,0.00,Nangqen
32.283,-9.233,60.0,0.00,Safi
32.283,100.333,35.9,0.00,Sertar
32.3,-86.408,65.6,2.05,Montgomery Rgnl (Dannelly Fd) Ap
32.3,84.05,34.2,0.00,Lumaringbo
32.306,10.382,79.3,0.00,Remada
32.321,-90.078,68.3,0.00,Jackson International Airport
32.334,-104.258,75.1,0.00,Cavern City Air Trml Arpt
32.335,-88.744,67.0,0.31,Key Field Airport
32.35,-85.0,65.0,1.22,Lawson Aaf Airport
32.354,-95.403,71.6,0.00,Tyler Pounds Regional Arpt
32.367,-64.683,69.0,0.00,Naval Atlantic Meterology & Oceanography Facility
32.367,-6.4,57.2,0.00,Beni-Mellal
32.367,62.183,89.2,0.00,Farah
32.383,-86.35,64.6,1.46,Maxwell Afb Airport
32.384,3.794,68.6,0.00,Noumerat Moufdi Zakaria
32.385,-94.712,71.7,0.00,Longview
32.411,-99.682,77.6,0.00,Abilene Regional Airport
32.417,104.517,69.3,0.00,Pingwu
32.433,-99.85,77.4,0.00,Abilene Dyess Afb
32.433,111.733,61.3,0.02,Laohekou
32.447,-93.824,72.0,0.00,Shreveport Regional Airport
32.483,-80.717,68.1,0.08,Beaufort Mcas
32.5,-93.667,69.4,0.00,Barksdale Air Force Base
32.5,80.083,36.5,0.00,Shiquanhe
32.516,-92.041,70.1,0.00,Monroe Regional Airport
32.516,-84.942,65.4,0.87,Columbus Metro Airport
32.533,-116.983,60.8,0.00,Tijuana
32.539,38.195,61.2,0.00,H4
32.55,-88.567,65.8,0.35,Meridian Nas/Mc Cain Fd Ap
32.55,35.85,57.9,0.00,Irbid (Met)
32.555,12.056,77.0,0.00,Zuara
32.567,-117.117,62.2,0.00,Naval Auxiliary Landing Fd
32.567,44.05,76.1,0.00,Kerbela
32.583,116.783,63.9,0.00,Shouxian/Shouyang
32.633,-115.217,84.7,0.00,Mexicali
32.633,-83.6,66.0,0.55,Robins Afb Airport
32.65,-114.617,77.2,0.00,Yuma Mcas
32.664,13.159,75.3,0.00,Tripoli Intl
32.666,128.833,63.8,0.00,Fukue
32.667,-114.6,76.7,0.00,Yuma Marine Corps Air Station/Yuma Intl Airport
32.667,35.183,60.2,0.00,Ramat-David
32.667,103.6,47.3,0.00,Songpan
32.683,-16.767,62.4,0.00,Funchal/S.Catarina
32.683,-4.733,59.0,0.00,Midelt
32.685,-83.653,64.6,0.47,Middle Georgia Regional Airport
32.693,-103.213,77.7,0.00,Lea County Regional Airport
32.7,-117.2,63.2,0.00,North Island Nas
32.7,128.833,59.9,0.00,Fukue
32.717,38.733,62.2,0.00,Toraybeel
32.717,109.033,67.6,0.04,Ankang
32.717,133.017,65.3,0.31,Shimizu
32.733,-96.967,74.7,0.00,Naval Air Station Operations
32.733,129.867,63.5,1.38,Nagasaki
32.734,-117.183,64.5,0.00,San Diego International Airport
32.75,-118.417,54.9,0.00,Long Beach
32.751,51.862,69.1,0.00,Esfahan Shahid Beheshti Intl
32.767,-97.45,73.3,0.00,Fort Worth Naval Air Station Jrb/Carswell Field
32.782,-98.06,77.5,0.00,Mineral Wells Airport
32.783,119.45,62.6,0.00,Gaoyou
32.8,21.883,66.7,0.00,Shahat
32.8,110.8,67.1,0.00,Yun-Xian
32.817,-117.133,61.7,0.00,San Diego/Montgomer
32.817,130.7,66.2,0.39,Kumamoto
32.819,-97.361,76.4,0.00,Fort Worth Meacham
32.834,-115.579,73.9,0.00,Imperial Co
32.837,130.855,65.5,0.00,Kumamoto
32.85,-106.1,70.1,0.00,Holloman Afb
32.85,-79.95,67.9,0.35,Charleston Nas
32.85,117.3,63.5,0.94,Bengbu
32.85,120.283,59.9,0.00,Dongtai
32.852,-96.856,73.8,0.00,Dallas Love Field Airport
32.867,-117.133,59.6,0.00,San Diego Miramar Nas
32.867,115.733,57.9,0.28,Fuyang
32.883,-112.717,81.2,0.00,Gila Bend Af Aux
32.898,-97.019,72.6,0.00,Dallas/Ft Worth International Ap
32.899,-80.041,67.4,0.08,Charleston Afb/International Airport
32.9,95.3,41.8,0.00,Zadoi
32.917,129.914,62.7,0.00,Nagasaki
32.933,113.917,57.7,0.00,Zhumadian
32.967,35.5,53.6,0.00,Har-Knaan (Zefat)
33.017,96.95,46.2,0.00,Yushu
33.023,-118.588,60.6,0.00,Nalf/F. Sherman Fld Arpt
33.033,40.283,60.5,0.00,Rutbah
33.067,107.033,66.7,0.08,Hanzhong
33.068,6.089,73.4,0.00,Sidi Mahdi / Nesrat Hachani
33.073,-16.35,59.9,0.00,Porto Santo
33.1,112.483,57.0,0.00,Nanyang
33.115,139.786,66.0,0.00,Hachijojima
33.117,139.783,66.7,0.04,Hachijojima
33.2,126.267,59.0,0.00,Mosulpo (Kor-Afb)
33.212,-87.616,67.4,0.00,Tuscaloosa Municipal Arpt
33.221,-92.814,69.6,0.00,S. Ar Rgnl At Gdwin Fld Ap
33.233,131.617,64.6,0.02,Oita
33.237,-107.268,70.8,0.00,Trh Or Conseqces Muni Arpt
33.24,-119.458,56.0,0.00,San Nicolas Island Naval Outlying Field
33.25,126.567,61.0,0.00,Seogwipo
33.25,134.183,62.2,0.63,Murotomisaki
33.267,44.233,71.7,0.00,Baghdad Intl Airport
33.3,-117.35,70.9,0.00,Marine Corps Air Station
33.3,-111.667,76.6,0.00,Williams Gateway Airport
33.308,-104.508,73.2,0.00,Roswell International Air Center Ap
33.317,130.417,66.7,0.00,Metabaru (Jasdf)
33.333,118.667,63.1,0.00,Hongze Hu (Lake)
33.35,10.483,72.0,0.00,Medenine
33.364,-81.963,63.3,0.43,Augusta Regional At Bush Field Ap
33.367,-7.59,57.7,0.00,Mohammed V
33.4,104.917,69.4,0.00,Wudu
33.412,36.516,56.1,0.00,Damascus Intl
33.417,109.15,60.5,0.12,Chen-An
33.428,-112.004,76.5,0.00,Phoenix Sky Harbor Intl Airport
33.45,108.25,64.1,0.08,Wen-Huang-Ping
33.45,135.75,65.7,1.26,Shionomisaki
33.456,-93.988,72.0,0.00,Texarkana Regional Airport-Webb Field
33.467,101.483,38.0,0.00,Jigzhi
33.479,131.737,64.2,0.00,Oita
33.483,-90.985,73.7,0.00,Mid Delta Rgnl
33.483,38.667,63.7,0.00,Jabal Ettanf
33.496,-90.087,69.6,0.00,Greenwood Leflore
33.511,126.493,60.1,0.00,Jeju Intl
33.517,126.533,60.1,0.00,Jeju
33.533,65.267,60.5,0.00,Chakhcharan
33.533,68.417,67.6,0.00,Ghazni
33.533,110.883,63.5,0.00,Shang-Nan
33.546,133.669,69.3,0.00,Kochi
33.55,-112.367,73.0,0.00,Luke Afb Airport
33.557,-7.66,59.7,0.00,Anfa
33.566,-86.745,65.2,0.75,Birmingham International Airport
33.567,133.55,70.2,0.39,Kochi
33.583,102.967,40.5,0.00,Ruo'Ergai
33.583,130.383,59.2,0.00,Fukuoka
33.586,130.451,60.2,0.00,Fukuoka
33.587,-85.856,63.5,0.28,Anniston Metropolitan Arpt
33.6,-102.05,73.0,0.00,Reese Afb/Lubbock
33.6,119.033,60.6,0.00,Qingjiang
33.617,73.099,84.2,0.00,Chaklala
33.619,-114.714,78.5,0.00,Blythe Airport
33.627,-116.159,76.7,0.00,Desert Resorts Rgnl Arpt
33.63,-84.442,64.8,0.47,Hartsfield-Jackson Atlanta Intl Ap
33.633,-95.45,76.2,0.00,Cox Fld
33.65,-88.45,66.7,0.31,Columbus Afb Airport
33.662,135.364,69.2,0.00,Nanki Shirahama
33.666,-101.823,71.8,0.00,Lubbock International Airport
33.667,-117.733,59.0,0.00,El Toro(Usmc)
33.68,-117.866,66.5,0.00,J. Wayne Apt-Orange Co Apt
33.683,-78.933,69.9,0.00,Myrtle Beach Intl Airport
33.685,131.04,60.0,0.00,Tsuiki
33.7,-117.833,62.3,0.00,Tustin Mcaf
33.717,1.083,47.9,0.00,El-Bayadh
33.749,129.785,57.7,0.00,Iki
33.75,99.65,37.2,0.00,Darlag
33.75,105.75,69.4,0.08,Cheng-Xian
33.75,120.3,56.8,0.00,Sheyang
33.767,-118.167,62.7,0.00,Long Beach
33.783,41.633,69.8,0.00,H1
33.783,114.517,54.6,0.28,Xihua
33.783,115.733,55.9,0.00,Boxian
33.8,97.133,33.5,0.00,Qingshui-He
33.812,-118.146,64.5,0.00,Long Beach / Daugherty Field / Airport
33.816,-78.72,70.4,0.00,Grand Strand Airport
33.821,35.488,61.8,0.00,Rafic Hariri Intl
33.827,132.7,62.5,0.00,Matsuyama
33.833,-116.5,83.5,0.00,Palm Springs Intl
33.836,130.947,64.6,0.00,Kitakyushu
33.85,132.783,63.3,0.24,Matsuyama
33.875,10.775,66.6,0.00,Zarzis / Djerba
33.877,10.103,68.7,0.00,Gabes / Matmata
33.879,-5.515,54.0,0.00,Bassatine
33.883,130.653,58.9,0.00,Ashiya
33.9,-117.25,59.7,0.00,March Air Reserve Base
33.917,-84.517,63.6,0.04,Dobbins Air Reserve Base Airport
33.921,-80.801,66.6,0.08,Mc Entire Jngb
33.927,-4.978,54.6,0.00,Saiss
33.93,131.279,66.4,0.00,Yamaguchi Ube
33.933,-116.967,66.0,0.00,Beaumont
33.938,-118.389,60.8,0.00,Los Angeles International Airport
33.94,8.111,73.9,0.00,Nefta
33.942,-81.118,64.2,0.12,Columbia Metropolitan Airport
33.948,-83.328,63.9,0.16,Athens/Ben Epps Airport
33.95,130.933,61.7,0.00,Shimonoseki
33.967,-80.467,66.2,0.04,Shaw Air Force Base
33.967,113.217,54.1,0.02,Jiaxian
33.979,-98.493,75.1,0.00,Sheppard Afb/Wichita Falls Muni Ap
34.0,113.967,55.9,0.00,Xuchang
34.0,134.633,63.1,0.00,Komatsujima (Jasdf)
34.02,-119.75,57.3,0.00,Santa Cruz Island
34.033,36.717,48.2,0.00,Nabk
34.035,131.549,63.3,0.00,Hofu
34.051,-6.752,57.4,0.00,Rabat Sale Intl
34.067,-117.65,63.9,0.00,Ontario
34.067,134.567,64.4,0.00,Tokushima
34.067,136.2,66.9,0.24,Owase
34.074,139.56,65.4,0.00,Miyakejima
34.083,74.833,76.3,0.00,Srinagar
34.083,111.067,56.3,0.08,Lushi
34.095,-117.235,64.0,0.00,San Bernardino International Airport
34.1,64.3,61.7,0.00,Shahrak
34.1,102.617,42.8,0.00,Lang-Mu-Si
34.117,-119.117,57.4,0.08,Point Mugu
34.117,139.517,65.8,0.51,Miyakejima
34.133,42.35,68.3,0.00,Hadithah
34.133,95.783,38.2,0.00,Qumarleb
34.133,134.607,62.7,0.00,Tokushima
34.15,132.233,64.7,0.00,Iwakuni
34.18,-91.934,75.8,0.00,Grider Field Airport
34.188,-79.731,65.0,0.00,Florence Regional Airport
34.198,129.292,57.7,0.00,Izuhara
34.201,-118.358,65.3,0.00,Burbank-Glendale-Pasa Arpt
34.21,-118.489,63.7,0.20,Van Nuys Airport
34.214,134.016,66.6,0.00,Takamatsu
34.217,-4.0,55.7,0.00,Taza
34.217,92.433,35.8,0.00,Tuotuohe
34.233,-118.067,54.2,0.00,Mount Wilson
34.233,135.167,65.8,0.35,Wakayama
34.262,-88.771,68.2,0.00,Tupelo C D Lemons Arpt
34.268,-77.9,68.3,0.00,Wilmington New Hanover County
34.283,117.15,62.4,0.00,Xuzhou
34.3,-116.167,71.6,0.00,Twentynine Palms Naas
34.3,-97.017,73.7,0.00,Ardmore Municipal
34.3,-6.6,59.9,0.00,Kenitra (Rmafb)
34.3,129.3,57.4,0.00,Tsushima
34.317,134.05,63.5,0.28,Takamatsu
34.348,-85.161,60.0,0.01,Richard B Russell Airport
34.35,45.383,72.3,0.00,Khanaqin
34.35,107.133,66.2,0.20,Baoji
34.367,41.95,65.5,0.00,Anah
34.383,-103.317,65.0,0.00,Cannon Afb Airport
34.383,67.033,54.5,0.00,Pan Jao
34.4,70.499,85.6,0.00,Jalalabad
34.4,132.467,64.8,0.24,Hiroshima
34.417,40.917,66.7,0.00,Abukmal
34.417,116.333,62.2,0.00,Tang-Shan
34.422,8.823,67.7,0.00,Gafsa
34.426,-119.843,59.5,0.00,Santa Barbara Municipal Airport
34.427,-100.283,71.8,0.00,Childress Municipal Ap
34.436,132.919,66.3,0.00,Hiroshima
34.447,108.752,62.2,0.08,Xianyang
34.45,35.8,62.6,0.00,Tripoli
34.467,-93.083,72.8,0.00,Memorial Fld
34.483,110.083,42.5,0.04,Hua Shan
34.498,-82.71,64.6,0.00,Anderson Rgnl
34.52,113.841,50.5,0.35,Xinzheng
34.533,136.683,69.0,0.00,Akeno (Jasdf)
34.566,69.212,66.9,0.00,Kabul Intl
34.583,-117.383,60.5,0.00,Southern California Logistics Airport
34.583,105.75,63.4,0.00,Tianshui
34.59,32.988,62.2,0.00,Akrotiri
34.596,135.603,69.1,0.00,Yao
34.6,138.217,63.7,0.00,Omaezaki
34.644,-86.787,63.3,0.16,Huntsville Intl/C.T.Jones Field Airport
34.65,-99.267,67.9,0.00,Altus Afb Airport
34.65,-98.4,70.1,0.00,Henry Post Aaf Airport
34.652,-112.421,59.5,0.00,Prescott Municipal Ap
34.667,112.417,54.5,0.16,Luo-Yang
34.683,-94.617,64.4,0.00,Page  Ok.
34.683,3.25,51.8,0.00,Djelfa/Tletsi
34.683,135.517,64.6,0.63,Osaka
34.7,135.217,64.0,0.87,Kobe
34.708,-77.44,68.9,0.00,Jacksonville
34.717,104.883,52.7,0.00,Wu-Shan
34.718,10.691,66.9,0.00,Thyna
34.718,32.486,63.1,0.00,Pafos Intl
34.727,-92.239,68.4,0.00,Little Rock Adams Field
34.733,101.6,44.9,0.00,Henan
34.733,127.75,57.9,0.00,Yeosu
34.741,-118.212,61.8,0.00,General William J. Fox Airfield Airport
34.744,-118.724,51.7,0.00,Sandberg
34.744,-87.6,65.9,0.24,North West Alabama Regional Airport
34.75,-120.567,59.8,0.00,Vandenberg Afb
34.75,114.417,48.7,0.00,Kaifeng
34.75,137.703,66.5,0.00,Hamamatsu
34.75,139.367,60.6,0.04,Oshima
34.757,133.855,69.6,0.00,Okayama
34.768,-114.619,78.3,0.00,Needles Airport
34.782,139.36,63.8,0.00,Oshima
34.786,135.438,64.0,0.00,Osaka Intl
34.787,-1.924,55.6,0.00,Angads
34.793,5.738,73.4,0.00,Biskra / Mohamed Khider
34.8,107.867,59.0,0.00,Cui-Mu
34.8,138.183,54.0,0.00,Shizuoka Airport
34.813,138.298,65.3,0.00,Shizuhama
34.817,36.133,59.2,0.00,Safita
34.817,126.383,58.1,0.00,Mokpo
34.833,-92.25,68.5,0.00,Little Rock Wsfo
34.85,119.133,55.4,0.00,Ganyu
34.85,128.433,59.5,0.00,Tongyeong
34.854,-116.786,68.4,0.00,Barstow-Daggett Airport
34.875,33.625,61.8,0.00,Larnaka Intl
34.882,-95.783,73.1,0.00,Mc Alester Regional Arpt
34.899,-120.449,61.1,0.00,Santa Maria Pub/Capt G A Hancock Ap
34.9,-117.867,64.6,0.00,Edwards Air Force Base
34.9,-76.883,65.9,0.00,Cherry Point Mcas
34.9,43.533,75.2,0.00,Baiji
34.9,132.067,57.0,0.12,Hamada
34.906,-82.213,63.5,0.20,Greenville-Spartanburg Intl Airport
34.917,-92.15,67.0,0.00,Little Rock Afb Airport
34.917,-81.95,64.7,0.00,Spartanburg Downtown Memorial Airport
34.917,98.217,34.7,0.00,Madoi
34.983,-78.883,65.8,0.00,Fayetteville Rgnl G
34.983,139.867,64.0,0.08,Tateyama
34.987,139.829,63.2,0.00,Tateyama
34.989,-99.053,69.0,0.00,Hobart Municipal Airport
35.0,9.483,64.0,0.00,Sidi Bouzid
35.0,102.9,46.2,0.00,Hezuo
35.017,-1.333,55.4,0.00,Tlemcen/Zenata
35.017,135.733,64.4,0.91,Kyoto
35.028,-110.721,62.5,0.00,Winslow-Lindbergh Regional Airport
35.033,101.467,40.1,0.00,Son-Ag
35.034,-85.2,66.4,0.02,Lovell Field Airport
35.042,-106.616,68.3,0.00,Albuquerque Intl Sunport Airport
35.05,118.35,59.0,0.00,Linyi
35.056,-89.987,70.3,0.51,Memphis International Airport
35.068,-77.048,67.1,0.00,Craven County Reg Airport
35.083,128.083,62.1,0.00,Sacheon Ab
35.1,129.033,56.5,0.00,Busan
35.117,36.75,59.5,0.00,Hama
35.117,111.067,55.9,0.12,Yuncheng
35.12,-75.98,66.2,0.00,Oracoke Coast Guard Station
35.126,126.809,63.0,0.00,Gwangju
35.133,-78.933,65.8,0.00,Simmons Aaf Airport
35.133,128.7,60.6,0.00,Chinhae (Kor-Army)
35.144,-111.666,50.9,0.00,Flagstaff Pulliam Arpt
35.167,109.05,58.2,0.00,Tongchuan
35.167,126.9,63.1,0.00,Gwangju
35.167,128.033,61.5,0.00,Jinju
35.167,136.967,65.5,0.71,Nagoya
35.174,-79.009,67.5,0.00,Pope Afb Airport
35.177,-3.84,61.1,0.00,Cherif El Idrissi
35.18,128.938,60.4,0.00,Gimhae Intl
35.182,-103.603,65.6,0.00,Tucumcari Municipal Arpt
35.217,93.083,34.6,0.00,Wudaoliang
35.224,-80.955,63.7,0.00,Charlotte/Douglas International Ap
35.23,-101.704,64.7,0.00,Amarillo Rick Husband Intl Airport
35.233,-75.622,65.7,0.00,Cape Hatteras
35.25,115.433,49.1,0.83,Heze/Caozhou
35.255,136.924,65.5,0.00,Nagoya
35.259,-113.95,61.5,0.00,Kingman
35.267,-117.433,70.3,0.00,Cuddleback Gunnery
35.267,100.65,44.8,0.00,Tongde
35.28,-2.956,63.3,0.00,Melilla
35.283,62.35,71.1,0.00,Gyshgy
35.283,139.667,63.6,0.04,Yokosuka Naval Station
35.285,40.176,64.8,0.00,Deir Zzor
35.3,69.067,50.0,0.00,South-Salang
35.317,-77.633,71.4,0.00,Kinston Regional Jetport At Stalling Field
35.317,69.017,44.6,0.00,North-Salang
35.317,138.867,62.4,0.00,Fuji (Jasdf)
35.333,-99.2,69.9,0.00,Clinton-Sherman
35.333,-94.363,69.1,0.00,Fort Smith Regional Airport
35.333,104.0,55.0,0.00,Lintao
35.34,25.18,61.5,0.00,Nikos Kazantzakis
35.344,-77.965,65.7,0.00,Seymour-Johnson Afb Airport
35.35,-89.867,67.2,0.79,Memphis Nas
35.383,105.0,47.2,0.04,Huajialing
35.389,-97.601,69.6,0.00,Will Rogers World Airport
35.394,136.87,65.2,0.00,Gifu
35.4,139.917,65.9,0.00,Kisarazu
35.414,132.89,56.5,0.00,Izumo
35.417,-97.383,71.9,0.00,Tinker Afb Airport
35.432,-82.538,61.2,0.00,Asheville Regional Airport
35.432,8.121,53.2,0.00,Cheikh Larbi Tebessi
35.433,119.533,53.6,0.00,Rizhao
35.433,126.433,59.3,0.00,Yong Jung-Ri
35.433,139.65,64.9,0.00,Yokohama
35.434,-119.054,64.6,0.00,Meadows Field Airport
35.45,133.067,54.7,0.94,Matsue
35.45,135.317,55.0,0.35,Maizuru
35.45,139.45,66.4,0.00,Atsugi Nas
35.469,44.349,69.1,0.00,Kirkuk Ab
35.483,112.4,52.3,0.00,Yangcheng
35.483,134.233,55.0,0.43,Tottori
35.492,133.236,54.9,0.00,Miho
35.498,12.618,62.5,0.00,Lampedusa
35.514,-108.794,57.3,0.00,Gallup Municipal Airport
35.514,139.394,68.7,0.00,Kastner Aaf / Camp Zama Japan
35.517,137.817,64.9,0.47,Iida
35.53,134.167,55.9,0.00,Tottori
35.532,24.15,59.2,0.00,Souda
35.533,24.15,62.9,0.00,Souda Bay Crete
35.533,35.767,62.4,0.00,Lattakia
35.55,8.683,47.2,0.00,Thala
35.55,45.45,64.2,0.00,Sulymaniyah
35.55,106.667,56.5,0.00,Pingliang
35.55,118.75,58.5,0.00,Juxian
35.552,139.78,64.3,0.00,Tokyo Intl
35.567,116.85,58.7,0.00,Yanzhou
35.593,-88.917,65.8,0.16,Mckellar-Sipes Rgnl Arpt
35.593,129.352,57.9,0.00,Ulsan
35.594,-5.32,61.2,0.00,Saniat Rmel
35.617,-106.089,64.9,0.00,Santa Fe Municipal Airport
35.624,-0.621,60.8,0.00,Es Senia / Ahmed Benbella
35.654,-105.142,57.9,0.00,Las Vegas Municipal Arpt
35.667,-75.9,73.7,0.00,Dare County Gunnery Range  Nc.
35.667,10.1,64.2,0.00,Kairouan
35.667,10.75,62.3,0.00,Monastir-Skanes
35.667,138.55,69.4,0.00,Kofu
35.67,-121.28,57.2,0.00,Point Piedras Blanca
35.67,-120.628,59.8,0.00,Paso Robles Municipal Arpt
35.683,139.767,66.4,0.00,Tokyo
35.688,-117.693,67.8,0.00,China Lake
35.689,51.313,61.8,0.00,Mehrabad Intl
35.7,139.4,71.3,0.00,Tachikawa (Jasdf)
35.727,-5.917,57.5,0.00,Tanger Ibn Batouta Intl
35.733,107.633,54.9,0.00,Xifengzhen
35.733,140.85,63.9,0.02,Choshi
35.743,-81.382,64.7,0.00,Hickory Rgnl
35.748,139.348,64.7,0.00,Yokota Ab
35.75,99.983,48.7,0.00,Xinghai
35.752,6.309,52.9,0.00,Batna / Mostepha Ben Boulaid
35.765,140.386,64.2,0.00,Narita Intl
35.799,140.011,64.4,0.00,Shimofusa
35.818,-83.986,68.0,0.00,Mc Ghee Tyson Airport
35.833,-90.633,69.0,0.28,Jonesboro Muni
35.833,127.117,61.5,0.00,Jeonju
35.842,139.411,65.2,0.00,Iruma
35.85,128.583,65.9,0.47,Camp Walker (H-805)
35.857,14.478,63.0,0.00,Luqa
35.883,0.117,62.2,0.00,Mostaganem
35.883,128.617,61.0,0.00,Taegu Acc (Kor-Afb)
35.892,-78.782,64.4,0.00,Raleigh-Durham International Ap
35.894,128.659,61.0,0.00,Daegu Ab
35.9,-82.817,65.4,0.00,Hot Springs (Awrs)
35.917,126.617,57.6,0.00,Kunsan Ab
35.933,39.017,66.2,0.00,Raqqa
35.95,-112.15,56.7,0.00,Grand Canyon Park
35.95,62.917,73.4,0.00,Tagtabazar
35.951,-85.081,64.5,0.02,Crossville Mem Whit
35.967,-89.95,67.8,0.63,Arkansas International Airport
35.967,105.717,50.9,0.00,Xi-Ji
35.967,120.483,51.8,0.00,Flashing Light
35.988,129.42,55.5,0.00,Pohang Gyeongju
36.0,-121.233,66.0,0.00,Jolon Hunter Liggett Mil Res
36.0,-89.409,67.1,0.35,Dyersburg Municipal Arpt
36.0,-5.6,58.1,0.00,Tarifa
36.002,126.763,55.8,0.00,Gunsan
36.01,-94.169,66.4,0.00,Drake Field Airport
36.017,-102.55,61.5,0.00,Dalhart Municipal
36.017,106.283,54.1,0.00,Guyuan
36.033,129.383,56.1,0.00,Pohang
36.033,140.2,68.8,0.00,Kasumigaura (Jasdf)
36.05,103.883,61.5,0.00,Lanzhou
36.05,114.133,44.9,0.28,Anyang
36.072,-115.163,68.9,0.00,Mccarran International Airport
36.097,-79.943,63.6,0.01,Piedmont Triad International Airport
36.117,128.317,60.5,0.00,Gumi
36.119,-86.689,65.1,0.12,Nashville International Airport
36.151,-5.35,63.1,0.00,Gibraltar
36.181,37.224,62.2,0.00,Aleppo Intl
36.181,140.415,62.3,0.00,Hyakuri
36.183,118.15,55.4,0.00,Yiyuan
36.199,-95.887,72.7,0.00,Tulsa International Airport
36.2,133.333,52.5,0.00,Saigo
36.213,1.332,63.7,0.00,Ech Cheliff / Chlef
36.217,127.983,61.7,0.00,Chupungnyeong
36.233,115.667,47.9,0.63,Xinxian
36.25,117.1,42.3,0.00,Tai Shan
36.25,137.967,61.3,0.04,Matsumoto
36.261,-76.175,68.9,0.04,Monroe Co
36.266,120.374,53.8,0.00,Liuting / Qingdao Intl
36.267,-93.157,65.8,0.12,Boone Co
36.267,121.383,51.8,0.00,Qian-Li Island
36.274,23.017,56.5,0.00,Kithira / Alexandros Aristotelous Onassis
36.276,6.62,52.1,0.00,Mohamed Boudiaf Intl
36.297,-99.769,64.7,0.00,Gage/Shattuck
36.3,98.1,49.1,0.00,Doulan
36.3,127.4,61.9,0.00,Taejon
36.306,43.147,68.9,0.00,Mosul
36.333,-119.95,63.6,0.00,Naval Air Station
36.333,-97.917,64.8,0.00,Vance Afb
36.35,100.783,51.8,0.00,Gonghe
36.383,28.117,60.7,0.00,Rhodes/Paradissi  &
36.383,33.933,62.6,0.00,Silifke
36.383,44.2,61.7,0.00,Sallahdeen
36.383,140.467,63.5,0.00,Mito
36.395,136.407,54.3,0.00,Komatsu
36.4,139.067,68.5,0.00,Maebashi
36.405,28.086,60.8,0.00,Diagoras
36.417,94.9,57.4,0.00,Golmud
36.417,128.167,68.3,0.00,Sangju
36.449,-103.154,58.9,0.00,Clayton Municipal Airpark Airport
36.45,96.467,56.1,0.00,Nuo-Mu-Hong
36.473,-82.404,63.2,0.00,Bristol Tri City Airport
36.483,8.8,58.3,0.16,Jendouba
36.5,40.75,58.8,0.00,Hassakah
36.515,139.871,68.4,0.00,Utsunomiya
36.517,126.317,63.5,0.00,Anmyeondo
36.533,-115.567,71.5,0.00,Indian Springs Range
36.533,61.217,67.1,0.00,Saragt
36.55,139.867,65.8,0.00,Utsunomiya
36.573,-79.335,66.2,0.00,Danville Regional Airport
36.583,-121.833,59.2,0.00,Monterey Peninsula
36.583,104.683,65.0,0.00,Jingyuan
36.583,136.633,54.7,0.00,Kanazawa
36.6,109.5,52.1,0.02,Yan An
36.617,101.767,54.3,0.00,Xining / Caojiapu
36.621,-116.028,79.9,0.00,Desert Rock Airport
36.632,128.355,62.8,0.00,Yecheon
36.633,127.45,61.7,0.00,Cheongju
36.648,137.188,55.2,0.00,Toyama
36.65,-6.35,56.9,0.00,Rota Naval Air Station
36.664,-121.608,59.8,0.00,Salinas Muni
36.667,-87.483,66.9,0.16,Campbell Aaf Airport
36.667,68.917,74.0,0.00,Kunduz
36.667,138.2,58.6,0.00,Nagano
36.675,-4.499,62.2,0.00,Malaga
36.683,-121.767,61.1,0.00,Fritzsche Aaf
36.683,15.133,62.6,0.00,Cozzo Spadaro
36.683,116.983,49.3,0.00,Jinan/Tsinan
36.691,3.215,57.7,0.00,Houari Boumediene
36.7,38.95,62.6,0.00,Tel Abiadh
36.7,110.933,49.5,0.04,Xi-Xian
36.707,67.21,73.4,0.00,Mazar I Sharif / Mawlana Jalaluddin Muhammad Balkhi
36.712,5.07,59.0,0.00,Soummam Abane Ramdane
36.717,127.499,61.1,0.00,Cheongju Intl
36.717,137.2,52.7,0.12,Toyama
36.733,-91.85,64.0,0.08,West Plains  Mo
36.733,24.433,59.7,0.00,Milos
36.737,-97.102,67.5,0.00,Ponca City Muni
36.744,-108.229,60.0,0.00,Four Corners Regional Arpt
36.745,-6.06,58.9,0.00,Jerez
36.75,-122.42,51.7,0.00,Monterey - 27Nm West Of Monterey Bay  Ca
36.767,-96.017,76.0,0.00,Bartlesville Muni
36.767,107.2,55.4,0.00,Hung-Te
36.767,119.183,54.3,0.00,Weifang
36.767,121.167,52.1,0.00,Haiyang
36.767,126.5,58.6,0.00,Seosan
36.78,-119.719,66.4,0.00,Fresno Yosemite International Airport
36.783,99.083,46.1,0.00,Cha-Ka
36.817,-76.033,63.5,0.00,Oceana Nas
36.817,11.969,59.5,0.00,Pantelleria
36.822,7.809,60.0,0.00,Annaba / Rabah Bitat
36.833,21.7,58.1,0.00,Methoni
36.844,-2.37,62.8,0.00,Almeria
36.85,11.083,58.8,0.00,Kelibia
36.851,10.227,58.1,0.02,Carthage
36.867,81.7,70.9,0.00,Yutian/Keriya
36.867,118.333,49.1,0.00,Lin-Zi
36.899,30.8,59.2,0.00,Antalya
36.9,-75.72,57.2,0.00,Norfolk / Chesapeak
36.903,-76.192,65.8,0.01,Norfolk International Airport
36.917,-94.017,66.0,0.01,Monette
36.93,-76.0,60.9,0.00,Cape Henry Coast Guard Light Sta
36.933,-111.45,61.0,0.00,Page Muni (Amos)
36.933,6.95,60.4,0.00,Skikda
36.937,-76.289,63.1,0.00,Norfolk Nas
36.95,140.9,63.5,0.00,Onahama
36.965,-86.424,66.7,0.04,Bow Grn-Warren Co. Rgnl Ap
36.967,127.033,59.1,0.00,A 511 / Desiderio Aaf-Pyeongtaek / Camp Humphreys Rok
36.971,-25.171,59.4,0.00,Santa Maria
36.98,8.877,59.5,0.04,Tabarka 7 Novembre / Ain Draham
36.983,68.033,74.0,0.00,Ajvadz
36.983,120.65,54.1,0.00,Laiyang
37.0,-101.88,64.4,0.00,Elkhart / Elkhart-Morton County
37.0,-8.95,55.8,0.00,Sagres
37.0,35.417,62.9,0.00,Incirlik Ab
37.0,129.417,53.4,0.00,Uljin
37.014,-7.966,57.1,0.00,Faro
37.021,41.191,55.6,0.12,Kamishly
37.033,-100.95,58.0,0.00,Liberal Muni
37.033,111.917,45.1,0.12,Jiexiu
37.056,-88.774,66.2,0.39,Paducah Barkley Field
37.067,82.717,73.0,0.00,Minfeng
37.067,92.867,55.7,0.00,T'A-Erh-Ting
37.067,112.983,41.0,0.04,Yushe
37.083,-76.36,63.0,0.08,Langley Afb Airport
37.083,14.217,62.4,0.00,Gela
37.087,-84.077,67.5,0.00,Cape Girardeau Rgnl
37.091,127.03,58.9,0.00,Osan Ab
37.1,25.367,60.8,0.00,Naxos
37.1,138.25,54.0,0.12,Takada
37.117,70.517,72.0,0.00,Feyzabad
37.133,-76.6,70.0,0.12,Felker Army Airfield
37.133,-76.483,64.2,0.00,Newport News Willia
37.133,42.717,68.9,0.00,Zakho
37.133,79.933,72.7,0.00,Hotan
37.14,-107.76,53.0,0.00,Durango-La Plata Co
37.15,108.383,50.6,0.08,Pin-Kou-Men
37.152,-94.495,71.0,0.00,Joplin Regional Airport
37.175,-5.616,58.5,0.00,Moron Ab
37.183,114.367,42.8,0.51,Xingtai
37.189,-3.777,53.1,0.00,Granada
37.2,102.867,40.2,0.00,Wushaoling
37.217,28.367,53.6,0.00,Mugla
37.225,-89.571,67.9,0.87,Cape Girardeau Rgnl
37.233,69.083,70.5,0.00,Pyandj
37.239,127.007,60.4,0.00,Suwon
37.24,-93.39,65.3,0.12,Springfield-Branson Regional Airport
37.245,9.791,59.2,0.08,Sidi Ahmed Air Base
37.262,-104.338,52.7,0.00,Perry Stokes Airport
37.267,126.983,59.0,0.00,Suwon
37.284,-98.553,64.9,0.00,Medicine Lodge
37.287,67.31,75.5,0.00,Termez
37.296,-81.208,61.1,0.00,Mercer Co
37.3,-108.633,57.8,0.00,Cortez Muni
37.317,-79.974,65.0,0.01,Roanoke Regional/Woodrum Field Ap
37.321,-79.207,65.6,0.12,Lynchburg Rgnl/Preston Glenn Fld Ap
37.333,100.133,44.6,0.00,Gangca
37.35,59.633,65.1,0.00,Kaka
37.35,126.917,59.8,0.00,Sv Ri San
37.359,-121.924,64.2,0.00,N Y. Mineta Sn Jo Intl Apt
37.367,-6.0,59.3,0.00,Sevilla/Tablada
37.367,97.367,50.8,0.00,Delingha
37.367,101.617,46.0,0.00,Hao-Men
37.367,115.383,41.9,0.20,Nangong
37.371,-118.358,61.2,0.00,Bishop Airport
37.383,-120.567,60.1,0.00,Castle Afb
37.383,60.517,71.0,0.00,Tedzhen
37.383,136.9,49.3,0.67,Wajima
37.4,-121.133,65.0,0.00,Crows Landing
37.4,14.917,60.0,0.00,Catania/Sigonella
37.4,122.683,47.1,0.00,Chengshantou
37.406,-122.048,62.2,0.00,Moffett Federal Airfield
37.418,-5.893,59.0,0.00,Sevilla
37.433,116.317,42.8,0.60,Dezhou
37.433,127.633,68.2,0.00,Yeoju Range
37.439,-105.861,50.8,0.00,San Luis Valley Regional Airport
37.446,127.114,60.9,0.00,Seoul Ab
37.45,122.033,49.5,0.00,Weihai
37.467,15.066,58.8,0.00,Catania Fontanarossa
37.467,53.967,55.9,0.00,Esenguly
37.467,110.25,51.8,0.12,Suide
37.467,126.633,58.1,0.00,Incheon
37.48,-76.32,68.7,0.00,Milford Haven Coast Guard Statio
37.483,-82.517,70.3,0.00,Pikeville (Ramos)
37.483,69.383,72.6,0.00,Parkhar
37.483,105.683,56.2,0.00,Zhongning
37.483,130.9,50.4,0.00,Ulleungdo
37.483,139.917,58.1,0.35,Wakamatsu
37.5,71.5,58.4,0.04,Khorog
37.5,111.1,48.7,0.08,Lishi
37.5,117.533,45.9,0.12,Huimin
37.5,129.133,64.7,0.00,Donghae Radar
37.512,-77.323,67.7,0.00,Richmond International Airport
37.517,66.017,76.2,0.00,Carsanga
37.522,126.979,66.2,0.00,H 264 Heliport
37.53,-75.62,59.8,0.00,Parramore Beach
37.531,22.404,50.2,0.00,Tripolis
37.533,126.967,62.2,0.00,Sinyongsan
37.558,126.791,59.5,0.00,Gimpo
37.567,126.967,62.8,0.00,Seoul City
37.6,62.183,70.8,0.00,Bajramaly
37.617,-114.517,52.7,0.00,Caliente  Nv.
37.617,-109.467,53.3,0.00,Blanding
37.617,-97.267,64.1,0.00,Mcconnell Afb Airport
37.617,54.783,57.9,0.00,Gyzyletrek
37.617,78.283,72.5,0.00,Pishan
37.617,120.317,47.8,0.00,Longkou
37.62,-122.365,59.1,0.00,San Francisco International Airport
37.624,-120.951,62.9,0.00,Mdsto Cty-Co H Sham Fd Apt
37.648,-97.43,64.3,0.00,Wichita Eisenhower National
37.67,-95.484,65.6,0.00,Chanute Martin Johnson Apt
37.69,26.912,55.4,0.00,Samos
37.706,-112.146,46.7,0.00,Bryce Canyon Airport
37.709,-113.094,49.2,0.00,Cedar City Regional Arpt
37.721,-122.221,59.4,0.00,Metro Oakland Intl Airport
37.733,-122.317,59.8,0.00,Alameda(Usn)
37.741,-25.698,58.5,0.00,Ponta Delgada
37.747,112.628,43.3,0.16,Wusu
37.75,-92.15,71.0,0.59,Waynesville Regional Airport At Forney Field
37.754,128.944,55.2,0.00,Gangneung
37.767,-89.25,68.9,0.00,Southern Illinois
37.767,140.467,60.8,0.02,Fukushima
37.769,-99.968,60.7,0.28,Dodge City Regional Airport
37.771,128.868,57.0,0.00,Gangneung
37.775,-0.812,64.3,0.00,Murcia San Javier
37.783,126.85,64.6,0.00,Yeongdongri
37.784,-81.123,64.4,0.00,Raleigh County Memorial Airport
37.785,30.582,48.0,0.00,Isparta
37.8,61.55,70.7,0.00,Chashkent
37.8,107.383,50.9,0.08,Yanchi
37.817,68.783,72.1,0.00,Kurgan-Tyube
37.817,113.567,38.8,0.08,Yangquan
37.833,65.2,72.6,0.00,Kerki Intl
37.842,-4.849,58.8,0.00,Cordoba
37.85,95.367,47.5,0.00,Da-Qaidam
37.85,136.917,47.8,0.20,Hegurashima (Lgt-H)
37.858,-80.399,65.2,0.00,Greenbrier Valley
37.882,23.735,60.7,0.00,Athinai
37.884,127.718,64.6,0.02,A 306
37.889,-121.226,61.6,0.00,Stockton Metropolitan Airport
37.894,40.201,55.5,0.00,Diyarbakir
37.9,-85.967,64.3,0.08,Godman Aaf Airport
37.9,127.733,58.8,0.00,Chuncheon
37.9,139.017,50.9,0.63,Niigata
37.911,12.488,59.4,0.10,Trapani Birgi
37.917,69.783,71.1,0.00,Kulyab
37.917,127.05,65.5,0.00,Camp Casey/Tongduch
37.921,21.293,57.8,0.00,Andravida
37.927,-100.725,60.4,0.00,Garden City Regional Arpt
37.933,83.65,73.9,0.00,Andir
37.933,124.667,51.7,0.00,Baengnyeongdo Ab
37.937,-75.466,65.4,0.00,Wallops Flight Facility Airport
37.95,-79.833,57.1,0.00,Ingalls Fld
37.95,128.317,58.5,0.00,Hyun Ni (Kor-Army)
37.95,139.117,50.8,0.00,Niigata Airport
37.951,-1.23,65.2,0.00,Alcantarilla
37.967,126.567,59.9,0.00,Kaesong
37.979,32.562,48.4,0.00,Konya
37.987,58.361,65.3,0.00,Ashgabat
38.033,125.7,60.4,0.00,Haeju
38.033,138.233,49.3,1.14,Aikawa
38.041,-84.606,66.0,0.00,Blue Grass Airport
38.044,-87.521,66.9,0.39,Evansville Regional Airport
38.049,-103.513,58.0,0.00,La Junta Municipal Airport
38.05,138.417,53.4,0.00,Sado
38.051,-117.09,49.6,0.00,Tonopah Airport
38.064,23.556,57.9,0.00,Elefsis
38.065,-97.861,62.7,0.00,Hutchinson Municipal Arpt
38.067,114.35,41.5,0.94,Shijiazhuang
38.071,15.652,62.6,0.00,Reggio Calabria
38.079,-7.932,52.5,0.00,Beja
38.083,-102.617,61.2,0.00,Lamar
38.083,62.8,70.2,0.00,Uchadzhy
38.131,-91.768,68.2,0.00,Rolla/Vichy Airport
38.137,-78.455,66.5,0.00,Charlottesville Albemarle Arpt
38.14,140.917,56.4,0.00,Sendai
38.15,85.55,71.3,0.00,Qiemo/Qarqan
38.15,124.883,54.7,0.00,Ryongyon
38.167,120.783,46.7,0.00,Tuoji Island
38.176,13.091,63.1,0.16,Palermo
38.181,-85.739,65.8,0.04,Louisville Intl-Standiford Field Ap
38.2,15.55,60.6,0.04,Messina
38.228,-85.664,66.3,0.00,Bowman Field Airport
38.233,100.25,45.5,0.00,Babao
38.233,127.967,60.3,0.00,Wonju Ab
38.233,140.917,60.1,0.00,Kasuminome (Jasdf)
38.25,-78.05,69.3,0.79,Orange Co
38.25,66.833,63.5,0.00,Akrabat
38.25,90.85,48.4,0.00,Mangnai
38.25,140.35,55.4,0.04,Yamagata
38.251,128.565,54.7,0.00,Sokcho
38.267,-121.933,60.4,0.00,Travis Air Force Base
38.267,-78.9,68.3,0.00,Shenandoah Valley Rg
38.267,67.9,68.9,0.00,Denau
38.267,109.783,49.8,0.00,Yulin
38.267,140.9,55.2,0.00,Sendai
38.282,-0.558,63.2,0.00,Alicante
38.289,-104.506,58.7,0.00,Pueblo Memorial Airport
38.3,-76.417,60.3,0.00,Naval Air Station
38.329,-96.195,63.3,0.00,Emporia Municipal Airport
38.33,-75.08,58.1,0.00,Ocean City
38.333,116.833,39.7,0.59,Cangzhou
38.341,-75.51,63.9,0.00,Salisbury Ocean Cit
38.365,-82.555,73.7,0.00,Tri-State/M.J.Fergus
38.371,-110.715,59.3,0.00,Hanksville
38.379,-81.59,73.6,0.00,Yeager Airport
38.38,-76.38,58.5,0.00,Cove Point Coast Guard Light Sta
38.383,117.35,40.1,0.04,Huanghua
38.4,112.717,46.8,0.02,Xinxian
38.405,141.22,52.6,0.00,Matsushima
38.412,140.371,61.0,0.00,Yamagata
38.417,-113.017,49.9,0.00,Milford Municipal Ap
38.417,127.283,56.1,0.00,Pyonggang
38.433,56.3,57.7,0.00,Garryqala
38.433,57.417,66.2,0.00,Bakherden
38.433,77.267,71.2,0.00,Shache
38.433,141.3,56.5,0.04,Ishinomaki
38.435,38.091,55.2,0.00,Erhac / Malatya
38.45,48.883,52.6,0.16,Astara
38.467,64.367,72.2,0.00,Byrdalyk
38.467,99.55,39.2,0.00,Yeh-Niu-Kou
38.467,102.183,50.3,0.00,Jin-Chang
38.468,43.332,45.0,0.00,Van
38.47,-70.56,65.5,0.00,Hotel 200Nm East Of Cape May Nj
38.483,106.217,55.2,0.00,Yinchuan / Hedong
38.5,-107.883,52.6,0.00,Montrose
38.5,126.533,59.9,0.00,Singye
38.504,-77.305,70.2,0.00,Quantico Mcaf
38.507,-121.495,57.0,0.00,Sacramento Executive Airport
38.513,27.01,59.1,0.00,Cigli
38.517,-122.817,62.4,0.00,C M Schulz Sonoma Co
38.517,-5.117,51.1,0.00,Hinojosa Del Duque
38.517,125.767,57.2,0.00,Sariwon
38.52,-28.716,60.5,0.00,Horta
38.543,68.825,68.9,0.00,Dushanbe
38.55,-89.85,66.6,0.08,Scott Air Force Base/Midamerica Airport
38.567,-121.3,57.3,0.00,Mather Field
38.567,-7.9,51.3,0.00,Evora
38.583,-92.15,72.4,0.00,Jefferson City Mem
38.6,-106.92,42.6,0.00,Gunnison Aviation Weather Report
38.607,39.291,50.9,0.04,Elazig
38.617,55.183,56.5,0.00,Bekibent
38.62,-75.07,57.4,0.00,Indian River Coast Guard Station
38.633,103.083,59.9,0.00,Minqin
38.65,66.933,55.9,0.00,Minchukur
38.667,-121.4,57.5,0.00,Sacramento Mcclellan Afb
38.678,-104.757,53.0,0.00,Butts Aaf Airport
38.683,29.4,50.7,0.00,Usak
38.683,61.2,67.6,0.00,Cheshme
38.683,69.567,57.7,0.00,Bustonabad-In-Tajik
38.696,-121.59,58.8,0.00,Sacramento Intl Airport
38.7,13.183,55.8,0.47,Ustica Island
38.717,-93.55,63.9,0.12,Whiteman Afb Airport
38.717,-77.183,66.0,0.00,Davison Aaf Airport
38.717,125.383,56.1,0.00,Nampo
38.726,30.601,50.0,0.00,Afyon
38.733,48.833,52.8,0.00,Lankaran
38.733,115.483,41.0,0.12,Baoding
38.733,128.183,54.0,0.00,Changjon
38.75,58.467,68.7,0.00,Bokyrdak
38.75,112.7,41.0,0.31,Yuanping
38.753,-90.374,69.2,0.08,Lambert-St Louis International Ap
38.762,-27.091,62.1,0.00,Lajes
38.767,48.4,39.2,0.00,Lerik
38.77,35.495,46.9,0.00,Erkilet / Kayseri
38.781,-9.136,53.0,0.00,Lisboa
38.8,-97.65,60.6,0.00,Salina Municipal Airport
38.8,65.717,68.4,0.00,Karshi
38.8,98.417,39.5,0.00,Tuo-Le
38.8,101.083,54.5,0.08,Shan-Dan
38.809,27.834,56.8,0.00,Akhisar
38.81,-104.688,51.4,0.00,City Of Colorado Springs Municipal Ap
38.817,-92.218,67.7,0.16,Columbia Regional Airport
38.817,-76.867,66.6,0.00,Andrews Air Force Base Airport
38.832,-94.89,60.2,0.00,New Century Aircenter Arpt
38.833,93.383,50.0,0.00,Lenghu
38.844,-94.56,60.8,0.04,Richard Gebaur
38.847,-77.035,68.5,0.02,Ronald Reagan Washington Natl Ap
38.873,1.373,57.9,0.20,Ibiza
38.876,-98.809,58.2,0.02,Russell Municipal Airport
38.883,-120.0,40.7,0.00,Lake Tahoe
38.883,22.433,61.3,0.00,Lamia
38.89,-79.855,67.5,0.02,Elkins-Rand Co-J.Rand Field Airport
38.891,-6.821,55.4,0.00,Talavera La Real / Badajoz
38.9,-76.43,56.5,0.00,Thomas Point Coast Guard Station
38.9,46.25,53.9,0.00,Megri
38.905,16.242,59.5,0.01,Lamezia Terme
38.917,16.233,60.0,0.00,Lamezia Terme
38.917,139.85,47.1,0.47,Sakata
38.92,-76.47,52.9,0.00,Annapolis Coast Guard Station
38.925,20.765,59.7,0.00,Aktion
38.935,-77.447,67.3,0.04,Washington Dulles International Ap
38.949,-1.864,52.2,0.00,Albacete
38.95,-95.664,60.4,0.00,Forbes Field Airport
38.95,-74.883,53.7,0.00,Cape May (Cgs)
38.95,45.633,56.5,0.08,Julfa
38.95,113.517,20.5,0.24,Wutai Shan
38.966,121.539,48.0,0.00,Zhoushuizi
38.967,-104.817,46.5,0.04,Usaf Academy Airstrip Airport
38.968,24.487,61.1,0.00,Skiros
38.981,-76.922,70.0,0.00,College Park
38.983,-3.917,52.7,0.00,Ciudad Real
38.983,56.283,62.9,0.00,Gyzylarbat
38.997,17.08,59.0,0.00,Crotone
39.0,-110.15,60.2,0.00,Green River Range
39.017,117.6,39.7,0.16,Tanggu
39.033,88.167,68.5,0.00,Ruoqiang
39.044,-84.672,65.5,0.04,Cincinnati/Northern Kentucky Intl Ap
39.05,-105.51,59.7,0.00,Wilkerson Pass
39.05,-96.767,61.4,0.01,Marshall Army Airfield
39.05,116.4,38.3,0.39,Baxian
39.05,123.217,49.5,0.00,Haiyang Dao
39.057,26.598,59.2,0.00,Mitilini
39.067,26.883,55.2,0.00,Dikili
39.073,-95.626,59.5,0.00,Philip Billard Municipal Airport
39.083,-76.767,70.4,0.00,Tipton Airport
39.083,63.6,64.9,0.00,Chardzhev
39.083,100.283,57.0,0.00,Zhangye
39.1,-121.567,56.1,0.00,Yuba Co
39.1,53.1,54.2,0.00,Ogryda
39.1,107.983,47.8,0.00,Otog Qi
