lat,lon,temp,precip,name
-90.0,0.0,-72.5,0.00,Amundsen-Scott
-78.45,106.867,-80.1,0.00,Vostok
-77.867,-34.617,-0.9,0.00,Base Belgrano Ii
-77.85,166.667,0.9,0.00,Mcmurdo
-70.767,11.833,19.2,0.00,Novolazarevskaja
-70.667,-8.25,4.6,0.00,Neumayer
-68.117,-67.133,25.8,0.00,Base San Martin
-67.667,45.85,7.2,0.00,Molodeznaja
-67.567,-68.117,27.8,0.00,Rothera
-66.667,140.017,7.8,0.00,Dumont Fre-Base
-66.55,93.017,23.0,0.00,Mirnyj
-66.283,110.533,23.2,0.00,Casey
-65.25,-64.267,33.7,0.00,Argentine Island
-64.233,-56.717,9.5,0.00,Base Marambio (Centro Met. Antartico)
-63.317,-57.9,16.0,0.00,Bernardo O`Higgins
-62.5,-59.683,27.4,0.00,Prat Chi-Base
-62.25,-58.933,26.5,0.00,Frei Chi-Base
-60.733,-44.733,30.1,0.00,Base Orcadas
-56.475,-68.73,41.0,0.00,Isla Diego Ramirez
-54.499,158.937,43.6,0.04,Macquarie Island
-54.283,-36.5,43.6,0.00,Grytviken
-53.778,-67.749,39.2,0.00,Rio Grande
-53.003,-70.855,40.8,0.00,Carlos Ibanez Del Campo Intl
-52.55,169.15,43.4,0.28,Campbell Island
-52.4,-75.1,43.3,0.03,Islotes Evangelistas
-51.686,-57.778,46.5,0.00,Stanley
-51.609,-69.313,43.7,0.00,Rio Gallegos
-50.333,-72.3,45.2,0.00,Lago Argentino Arpt
-50.017,-68.579,45.6,0.00,Santa Cruz
-49.35,70.25,35.8,0.04,Port-Aux-Francais (Iles Kerguelen)
-49.307,-67.803,50.9,0.00,San Julian
-48.783,-70.167,48.2,0.00,Gobernador Gregores
-47.735,-65.904,54.3,0.00,Puerto Deseado
-46.875,37.86,41.5,0.00,Marion Island
-46.517,-71.017,52.4,0.00,Perito Moreno Arpt
-46.433,51.85,42.2,0.39,Alfred Faure (Iles Crozet)
-46.412,168.313,49.8,0.04,Invercargill
-46.167,166.633,49.5,0.08,Puysegur Pt (Lgt-H)
-45.916,-71.689,48.5,0.00,Balmaceda
-45.785,-67.466,60.8,0.00,Comodoro Rivadavia
-45.767,170.733,51.6,0.00,Taiaroa Head
-45.4,-72.7,51.3,0.08,Puerto Aysan / Cabo Juan Roman
-43.867,169.0,49.6,0.02,Haast Aws
-43.817,-68.883,60.1,0.00,Paso De Indios
-43.81,-176.457,52.8,0.00,Chatham Islands
-43.5,147.15,50.8,0.00,Cape Bruny Lighthouse
-43.489,172.532,47.0,0.00,Christchurch Intl
-43.211,-65.27,66.5,0.00,Almirante Zar
-42.908,-71.139,56.8,0.00,Esquel
-42.717,170.983,54.1,0.00,Hokitika Aerodrome
-42.15,145.283,52.6,0.00,Strahan Aerodrome
-41.75,171.6,52.3,0.04,Westport Harbour
-41.733,174.2,54.5,0.00,Cape Campbell
-41.439,-73.094,55.9,0.04,El Tepual Intl
-41.3,173.217,50.5,0.00,Nelson Aerodrome
-41.283,174.767,53.7,0.00,Wellington
-41.25,-68.733,58.2,0.00,Maquinchao
-41.151,-71.158,45.4,0.00,San Carlos De Bariloche
-41.0,148.35,56.4,0.00,Larapuna (Eddystone Point)
-40.869,-63.0,66.1,0.00,Gobernador Castello
-40.206,175.388,52.6,0.01,Ohakea
-39.933,143.85,55.9,0.00,King Island Currie
-39.65,-73.086,56.8,0.01,Pichoy
-39.467,175.683,47.4,0.00,Waiouru
-39.467,176.867,60.1,0.00,Napier/Airport
-39.117,146.417,59.7,0.00,Wilsons Promontory Lighthouse
-39.017,-64.083,68.4,0.00,Rio Colorado
-39.017,174.183,54.3,0.00,New Plymouth Aerodr
-38.949,-68.156,67.0,0.00,Presidente Peron
-38.85,143.517,55.4,0.00,Cape Otway Lighthouse
-38.767,-72.637,57.5,0.02,Maquehue
-38.725,-62.169,68.7,0.00,Comandante Espora
-38.667,177.983,54.6,0.33,Gisborne Aerodrome
-38.387,-60.33,61.6,0.00,Tres Arroyos
-38.099,147.149,55.4,0.01,East Sale
-37.934,-57.573,62.0,0.00,Mar Del Plata
-37.867,144.75,55.1,0.00,Laverton Raaf
-37.8,77.533,59.4,0.01,Martin De Vivies (Ile Amsterdam)
-37.733,140.783,54.3,0.00,Mount Gambier Aero
-37.7,178.55,57.8,0.00,East Cape (Aut)
-37.667,176.2,57.2,0.00,Tauranga Aerodrome
-37.567,149.9,62.8,0.00,Gabo Island Lighthouse
-37.433,-61.883,60.6,0.00,Coronel Suarez Aero
-37.237,-59.228,59.3,0.00,Tandil
-37.008,174.792,56.4,0.00,Auckland Intl
-36.773,-73.063,53.7,0.00,Carriel Sur Intl
-36.588,-64.276,62.7,0.00,Santa Rosa
-36.582,-72.031,59.9,0.00,General Bernardo O Higgins
-36.35,-57.733,65.2,0.00,Dolores Airport
-36.187,-61.076,62.8,0.00,Bolivar
-35.845,-61.858,65.1,0.00,Comodoro P Zanni
-35.696,-63.758,65.4,0.00,General Pico
-35.494,-69.574,60.0,0.00,Malargue
-35.333,136.117,63.2,0.00,Neptune Island
-35.307,149.195,52.4,0.04,Canberra
-35.165,147.466,57.6,0.16,Wagga Wagga
-35.067,173.283,58.5,0.00,Kaitaia Aerodrome
-34.972,-57.895,64.6,0.00,La Plata
-34.967,-71.217,56.4,0.00,Curico/Gen Freire
-34.967,-54.95,67.9,0.00,Punta Del Este
-34.945,138.531,60.8,0.00,Adelaide Intl
-34.941,117.802,61.5,0.00,Albany Airport
-34.85,-56.2,64.6,0.00,Prado
-34.838,-56.031,64.0,0.00,Carrasco Intl
-34.833,20.017,63.7,0.00,Cape Agulhas
-34.822,-58.536,64.7,0.00,Ministro Pistarini
-34.789,-56.265,68.2,0.00,Angel S Adami
-34.588,-68.403,65.2,0.00,San Rafael
-34.559,-58.416,67.0,0.00,Aeroparque Jorge Newbery
-34.546,-60.931,59.4,0.00,Junin
-34.501,-58.604,69.3,0.00,Don Torcuato
-34.483,-54.3,66.2,0.00,Rocha
-34.456,-57.771,64.3,0.00,Laguna De Los Patos Intl
-34.367,115.133,67.1,0.12,Cape Leeuwin
-34.183,22.15,61.3,0.00,Mossel Bay (Lgt-H)
-34.135,-63.362,62.2,0.00,Laboulaye
-34.006,22.379,56.3,0.00,George
-34.0,137.533,63.4,0.00,Warburto Point
-33.985,25.617,59.5,0.00,Port Elizabeth Intl / Chief Dawid Stuurman Intl
-33.965,18.602,60.5,0.00,Cape Town Intl
-33.946,151.177,64.2,0.35,Sydney Intl
-33.833,121.893,63.0,0.08,Esperance
-33.73,-65.387,64.2,0.00,Villa Reynolds
-33.65,-71.617,57.0,0.00,Santo Domingo
-33.633,-78.833,65.0,0.00,Juan Fernandez
-33.601,150.781,61.5,0.00,Richmond
-33.567,-70.683,53.2,0.00,El Bosque(Cafb)
-33.493,-70.698,54.4,0.00,Los Cerrillos
-33.456,-70.547,45.5,0.00,Eulogio Sanchez
-33.393,-70.786,53.2,0.00,Arturo Merino Benitez Intl
-33.359,-56.499,64.3,0.00,Santa Bernardina Intl
-33.273,-66.356,65.4,0.00,San Luis
-33.25,-58.067,66.7,0.00,Mercedes/Ricardo De
-33.217,-54.383,66.7,0.00,Treinta Y Tres
-33.117,118.467,64.2,0.00,Lake Grace Comparison
-33.085,-64.261,66.5,0.00,Rio Cuarto Area De Material
-33.083,-68.417,67.2,0.00,San Martin
-33.05,-71.583,53.3,0.00,Vina Del Mar
-33.05,-71.417,58.3,0.00,El Belloto(Cafb)
-33.036,27.826,62.6,0.00,East London / King Phalo
-33.01,-58.613,64.6,0.00,Gualeguaychu
-32.904,-60.785,61.3,0.00,Rosario
-32.833,17.85,62.9,0.00,Cape Columbine
-32.832,-68.793,66.8,0.00,El Plumerillo
-32.8,-56.517,65.2,0.00,Paso De Los Toros
-32.795,151.834,63.0,0.43,Williamtown
-32.684,-62.158,62.7,0.00,Marcos Juarez
-32.683,-57.633,66.8,0.00,Young
-32.365,-58.061,66.8,0.00,Tydeo Larre Borges Intl
-32.338,-54.217,70.6,0.00,Cerro Largo
-32.303,22.664,53.2,0.00,Beaufort West(Met)
-32.217,148.575,59.8,1.81,Dubbo
-32.133,133.7,59.6,0.00,Ceduna Amo
-31.945,-65.146,68.9,0.00,Villa Dolores
-31.94,115.967,64.6,0.00,Perth Intl
-31.795,-60.48,61.4,0.00,General Urquiza
-31.749,-55.926,68.6,0.00,Tacuarembo
-31.712,-60.812,64.2,0.00,Sauce Viejo
-31.667,-63.883,66.7,0.00,Pilar Observatorio
-31.606,29.522,68.5,0.00,Port St Johns
-31.571,-68.418,64.8,0.00,San Juan
-31.542,159.079,66.8,0.31,Lord Howe Island Aero
-31.483,145.833,56.4,0.04,Cobar Mo
-31.433,-57.983,64.9,0.00,Nueva Hesperides Intl
-31.333,-66.6,69.8,0.00,Chepes
-31.324,-64.208,63.6,0.00,Ambrosio L V Taravella
-31.297,-57.997,66.0,0.00,Comodoro Pierrestegui
-31.144,136.817,63.9,0.00,Woomera
-30.975,-55.476,66.5,0.00,Presidente General Don Oscar D Gestido
-30.833,128.1,75.1,0.00,Forrest Airport
-30.789,121.462,70.7,0.00,Kalgoorlie Boulder
-30.401,-56.508,66.7,0.00,Artigas Intl
-30.367,-66.283,65.9,0.00,Chamical Aero
-30.321,153.116,62.7,0.67,Coffs Harbour
-30.272,-57.64,66.9,0.00,Monte Caseros
-30.267,-57.583,66.6,0.00,Bella Union
-29.97,30.951,69.3,0.00,Durban Intl
-29.916,-71.2,58.8,0.00,La Florida
-29.883,-61.95,66.4,0.00,Ceres
-29.771,-57.979,67.9,0.00,Curuzu Cuatia
-29.75,-57.083,73.0,0.00,Uruguaiana
-29.689,-57.152,67.3,0.00,Paso De Los Libres
-29.467,149.85,63.2,0.16,Moree
-29.382,-66.796,67.7,0.00,La Rioja
-29.304,27.503,49.4,0.00,Mejametalana
-29.25,-177.933,69.7,0.00,Raoul Island Kermadec Islands
-29.233,-67.433,71.2,0.00,Chilecito Aero
-29.183,-59.7,66.4,0.00,Reconquista Aero
-29.093,26.302,56.5,0.00,Bloemfontein Intl / Bram Fischer Intl
-29.042,167.939,68.0,0.01,Norfolk Island Intl
-28.883,121.333,74.6,0.24,Leonora
-28.803,24.765,55.9,0.00,Kimberley
-28.705,121.891,60.7,0.00,Murrin Murrin
-28.596,-70.756,54.3,0.00,Vallenar
-28.596,-65.752,73.4,0.00,Catamarca
-28.567,16.533,60.4,0.00,Alexander Bay
-28.5,32.4,69.2,0.33,Cape St. Lucia
-28.399,21.26,60.9,0.00,Upington
-28.248,28.336,48.1,0.00,Bethlehem
-28.067,145.683,64.6,0.00,Cunnamulla Post Office
-27.766,-64.31,66.0,0.00,Santiago Del Estero
-27.67,-48.547,68.7,0.00,Hercilio Luz
-27.617,-144.333,70.1,0.00,Rapa
-27.583,-56.667,72.4,0.00,Ituzaingo
-27.45,-59.056,70.3,0.00,Resistencia
-27.446,-58.762,70.7,0.00,Corrientes
-27.417,153.067,67.1,0.00,Brisbane Airport
-27.386,-55.971,70.1,0.00,Posadas
-27.317,-55.833,72.3,0.00,Encarnacion
-27.165,-109.422,72.6,0.01,Mataveri Intl
-26.841,-65.105,66.7,0.00,Teniente Benjamin Matienzo
-26.757,-60.493,71.7,0.00,Presidencia Roque Saenz Pena / Termal
-26.683,15.25,55.3,0.00,Luderitz (Diaz Point)
-26.671,27.082,59.3,0.00,Potchefstroom
-26.667,-57.15,73.0,0.00,San Juan Bautista
-26.614,118.537,71.9,0.16,Meekatharra Airport
-26.55,148.783,65.4,0.00,Roma Airport
-26.413,146.263,65.9,0.00,Charleville
-26.333,-70.607,62.4,0.00,Chanaral
-26.213,-58.228,73.6,0.00,Formosa
-26.139,28.246,59.5,0.00,Johannesburg Intl
-26.05,22.45,66.0,0.00,Tsabong
-25.921,32.573,74.3,0.00,Maputo
-25.917,113.517,73.4,0.00,Denham
-25.89,28.171,63.3,0.00,Pretoria(Met)
-25.767,-56.433,71.3,0.00,Villarrica
-25.737,-54.473,69.4,0.00,Cataratas Del Iguazu
-25.596,-54.487,69.7,0.00,Cataratas Intl
-25.528,-49.176,61.7,0.00,Afonso Pena
-25.417,142.65,67.6,0.00,Windorah Post Office
-25.24,-57.519,72.0,0.00,Silvio Pettirossi Intl
-25.038,46.956,76.1,0.06,Tolagnaro
-25.033,128.3,75.0,0.00,Giles Meteorological Office
-24.888,113.67,73.3,0.00,Carnarvon Airport
-24.856,-65.486,63.0,0.00,Salta
-24.721,-60.549,73.0,0.00,Alferez Armando Rodriguez
-24.667,25.917,72.8,0.00,Gaborone
-24.555,25.918,64.1,0.00,Sir Seretse Khama Intl
-24.393,-65.098,66.2,0.00,Jujuy
-24.117,152.717,73.0,0.00,Lady Elliot Island
-24.017,21.883,68.3,0.00,Tshane
-23.867,29.45,65.2,0.00,Polokwane
-23.867,35.383,76.1,0.28,Inhambane
-23.85,151.267,71.8,0.00,Gladstone Radar
-23.807,133.902,61.5,0.00,Alice Springs
-23.627,-46.655,65.7,0.00,Congonhas Deputado Freitas Nobre
-23.567,148.183,68.7,0.00,Emerald Airport
-23.444,-70.445,62.2,0.00,Cerro Moreno Intl / Andres Sabella Intl
-23.442,-57.427,76.3,0.00,Teniente Col Carmelo Peralta
-23.383,43.728,76.8,0.04,Toliara
-23.382,150.475,70.6,0.00,Rockhampton
-23.365,-149.524,75.7,0.00,Tubuai Mataura
-23.35,119.717,74.5,0.04,Newman
-23.334,-51.13,70.3,0.00,Londrina / Governador Jose Richa
-23.25,155.533,76.4,0.00,Cato Island
-23.153,-64.329,70.7,0.00,Oran
-23.133,-134.967,76.3,0.51,Mangareva
-23.083,26.8,73.7,0.00,Mahalapye
-23.05,-43.6,75.3,0.00,Marambaia
-23.007,-47.135,67.1,0.00,Viracopos
-22.983,-42.033,76.4,0.00,Cabo Frio
-22.917,-43.167,75.3,0.00,Rio De Janeiro
-22.91,-43.163,75.0,0.00,Santos Dumont
-22.883,14.433,57.3,0.00,Walvis Bay (Pelican Point)
-22.875,-43.385,77.4,0.00,Campo Delio Jardim De Mattos
-22.809,-43.244,75.5,0.00,Galeao Antonio Carlos Jobim
-22.805,47.821,74.4,0.00,Farafangana
-22.55,-61.55,74.8,0.00,Pelayo Prat Gill
-22.55,-55.703,67.9,0.00,Ponta Pora
-22.483,-44.467,70.0,0.00,Resende
-22.48,17.471,66.7,0.00,Hosea Kutako Intl
-22.333,40.333,77.7,0.00,Ile Europa
-22.267,166.45,77.1,0.00,Noumea
-22.25,118.333,76.7,0.00,Wittenoom
-22.236,114.089,78.1,0.00,Learmonth
-22.217,30.0,76.4,0.00,Beitbridge
-22.151,-65.578,51.5,0.00,La Quiaca / Dr Guillermo Eugenio Snopek
-22.015,166.213,78.0,0.75,Noumea La Tontouta
-21.985,-47.335,70.7,0.00,Campo Fontenelle
-21.961,-63.652,72.6,0.00,Yacuiba
-21.817,-138.8,77.8,1.69,Muroroa Atoll (Mil)
-21.7,21.65,68.0,0.00,Ghanzi
-21.698,-41.302,75.0,0.00,Bartolomeu Lisandro
-21.667,150.267,74.7,0.28,Middle Percy Island
-21.556,-64.701,63.0,0.00,Capitan Av Oriel Lea Plaza Intl
-21.321,55.425,76.1,0.00,St Pierre Pierrefonds
-21.267,-43.761,62.2,0.00,Major Brigadeiro Doorgal Borges
-21.241,-175.15,75.2,0.00,Fua Amotu Intl
-21.203,-159.806,77.8,0.02,Rarotonga Intl
-21.159,27.468,69.0,0.00,P.G. Matante International Airport
-21.117,149.217,72.5,0.00,Mackay Mo
-21.05,29.367,73.4,0.00,West Nicholson
-21.008,31.579,76.4,0.00,Buffalo Range
-20.933,55.283,77.7,0.02,Le Port
-20.933,165.317,80.5,0.00,Poindimie (Nlle-Caledonie)
-20.887,55.51,76.1,0.00,St Denis Gillot / La Reunion Roland Garros
-20.817,144.233,75.0,0.00,Hughenden Airport
-20.775,167.24,77.2,0.24,Lifou Ouanaham
-20.733,143.133,73.6,0.00,Richmond Post Office
-20.717,-61.917,75.6,0.00,Nueva Asuncion
-20.667,-178.717,79.1,0.04,Ono-I-Lau Aws
-20.664,139.489,70.8,0.00,Mount Isa
-20.546,164.256,78.9,0.00,Koumac
-20.535,-70.181,65.5,0.00,Diego Aracena Intl
-20.469,-54.673,73.3,0.00,Campo Grande
-20.43,57.684,76.8,0.01,Sir Seewoosagur Ramgoolam Intl
-20.378,118.626,81.7,0.00,Port Hedland Intl
-20.317,-40.333,74.5,0.24,Vitoria
-20.285,44.318,76.6,0.00,Morondava
-20.258,-40.286,75.9,0.08,Goiabeiras / Eurico De Aguiar Salles Intl
-20.233,169.767,75.5,0.00,Aneityum
-20.133,-157.35,78.3,0.12,Mauke Island
-20.055,30.859,67.8,0.00,Masvingo Intl
-20.05,-63.567,71.3,0.08,Camiri
-20.021,28.627,73.6,0.00,J M Nkomo Intl / Bulawayo
-20.02,148.21,76.8,0.00,Bowen Airport Aws
-19.973,23.431,75.7,0.00,Maun
-19.917,138.117,70.9,0.00,Camooweal Township
-19.851,-43.951,72.0,0.00,Pampulha Carlos Drummond De Andrade
-19.777,-174.341,79.9,0.00,Haapai
-19.765,-47.965,69.6,0.00,Uberaba / Mario De Almeida Franco
-19.758,63.361,77.9,0.00,Plaine Corail
-19.733,120.85,85.1,0.00,Mandora
-19.633,134.183,73.1,0.00,Tennant Creek Airport
-19.602,18.123,72.0,0.00,Grootfontein
-19.533,-59.367,75.8,0.00,Adrian Jara
-19.455,169.224,79.4,0.00,Tanna
-19.436,29.862,68.5,0.00,Gweru Thornhill
-19.253,146.765,76.0,0.16,Townsville
-19.151,33.429,72.2,0.12,Chimoio
-19.133,179.75,80.7,0.08,Matuku Aws
-19.083,152.383,79.7,0.00,Marion Reef
-19.067,-169.917,77.0,0.24,Alofi
-19.05,178.167,79.1,0.00,Vunisea
-19.007,-65.289,53.2,0.00,Juana Azurduy De Padilla
-19.0,-57.667,81.2,0.00,Corumba (Aeroporto)
-18.975,-57.821,82.9,0.00,Tte De Av Salvador Ogaya G
-18.831,-159.764,79.1,0.00,Aitutaki
-18.797,47.479,64.0,0.00,Ivato
-18.65,-173.983,79.7,0.28,Vavau
-18.533,32.133,66.5,0.00,Rusape
-18.367,21.85,76.4,0.00,Shakawe
-18.349,-70.339,64.4,0.00,Chacalluta
-18.317,-59.75,76.8,0.00,Robore (Civ/Mil)
-18.3,143.55,80.5,0.00,Georgetown Post Office
-18.233,-178.8,78.4,0.00,Lakemba Island
-18.11,49.393,74.4,1.54,Toamasina
-18.096,25.839,72.8,0.00,Victoria Falls Intl
-18.075,-140.946,81.6,0.00,Hao
-18.067,-163.183,79.2,0.24,Palmerston *
-18.053,-70.276,64.0,0.00,Coronel Carlos Ciriani Santa Rosa Intl
-18.05,44.033,78.5,0.00,Maintirano
-18.043,178.559,78.2,0.12,Nausori Intl
-17.963,-67.076,55.2,0.75,Juan Mendoza
-17.945,122.232,83.1,0.00,Broome Intl
-17.93,31.094,68.9,0.00,Robert Gabriel Mugabe Intl / Harare
-17.833,25.162,81.6,0.00,Kasane
-17.812,-63.171,73.2,0.00,El Trompillo
-17.8,25.817,84.7,0.00,Harry Mwaanga Nkumbula Intl
-17.755,177.443,79.9,0.00,Nadi Intl
-17.75,168.3,76.8,0.00,Port Vila/Bauerfld
-17.717,148.45,77.3,0.00,Flinders Reef
-17.667,141.083,81.7,0.00,Normanton
-17.652,-39.253,76.6,0.12,Caravelas
-17.645,-63.135,71.1,0.00,Viru Viru Intl
-17.583,-69.45,49.8,0.00,Charana
-17.554,-149.607,80.8,0.00,Tahiti Faa A
-17.421,-66.177,58.6,0.00,Jorge Wilstermann Intl
-17.05,42.717,80.1,0.00,Ile Juan De Nova
-17.0,178.7,79.3,0.16,Nabouwalu
-16.886,145.755,78.8,0.01,Cairns Intl
-16.833,27.067,76.7,0.00,Choma
-16.833,29.617,72.9,0.00,Karoi
-16.7,177.583,80.0,0.16,Yasawa
-16.632,-49.221,75.3,0.01,Santa Genoveva
-16.513,-68.192,41.2,0.47,El Alto Intl
-16.45,59.617,79.5,0.01,St. Brandon (St. Raphael)
-16.444,-151.751,81.6,0.20,Bora Bora Motu Mute
-16.417,167.8,77.8,0.00,Lamap/Malekoula Isl
-16.401,-61.045,76.1,0.31,San Ignacio De Velasco Airport
-16.341,-71.583,55.8,0.00,Rodriguez Ballon
-16.288,149.965,80.8,0.01,Willis Island
-16.229,-48.964,70.4,0.00,Base Aerea / Campo Marechal Marcio De Souza E Mello
-16.183,33.583,72.7,0.00,Tete
-16.133,-179.983,79.3,0.08,Udu Point Aws
-15.95,-173.767,81.5,0.00,Keppel
-15.933,-5.667,67.1,0.04,St. Helena Is.
-15.883,54.517,80.5,0.08,Serge-Frolow (Ile Tromelin)
-15.863,-47.913,70.3,0.00,Presidente Juscelino Kubitschek
-15.679,34.974,75.1,0.00,Chileka Intl
-15.667,46.352,73.4,0.00,Philibert Tsiranana
-15.653,-56.117,81.4,0.00,Marechal Rondon
-15.567,-175.617,80.8,0.04,Niuafoou
-15.501,167.223,77.6,0.00,Santo Pekoa Intl
-15.483,128.117,81.9,0.00,Wyndham
-15.467,-70.158,47.1,0.43,Juliaca / Inca Manco Capac Intl
-15.433,145.183,80.7,0.04,Cooktown Mission
-15.383,-75.167,68.7,0.00,San Juan De Marcona
-15.333,28.45,71.4,0.00,Lusaka Intl
-15.255,23.162,78.2,0.00,Mongu
-15.106,39.282,77.4,0.00,Nampula
-15.033,40.672,77.9,0.00,Lumbo
-14.999,50.32,76.3,0.35,Antsirabato
-14.954,-147.661,82.6,0.00,Rangiroa
-14.867,-66.75,74.1,0.59,San Borja/Capt Germ
-14.819,-64.918,71.4,0.08,Tte Av Jorge Henrich Arauz
-14.816,-39.033,79.4,0.00,Ilheus / Jorge Amado
-14.8,24.8,79.7,0.00,Kaoma
-14.483,-145.033,82.5,0.00,Takaroa
-14.483,-67.483,75.1,0.20,Rurrenabaque
-14.467,132.267,74.5,0.00,Katherine Country Club
-14.45,28.467,74.6,0.00,Kabwe/Milliken
-14.433,35.25,75.3,0.00,Mangochi
-14.331,-170.714,81.4,0.04,Tafuna/Pago Pago International Ap
-14.317,-178.117,80.2,0.24,Maopoopo / Futuna Pointe Vele
-14.3,-67.367,73.5,0.00,Reyes
-14.25,31.283,79.0,0.00,Petauke
-14.233,129.45,79.1,0.00,Port Keats Aws Aut
-13.789,33.781,67.0,0.00,Lilongwe Intl
-13.745,-76.22,70.2,0.00,Pisco Intl
-13.65,136.933,83.0,0.00,North East Island
-13.6,24.2,78.1,0.00,Kabompo
-13.55,32.583,78.6,0.00,Chipata
-13.536,-71.939,51.6,0.00,Teniente Alejandro Velasco Astete Intl
-13.274,35.266,69.1,0.00,Lichinga
-13.267,-43.417,79.0,0.00,Bom Jesus Da Lapa Aeroporto
-13.238,-176.199,82.3,0.06,Wallis Hihifo
-13.225,37.552,72.8,0.00,Marrupa
-13.155,-74.204,65.3,0.00,Coronel Fap Alfredo Mendivil Duarte
-12.987,40.522,79.1,0.00,Pemba
-12.911,-38.331,76.9,0.79,Deputado Luis Eduardo Magalhaes
-12.805,45.281,79.4,0.00,Dzaoudzi Pamandzi
-12.679,141.925,82.0,0.79,Weipa
-12.617,131.05,82.1,0.59,Noonamah Airstrip
-12.614,-69.229,75.4,0.00,Padre Aldamiz
-12.5,177.05,82.3,0.00,Rotuma Island
-12.283,33.2,76.2,0.00,Lundazi
-12.167,26.367,73.2,0.00,Solwezi
-12.022,-77.114,66.4,0.00,Jorge Chavez Intl
-11.783,130.017,81.0,0.00,Cape Fourcroy
-11.75,24.433,72.6,0.00,Mwinilunga
-11.583,47.283,83.7,0.00,Iles Glorieuses
-11.445,34.012,62.2,0.00,Mzuzu
-11.1,28.85,76.4,0.00,Mansa
-11.04,-68.783,77.4,0.43,Heroes Del Acre / Cap Av Civ Anibal Arab Fadul Intl
-11.017,-66.117,76.4,3.15,Riberalta / Cap Av Selin Zeitun Lopez
-11.017,136.75,81.9,0.00,Cape Wessel Aws
-10.984,-37.07,77.9,0.00,Santa Maria
-10.915,-165.839,84.5,0.00,Pukapuka Arpt
-10.817,-65.35,76.8,0.00,Guayaramerin
-10.75,179.5,81.0,0.00,Niulakita
-10.7,165.8,84.7,0.00,Santa Cruz Island
-10.567,142.217,81.5,0.00,Thursday Island
-10.433,56.6,82.6,0.00,Agalega
-10.417,161.917,81.5,0.04,Kira Kira
-10.05,-161.1,81.8,4.29,Rakahanga Atoll
-9.879,-76.205,71.2,0.00,Alferez Fap D F Fernandini
-9.8,-139.033,80.7,0.47,Hiva-Oa
-9.511,-35.792,77.6,0.39,Zumbi Dos Palmares
-9.433,147.217,82.0,0.00,Port Moresby W.O.
-9.428,160.055,81.1,0.00,Honiara Intl
-9.362,-40.569,78.8,0.00,Senador Nilo Coelho
-9.15,-78.524,65.9,0.00,Teniente Jaime A De Montreuil Morales
-9.133,-75.95,77.1,0.00,Tingo Maria
-9.017,-158.067,82.9,0.00,Penrhyn Island
-8.85,31.333,70.5,0.00,Mbala
-8.783,160.733,81.6,0.00,Auki
-8.709,-63.902,76.3,1.02,Governador Jorge Teixeira De Oliveira
-8.517,179.217,82.9,0.55,Funafuti Intl Arpt
-8.378,-74.574,75.9,0.04,Cap Fap David Abensur Rengifo Intl
-8.328,157.263,82.8,0.01,Munda
-8.126,-34.924,75.8,1.00,Guararapes Gilberto Freyre Intl
-8.081,-79.109,66.6,0.00,Capitan Fap Carlos Martinez De Pinillos
-7.97,-14.394,81.5,0.00,Ascension Aux Af
-7.32,-47.459,82.1,0.00,Carolina / Brig Lysias Augusto Rodrigues
-7.3,72.4,83.8,0.00,Diego Garcia Naval Air Station
-7.233,177.15,80.0,1.10,Nui
-7.169,-76.729,79.0,0.00,Juanjui
-7.139,-78.489,61.0,0.00,Gen Fap Armando Revoredo Iglesias
-6.878,39.203,80.5,0.00,Mwalimu Julius K Nyerere Intl
-6.833,37.65,77.5,0.00,Morogoro (Met)
-6.787,-79.828,69.9,0.00,Cap Fap Jose A Quinones Gonzales Intl
-6.7,156.383,82.7,0.28,Taro Island
-6.509,-76.373,81.4,0.00,Cadete Guillermo Del Castillo Paredes
-6.202,-77.856,57.2,0.00,Chachapoyas
-5.911,-35.248,77.9,0.00,Campo Augusto Severo
-5.894,-76.118,82.9,0.00,Moises Benzaquen Rengifo / Yurimaguas
-5.667,176.133,81.7,0.28,Nanumea Island
-5.206,-80.616,75.6,0.00,Capitan Fap Guillermo Concha Iberico
-5.092,39.071,80.2,0.00,Tanga
-5.083,32.833,69.1,0.00,Tabora Airport
-5.06,-42.823,81.4,0.00,Senador Petronio Portella
-4.883,29.633,73.0,0.00,Kigoma
-4.816,11.887,81.3,0.00,Pointe Noire / Antonio Agostinho Neto
-4.674,55.522,83.0,0.75,Seychelles Intl
-4.577,-81.254,73.9,0.00,Capitan Fap Victor Montes Intl
-4.193,-69.943,79.9,0.00,Alfredo Vasquez Cobo
-4.035,39.594,82.3,0.00,Mombasa Moi Intl
-3.855,-32.423,78.4,0.67,Fernando De Noronha
-3.785,-73.309,75.9,0.00,Coronel Francisco Secada Vignetta Intl
-3.776,-38.533,78.7,0.00,Pinto Martins Intl
-3.553,-80.381,78.1,0.00,Cap Fap Pedro Canga Rodriguez
-3.483,12.617,82.3,0.00,Makabana
-3.429,37.074,76.8,0.00,Kilimanjaro Intl
-3.4,38.567,78.6,0.00,Voi
-3.229,40.102,81.5,0.00,Malindi
-3.146,-59.986,79.1,0.00,Campo Ponta Pelada
-3.039,-60.05,79.9,0.00,Eduardo Gomes Intl
-2.585,-44.234,78.6,0.00,Marechal Cunha Machado Intl
-2.444,32.933,70.7,0.00,Mwanza
-2.422,-54.793,79.5,0.16,Santarem / Maestro Wilson Fonseca
-1.845,11.057,83.0,0.00,Mouilla Ville / Raphael Boubala
-1.667,13.4,78.9,0.47,Franceville Mvengue
-1.5,33.8,72.9,0.00,Musoma
-1.379,-48.476,78.8,0.04,Val De Cans Julio Cezar Ribeiro Intl
-1.319,36.928,68.2,0.00,Jkia / Nairobi Jomo Kenyatta Intl
-0.833,12.717,79.2,0.00,Lastoursville
-0.712,8.754,82.0,0.08,Port Gentil
-0.704,10.246,80.9,0.83,Lambarene
-0.693,73.156,84.1,0.00,Gan Island
-0.5,36.967,63.0,0.02,Nyeri
-0.5,37.45,65.4,0.00,Embu
-0.464,39.648,79.8,0.16,Garissa
-0.267,36.1,63.1,1.69,Nakuru
-0.086,34.729,71.7,0.00,Kisumu
0.05,-51.067,78.4,0.00,Macapa-Aeroporto
0.083,37.65,63.9,0.20,Meru
0.459,9.412,79.4,0.28,Leon M Ba
0.579,12.891,77.7,0.94,Makokou
0.783,11.533,78.7,0.00,Mitzic
0.972,34.959,63.7,0.55,Kitale
1.0,9.6,82.6,0.00,Cocobeach
1.35,103.994,81.3,0.00,Singapore Changi Intl
1.382,173.147,83.0,0.00,Bonriki Intl
1.485,110.347,79.2,0.00,Kuching Intl
1.733,40.092,77.3,1.85,Wajir
2.033,-56.117,76.5,0.94,Sipaliwini
2.033,45.35,85.1,0.00,Mogadishu / Aden Adde Intl
2.076,11.493,76.6,0.00,Bitam
2.262,111.985,85.5,0.00,Sibu
2.263,102.252,82.9,1.34,Malacca
2.3,37.9,64.5,1.73,Marsabit
2.846,-60.69,79.3,0.35,Boa Vista / Atlas Brasil Cantanhede
2.95,-75.294,81.3,0.00,Benito Salas
3.122,35.609,82.3,0.00,Lodwar
3.124,113.02,84.1,0.00,Bintulu
3.131,101.549,80.2,0.00,Sultan Abdul Aziz Shah Intl
3.367,-57.333,76.9,0.00,Coeroeni
3.533,39.05,69.7,0.63,Moyale Lower (Oda)
3.543,-76.382,74.1,0.00,Alfonso Bonilla Aragon Intl
3.633,-54.033,78.7,0.08,Maripasoula
3.775,103.209,83.7,0.00,Kuantan
3.783,-56.15,74.4,0.63,Tafelberg
3.85,-159.367,81.0,0.00,Fanning Island
3.933,41.867,78.6,0.12,Mandera
4.192,73.529,84.8,0.00,Male Intl / Velana Intl
4.217,100.7,84.8,0.02,Sitiawan
4.222,15.786,78.0,0.00,Berberati
4.322,113.987,82.6,0.00,Miri
4.35,-54.417,77.2,0.31,Stoelmanseiland
4.398,18.519,77.0,0.00,Bangui M Poko
4.417,-7.367,80.7,0.00,Tabou
4.555,-61.145,69.6,0.00,Santa Elena De Uairen
4.702,-74.147,56.0,0.00,El Dorado Intl
4.733,22.833,77.2,0.12,Bangassou
4.747,-6.661,79.8,0.04,San Pedro
4.813,-75.74,68.6,0.00,Matecana
4.82,-52.36,81.7,0.04,Rochambeau / Cayenne Felix Eboue
4.944,114.928,78.8,0.00,Brunei Intl
5.05,21.2,80.4,0.00,Alindao
5.261,-3.926,84.5,0.00,Abidjan Felix Houphouet Boigny Intl
5.267,17.633,79.5,0.00,Bossembele
5.283,39.75,64.3,0.00,Neghelli (Mil)
5.297,100.277,81.5,0.24,Penang Intl
5.3,-3.3,83.7,0.00,Adiake
5.4,26.5,82.9,0.24,Obo
5.453,-55.188,80.0,0.04,Johan A Pengel Intl
5.62,-67.606,76.6,3.07,Cacique Aramare
5.811,-55.191,81.2,0.00,Zorg En Hoop
5.85,20.65,81.2,0.00,Bambari
5.901,118.059,84.3,0.00,Sandakan
5.935,43.579,76.2,0.00,Gode
5.937,116.051,82.7,0.00,Kota Kinabalu Intl
5.95,-57.03,80.0,0.01,Nickerie
5.967,15.633,78.1,0.00,Bouar
6.05,125.1,81.2,0.00,Gen. Santos
6.117,81.133,83.5,0.00,Hambantota
6.133,-5.95,79.2,0.16,Gagnoa
6.166,1.255,85.9,0.00,Gnassingbe Eyadema Intl
6.167,102.293,83.3,0.08,Sultan Ismail Petra
6.22,-75.591,66.3,0.00,Olaya Herrera
6.234,-10.362,82.3,0.00,Monrovia Roberts Intl
6.357,2.384,85.8,0.00,Card Bernardin Gadin De Cadjehoun Intl
6.5,23.267,79.4,0.00,Yalinga
6.52,101.743,81.6,0.71,Narathiwat
6.583,1.5,79.3,0.00,Tabligbo
6.65,-4.7,83.2,0.00,Dimbokro City
6.785,101.154,82.0,0.00,Pattani
6.793,-6.473,80.5,0.00,Daloa
6.822,79.886,88.5,0.00,Colombo Ratmalana
6.903,-5.366,81.0,0.00,Yamoussoukro
6.922,122.06,81.9,0.00,Zamboanga Intl
6.933,100.393,78.9,0.75,Hat Yai Intl
7.024,-73.807,80.0,0.00,Yariguies
7.067,38.05,66.0,0.31,Awassa (Lake) / Hawassa
7.126,125.646,79.6,1.93,Francisco Bangoy Intl
7.127,-73.185,68.3,0.00,Palonegro
7.133,40.0,56.3,0.43,Robe/Bale
7.167,2.067,78.8,0.00,Bohicon
7.181,79.866,86.3,0.00,Bandaranaike Intl Colombo
7.187,100.608,83.6,1.46,Songkhla
7.272,-7.587,77.3,0.00,Man
7.333,134.483,82.7,0.94,Babelthuap/Koror Air
7.467,151.85,80.6,1.30,Chuuk International Airport
7.509,99.617,81.3,0.00,Trang
7.533,99.05,84.7,0.00,Ko Lanta
7.565,-72.035,78.0,0.47,Mayor Buenaventura Vivas
7.583,1.117,81.0,0.00,Atakpame/Akpaka
7.666,36.817,62.1,0.20,Jimma Aba Jifar
7.739,-5.074,79.8,0.00,Bouake
7.841,-72.44,76.8,0.55,San Antonio Del Tachira / General Cipriano Castro Intl
7.883,-67.444,82.9,0.00,San Fernando De Apure / Las Flecheras
7.883,98.4,81.5,0.00,Phuket
7.928,-72.512,76.5,0.00,Camilo Daza
8.033,2.467,85.4,0.00,Save
8.033,79.833,86.4,0.00,Puttalam
8.05,-2.783,80.3,0.00,Bondoukou/Soko
8.086,-80.945,82.4,0.00,Ruben Cantu
8.113,98.317,83.3,0.00,Phuket Intl
8.122,-63.537,86.0,0.00,Ciudad Bolivar
8.167,35.55,67.5,0.00,Gore
8.3,73.15,88.2,0.00,Minicoy
8.301,80.428,84.7,0.00,Anuradhapura
8.391,-82.435,79.6,0.00,Enrique Malek Intl
8.4,20.65,84.9,0.00,N'Dele
8.417,124.617,78.2,0.00,Lumbia Airport
8.471,99.956,83.5,0.28,Cha Ian
8.483,76.95,85.7,0.00,Thiruvananthapuram
8.483,124.65,83.4,0.04,Cagayan De Oro
8.539,81.182,88.5,0.00,China Bay
8.582,-71.161,67.2,0.00,Alberto Carnevalli
8.601,123.334,80.3,0.00,Dipolog
8.616,-13.195,80.6,0.00,Freetown Lungi
8.683,106.6,78.8,0.00,Con Son
8.733,39.0,65.6,0.00,Harar Meda (Mil)
8.733,167.733,82.1,1.34,Bucholz Aaf Kwajalein Kmr Atol Ap
8.867,39.9,73.4,0.00,Metehara
8.917,-79.6,80.5,0.00,Howard
8.95,125.483,82.8,0.00,Butuan
8.978,38.799,60.3,0.02,Bole Intl
8.983,-79.517,81.6,0.00,Marcos A. Gelabert
8.983,1.15,84.5,0.00,Sokode
9.027,-69.755,79.8,0.00,Guanare
9.071,-79.383,79.4,0.00,Tocumen Intl
9.133,99.136,84.6,0.00,Surat Thani
9.183,105.15,78.1,0.00,Ca Mau
9.333,-79.983,83.8,0.00,Ft Sherman (Rocob)
9.34,-70.584,74.0,0.24,Dr Antonio Nicolas Briceno
9.35,2.617,85.8,0.00,Parakou
9.387,-5.557,77.5,0.59,Korhogo
9.467,100.05,84.3,0.43,Ko Samui
9.483,138.083,83.5,0.00,Yap International Airport
9.55,1.167,85.8,0.00,Kara
9.553,-69.238,76.7,0.00,Oswaldo Guevara Mujica / Batalla De Araure
9.625,41.854,71.8,0.12,Dire Dawa Intl
9.664,123.853,82.9,0.00,Tagbilaran
9.749,-63.153,75.4,0.00,Maturin / Jose Tadeo Monagas Intl
9.778,98.585,83.2,0.00,Ranong
9.817,-70.933,79.0,0.01,Mene Grande
9.994,-84.209,72.3,0.00,Juan Santamaria Intl
10.107,-64.689,78.1,0.08,General Jose Antonio Anzoategui Intl
10.217,103.967,81.1,0.00,Phu Quoc
10.25,-67.649,79.6,0.00,Mariscal Sucre
10.283,22.783,88.2,0.00,Birao
10.308,123.979,82.0,0.00,Mactan Cebu Intl
10.317,1.383,85.7,0.00,Natitingou
10.333,-3.183,84.4,1.46,Gaoua
10.35,37.717,60.4,0.00,Debre Marcos
10.367,0.467,94.8,0.00,Mango/Sansanne
10.442,-75.513,80.5,0.00,Rafael Nunez
10.485,-66.844,70.8,0.04,Generalisimo Francisco De Miranda Ab
10.558,-71.728,80.6,0.00,La Chinita Intl
10.574,-62.313,81.9,0.00,Guiria / Almirante Cristobal Colon
10.595,-61.337,80.3,0.00,Piarco
10.603,-66.991,78.3,0.02,Simon Bolivar Intl
10.711,99.362,84.1,0.00,Chumphon
10.713,122.541,81.0,0.00,Iloilo
10.765,78.71,91.6,0.08,Tiruchirappalli
10.819,106.652,78.6,0.00,Tan Son Nhat Intl
10.89,-74.781,80.4,0.00,Ernesto Cortissoz
10.917,-63.967,84.2,0.00,Porlamar (Aeropuerto Int Del Caribe)
11.031,77.044,84.3,0.00,Coimbatore
11.083,39.717,67.0,0.01,Combolcha/Dessie
11.12,-74.231,83.6,0.00,Simon Bolivar
11.133,2.933,92.0,0.00,Kandi
11.15,-60.833,80.8,0.00,Crown Point Airport   Tobago
11.15,-1.15,87.7,0.08,Po
11.16,-4.331,82.7,0.00,Bobo Dioulasso
11.228,125.028,81.3,0.00,Daniel Z Romualdez
11.25,75.783,85.0,0.16,Kozhikode
11.35,-5.683,79.2,0.12,Sikasso
11.417,-7.5,84.1,0.00,Bougouni
11.55,43.15,83.6,0.28,Djibouti
11.608,37.322,67.6,0.00,Bahir Dar Ginbot Haya Intl
11.75,-2.933,87.8,0.20,Boromo
11.767,79.767,91.0,0.00,Cuddalore
11.767,102.883,82.9,0.02,Khlong Yai
11.783,124.883,82.3,0.00,Catbalogan
11.788,99.805,84.7,0.00,Prachuap
11.883,3.45,90.2,0.00,Gaya
12.0,-95.0,46.0,0.00,Moored Buoy 43011
12.0,-61.783,82.2,0.00,Point Salimas
12.033,0.367,93.1,0.00,Fada N'Gourma
12.131,-68.269,82.5,0.00,Flamingo
12.189,-68.96,80.8,0.28,Hato
12.353,-1.512,87.0,0.00,Ouagadougou
12.383,-5.467,83.0,0.00,Koutiala
12.467,-3.483,86.0,0.08,Dedougou
12.501,-70.015,82.9,0.05,Reina Beatrix Intl
12.534,-7.95,88.6,0.00,Senou / President Modibo Keita
12.556,-16.282,76.9,0.00,Ziguinchor
12.572,-12.22,90.7,0.00,Kedougou
12.584,-81.711,80.9,0.00,Gustavo Rojas Pinilla
12.6,102.117,82.1,0.16,Chanthaburi
12.636,99.952,85.2,0.00,Hua Hin
12.683,100.983,81.2,0.00,Sattahip
12.683,101.0,82.1,0.00,U-Taphao Intl(Navy)
12.833,45.033,86.0,0.00,Aden Khormaksar
12.961,74.89,86.6,0.00,Mangalore
12.967,77.583,79.3,0.01,Bangalore
12.983,8.933,87.6,0.00,Magaria
12.994,80.181,91.3,0.00,Chennai Intl
13.067,-9.467,94.1,0.00,Kita
13.075,-59.492,80.7,0.00,Grantley Adams Intl
13.1,-59.617,81.5,0.00,Bridgetown (City)
13.144,-61.211,81.8,0.00,E T Joshua
13.157,123.746,81.8,0.39,Legazpi
13.167,100.8,83.2,0.00,Ko Sichang
13.233,11.983,91.0,0.00,Maine-Soroa
13.283,-87.667,85.7,0.00,Amapala/Los Pelonas
13.3,-87.183,82.9,0.49,Choluteca
13.367,100.983,84.6,0.51,Chon Buri/Sattahip / Suvarnabhumi Intl
13.4,-6.15,88.6,0.00,Segou
13.433,-89.05,79.4,0.00,El Salvador Intl
13.482,2.184,94.6,0.00,Diori Hamani
13.483,144.8,78.5,1.00,Guam International Airport
13.503,7.127,90.7,0.00,Maradi
13.567,-2.417,92.9,0.00,Ouahigouya
13.567,144.917,77.8,1.42,Andersen Afb
13.654,124.341,78.4,0.00,Catanduanes Radar
13.699,-89.12,76.9,0.00,Ilopango Intl
13.7,102.504,80.0,0.67,Aranyaprathet
13.733,100.567,84.7,0.00,Bangkok Metropolis
13.737,-13.653,87.7,0.00,Tambacounda
13.767,109.217,82.3,0.00,Quy Nhon
13.779,8.984,91.4,0.00,Zinder
13.8,5.25,90.4,0.00,Birni-N'Konni
13.913,100.607,81.9,1.18,Bangkok Intl / Don Mueang Intl
13.936,-90.836,80.1,0.00,San Jose
13.983,10.3,92.8,0.00,Goure
14.017,99.533,84.6,0.79,Kanchana Buri
14.017,121.6,77.5,0.00,Tayabas
14.02,-60.993,81.2,0.00,George F L Charles
14.033,-61.017,80.0,0.01,Castries
14.033,-0.033,93.1,0.00,Dori
14.061,-87.217,71.8,1.50,Toncontin Intl
14.078,101.38,83.4,0.35,Khao E To
14.129,122.98,77.7,0.91,Daet
14.147,-16.051,81.1,0.00,Kaolack
14.2,1.45,95.9,0.00,Tillabery
14.233,76.433,83.8,0.00,Chitradurga
14.25,13.117,91.3,0.00,N'Guigmi
14.45,79.983,94.6,0.00,Nellore
14.467,100.133,85.1,0.00,Suphan Buri
14.482,-11.44,93.2,0.00,Kayes/Dag-Dag
14.5,120.9,85.8,0.00,Sangley Point
14.509,121.02,83.2,0.00,Ninoy Aquino Intl
14.583,-90.527,68.5,0.00,La Aurora
14.583,77.633,95.5,0.00,Pbo Anantapur
14.583,120.983,82.8,0.00,Manila
14.591,-61.003,77.3,0.02,Le Lamentin
14.65,-16.233,75.1,0.00,Diourbel
14.74,-17.49,65.3,0.00,Leopold Sedar Senghor Intl
14.75,121.65,82.6,0.00,Infanta
14.783,-88.783,69.3,0.00,Santa Rosa De Copan
14.8,100.617,77.0,0.00,Lop Buri
14.8,120.267,83.9,0.00,Subic Bay Weather
14.876,5.265,91.8,0.00,Tahoua
14.883,-92.3,84.8,0.00,Tapachula/Airport
14.883,103.5,83.2,2.13,Surin
14.9,-85.933,80.5,0.00,Catacamas
14.917,-92.25,81.5,0.00,Tapachula  Chis
14.935,102.079,82.0,0.12,Khorat
15.0,-75.0,51.7,0.00,Data Buoy 41018
15.117,145.733,81.4,0.01,Saipan/Isley (Cgs)
15.167,-87.117,81.2,0.00,Yoro
15.186,120.56,80.9,0.00,Clark Intl / Diosdado Macapagal Intl
15.251,104.87,83.0,0.08,Ubon Ratchathani
15.261,-83.781,78.0,0.00,Puerto Lempira
15.292,38.911,63.4,0.00,Asmara Intl
15.317,-91.467,64.1,0.00,Huehuetenango
15.317,120.383,85.8,0.00,Crow Valley Gunnery Range
15.383,-15.117,78.6,0.00,Linguere
15.417,75.633,88.8,0.00,Gadag
15.453,-87.924,80.8,0.00,La Mesa Intl / Ramon Villeda Morales Intl
15.483,73.817,83.9,0.00,Goa/Panjim
15.65,-13.25,84.3,0.00,Matam/Ouro Sogui
15.673,100.137,88.1,0.00,Nakhon Sawan
15.73,121.5,83.4,0.00,Baler
15.731,-88.584,78.6,0.00,Puerto Barrios
15.742,-86.853,77.9,0.00,Goloson Intl
15.776,-87.476,82.8,0.00,Tela
15.8,78.067,95.0,0.00,Kurnool
15.8,102.033,79.2,0.31,Chaiyaphum
15.859,74.618,85.6,0.00,Belgaum
15.983,48.95,90.4,0.00,Seiyoun           &
16.051,-16.463,66.6,0.00,Saint Louis Ousmane Masseck Ndiaye
16.07,103.646,80.5,0.12,Rob Muang
16.16,-13.508,87.8,0.00,Kaedi
16.2,81.15,88.1,0.00,Machilipatnam/Franchpet
16.233,-93.9,85.8,0.00,Arriaga  Chis.
16.248,-0.005,96.0,0.00,Gao
16.265,-61.532,76.2,0.01,Le Raizet
16.375,120.62,71.2,0.00,Baguio
16.445,-85.907,84.1,0.00,La Laguna Airport - Guanaja
16.467,102.784,83.5,0.00,Khon Kaen
16.5,-15.817,75.8,0.00,Rosso
16.533,104.717,82.2,0.20,Mukdahan
16.533,111.617,81.6,0.00,Sanhu Dao
16.59,-11.406,91.9,0.00,Kiffa
16.622,-7.317,89.8,0.00,Nema
16.65,-14.967,77.1,0.00,Podor
16.676,101.195,83.8,0.00,Phetchabun
16.7,98.545,87.4,0.00,Mae Sot
16.711,-9.638,88.1,0.00,Aioun El Atrouss
16.741,-22.949,68.2,0.00,Amilcar Cabral Intl
16.75,-93.133,78.1,0.00,Francisco Sarabia / Tuxtla Gutierrez Intl
16.75,-62.167,78.3,0.00,Blackburne/Plymouth
16.757,-99.754,74.9,0.00,General Juan N Alvarez Intl / Acapulco Intl
16.783,100.279,85.9,0.00,Phitsanulok
16.833,112.333,79.8,0.00,Xisha Dao
16.896,99.253,90.3,0.00,Tak
16.9,96.183,88.6,0.00,Mingaladon
16.901,42.586,83.8,0.00,King Abdullah Bin Abdulaziz
16.917,-89.883,80.5,0.00,Flores/Santa Elena
16.933,54.017,88.5,0.00,Mina Salalah
16.95,82.233,93.0,0.00,Kakinada
16.967,7.967,90.5,0.00,Agadez / Mano Dayak
16.983,73.333,81.9,0.00,Ratnagiri
17.0,-96.733,70.8,0.00,Xoxocotlan Intl / Oaxaca Intl
17.039,54.091,82.3,0.00,Salalah
17.05,-96.717,66.7,0.22,Oaxaca  Oax.
17.137,-61.793,75.5,0.24,V C Bird Intl
17.15,104.133,81.4,0.04,Sakon Nakhon
17.233,99.05,89.6,0.00,Bhumibol Dam
17.283,-62.733,78.4,0.03,Basseterre
17.311,-62.719,76.7,0.02,Robert L Bradshaw
17.386,102.788,80.7,0.00,Udon Thani
17.417,104.783,81.1,0.08,Nakhon Phanom
17.439,101.722,81.6,1.18,Loei
17.45,47.15,83.6,0.00,Sharurah (Civ/Mil)&
17.452,78.461,93.5,0.00,Begumpet Airport / Hyderabad Intl
17.467,47.121,85.2,0.00,Sharurah
17.52,-152.48,74.3,0.00,Se Hawaii 185 Nm Southeast Of Hilo  Hi
17.533,-14.683,80.1,0.00,Boutilimit
17.539,-88.308,80.6,0.00,Philip S W Goldson Intl
17.55,-99.5,73.5,0.00,Chilpancingo  Ro.
17.602,-101.461,76.0,0.00,Ixtapa Zihuatanejo Intl
17.611,44.419,77.7,0.00,Nejran
17.617,100.1,84.6,0.00,Uttaradit
17.628,75.935,92.2,0.00,Solapur
17.638,121.731,77.4,0.00,Tuguegarao
17.666,54.025,84.0,0.00,Thumrait
17.7,83.3,85.2,0.00,Cwc Vishakhapatnam/Waltair
17.789,-97.772,69.4,0.08,Huajuapan De Leon Oax
17.867,102.75,79.7,0.08,Nong Khai
17.9,-62.85,78.0,0.00,Gustavia/St.Barthel
17.936,-76.788,79.6,0.00,Norman Manley Intl
17.988,102.563,78.8,0.00,Wattay Intl
18.017,-92.95,84.3,0.00,Villahermosa      &
18.017,-66.567,84.5,0.00,Ponce/Mercedita
18.041,-63.109,80.5,0.00,Princess Juliana Intl
18.098,-15.948,67.3,0.00,Nouakchott
18.132,100.165,86.9,0.00,Phrae
18.167,97.933,87.2,0.00,Mae Sariang
18.178,120.532,87.9,0.00,Laoag Intl
18.183,-94.5,80.8,0.00,Coatzacoalcos  Ver
18.217,109.583,81.3,0.00,Sanya
18.24,42.657,61.1,0.00,Abha
18.25,-67.15,78.9,0.00,Eugenio Maria De Ho
18.251,-71.12,76.7,0.09,Maria Montez Intl
18.255,-65.641,76.1,3.90,Naval Station Roosevelt Roads Ceiba
18.271,99.504,87.6,0.00,Lampang
18.297,42.804,62.0,0.00,King Khaled Ab
18.336,-64.98,82.5,0.00,Cyril E King Airport
18.367,121.633,83.3,0.00,Aparri
18.417,-66.0,77.0,0.00,San Juan Intl Arpt
18.43,-69.669,76.7,0.17,De Las Americas Intl
18.433,-69.883,77.3,0.00,Santo Domingo
18.433,-66.011,77.0,0.00,San Juan L M Marin Intl Ap
18.5,-67.133,78.5,0.00,Aquadilla/Borinquen
18.504,-77.913,78.0,0.00,Sangster Intl
18.505,-88.327,82.6,0.00,Chetumal Intl
18.533,73.85,82.4,0.00,Pune
18.57,-11.424,81.3,0.00,Tidjikja
18.58,-72.293,82.5,0.00,Toussaint Louverture Intl / Port Au Prince Intl
18.65,-91.783,85.8,0.00,Ciudad Del Carmen
18.683,12.917,83.5,0.00,Bilma
18.717,-110.95,74.5,0.00,Isla Socorro  Col.
18.767,79.433,105.1,0.00,Ramgundam
18.767,98.963,83.1,0.00,Chiang Mai Intl
18.8,95.217,86.2,0.00,Prome
18.808,100.783,85.3,0.00,Nan
18.85,-97.1,65.2,0.10,Orizaba  Ver.
19.05,-104.317,73.0,0.00,Manzanillo  Col.
19.05,-69.383,79.3,0.00,Sabana De La Mar
19.083,82.033,94.2,0.00,Jagdalpur
19.089,72.868,84.1,0.00,Chhatrapati Shivaji Maharaj Intl
19.1,108.617,81.1,0.00,Dongfang
19.145,-104.559,71.4,0.00,Playa De Oro Intl / Manzanillo Intl
19.15,-96.117,80.2,0.00,Hacienda Ylang Ylang Veracruz  Ver.
19.16,-160.74,75.0,0.00,W Hawaii 205 Nm Southwest Of Honolulu  H
19.2,-96.133,81.7,0.00,Veracruz/Gen Jara
19.233,110.467,78.4,0.00,Qionghai
19.283,166.65,77.8,0.00,Wake Island Airfld
19.301,97.976,86.6,0.00,Mae Hong Son
19.317,-98.25,62.5,0.04,Tlaxcala  Tlax.
19.397,-102.039,79.2,0.00,Licenciado Y Gen Ignacio Lopez Rayon / Uruapan
19.4,-99.183,65.1,0.04,Mexico (Central)   D.F.
19.406,-70.605,74.5,0.00,Cibao Intl
19.433,-99.133,64.4,0.08,Aerop Internacional Mexico  D F
19.517,109.583,79.8,0.00,Danxian
19.683,-79.883,80.9,0.00,Cayman Brac
19.7,-101.183,70.6,0.00,Morelia  Mich.
19.717,-103.467,68.7,0.00,Ciudad Guzman  Jal.
19.719,-155.053,70.8,0.08,Hilo International Airport
19.733,-156.033,76.7,0.00,Kona Intl At Keahol
19.75,-155.55,59.0,0.00,Bradshaw Aaf
19.75,-14.367,77.5,0.00,Akjoujt
19.758,-70.57,78.1,0.00,Gregorio Luperon Intl
19.833,-90.517,82.9,0.00,Campeche/Ignacio  &
19.85,-101.026,23.4,0.00,General Francisco J Mujica Intl / Morelia Intl
19.85,-77.233,75.7,0.00,Cabo Cruz  Granma
19.863,75.398,88.1,0.00,Aurangabad
19.885,99.827,84.5,0.00,Chiang Rai
19.9,-75.15,77.9,0.00,Guantanamo Bay Naval Air Station
19.97,-75.835,77.4,0.00,Antonio Maceo Intl
19.983,-102.317,73.1,0.00,Zamora  Mich.
19.984,42.621,74.1,0.00,Bisha
20.0,110.25,78.7,0.00,Haikou
20.001,-155.668,69.1,0.00,Waimea Kohala
20.083,-98.367,62.0,0.04,Tulancingo  Hgo.
20.133,-98.75,57.5,0.19,Pachuca  Hgo.
20.133,-75.233,74.5,0.00,Guantanamo   Guantanamo
20.244,85.818,87.2,0.00,Bhubaneshwar / Biju Patnaik Intl
20.296,41.634,69.0,0.00,Al Baha / King Saud Bin Abdulaziz
20.365,-74.506,77.7,0.00,Gustavo Rizo
20.4,-157.1,13.0,0.00,Data Buoy 51027
20.4,-76.617,80.1,0.00,Bayamo
20.467,45.667,80.4,0.00,Sulayel
20.507,-13.043,76.4,0.00,Atar
20.517,-103.317,72.6,0.00,Guadalajara Intl  &
20.517,-86.95,80.1,0.00,Cozumel Intl Arpt &
20.517,-86.933,80.3,0.00,Cozumel (Fam) Q Roc
20.667,116.717,79.9,0.00,Dongsha
20.675,58.89,87.5,0.00,Masirah
20.683,-105.25,75.2,0.00,Puerto Vallarta
20.833,95.833,93.8,0.00,Meiktila
20.85,88.25,85.1,0.00,Sandheads
20.9,-156.429,72.4,0.00,Kahului Airport
20.917,-156.683,77.8,0.00,Kaanapali  Maui   Hawaii
20.933,-17.03,64.1,0.00,Nouadhibou
20.937,-89.658,83.5,0.00,Licenciado Manuel Crescencio Rejon Int / Merida Intl
20.988,-76.936,78.3,0.00,Hermanos Ameijeiras
21.0,-101.283,68.7,0.00,Guanajuato  Gto.
21.017,-86.867,80.7,0.08,Cancun Intl
21.033,109.117,75.5,0.00,Wei-Zhou Island
21.067,-101.55,79.7,0.00,Leon/San Carlos
21.092,79.047,94.6,0.00,Dr Baba Saheb Ambedkar Intl
21.15,-157.1,70.9,0.00,Molokai (Amos)
21.2,-76.617,75.0,0.00,Puerto Padre   Las Tunas
21.2,72.833,86.6,0.00,Surat
21.217,110.4,76.5,0.00,Zhanjiang
21.221,105.807,80.7,0.00,Noibai Intl
21.317,-158.067,74.6,0.00,Kalaeloa Arpt
21.324,-157.929,75.6,0.00,Honolulu International Airport
21.4,-77.85,72.0,0.00,Camaguey  Camaguey
21.42,-77.848,72.0,0.00,Ignacio Agramonte Intl
21.433,39.767,84.2,0.00,Makkah
21.45,-157.768,75.1,0.00,Kaneohe Mcas
21.452,91.964,84.6,0.00,Coxs Bazar
21.483,40.544,69.2,0.00,Taif
21.483,109.1,78.8,0.00,Beihai
21.487,-158.028,74.1,0.04,Wheeler Army Airfield
21.5,101.583,74.5,1.65,Mengla
21.517,86.933,89.4,0.01,Balasore
21.68,39.157,81.1,0.00,King Abdulaziz Intl
21.705,-102.318,70.3,0.00,Jesus Teran Intl / Aguascalientes Intl
21.733,-82.767,75.6,0.00,La Fe  Isla De La Juventud
21.733,112.767,75.1,0.00,Shangchuan Dao
21.835,-82.784,78.0,0.00,Rafael Cabrera
21.867,111.967,75.6,0.00,Yangjiang
21.933,-99.983,71.1,0.00,Rio Verde  S.L.P.
21.933,-79.45,75.5,0.00,Sancti Spiritus   Sancti Spiritus
21.95,108.617,77.7,0.02,Qinzhou
21.984,-159.341,75.1,0.00,Lihue Airport
22.0,100.783,74.4,0.04,Jinghong
22.0,120.75,78.5,0.00,Hengchun
22.029,121.534,73.1,0.00,Lanyu
22.033,-159.783,78.0,0.00,Barking Sands Pacific Missile Range Fac Arpt
22.033,121.55,73.5,0.00,Lan Yu
22.041,120.73,76.1,0.00,Hengchun
22.067,-81.033,73.5,0.00,Playa Giron  Matanzas
22.1,-103.267,65.8,0.00,Colotlan  Jal.
22.15,-159.65,56.0,0.00,Kokee  Kauai  Hawaii
22.15,113.592,74.0,0.00,Macau Intl
22.2,-97.85,78.0,0.00,Tampico  Tamps
22.217,50.883,81.3,0.00,Obaylah (Aut)
22.25,91.813,85.1,0.00,Shah Amanat Intl
22.254,-100.931,62.6,0.38,Ponciano Arriaga Intl / San Luis Potosi Intl
22.283,-97.85,77.0,0.00,Tampico/Gen Fj Mina
22.3,114.167,74.8,0.00,Hong Kong Observatory
22.309,70.78,89.4,0.00,Rajkot
22.309,113.915,75.1,0.00,Hong Kong Intl
22.35,110.933,78.2,0.00,Xinyi
22.35,120.9,77.3,0.00,Dawu
22.367,106.75,77.6,0.00,Longzhou
22.417,-83.683,77.3,0.00,Pinar Del Rio
22.417,120.55,71.5,0.00,Chia Tung
22.467,-111.533,81.4,0.00,Puerto Cortes
22.517,54.05,83.5,0.00,Shawalah
22.533,59.483,90.2,0.00,Sur
22.567,99.933,73.1,0.01,Lancang
22.577,120.35,74.6,0.00,Kaohsiung Intl
22.608,108.172,77.4,0.04,Wuxu
22.617,101.817,66.3,1.06,Jiangcheng
22.633,120.283,76.4,0.00,Kaohsiung
22.639,113.811,76.8,0.00,Baoan Intl
22.655,88.447,86.4,0.00,Netaji Subhash Chandra Bose Intl
22.667,-102.55,79.0,0.00,San Jose Del Cabo &
22.672,120.462,75.3,0.00,Pingtung South
22.7,120.482,74.3,0.00,Pingtung North
22.722,75.801,90.6,0.00,Devi Ahilyabai Holkar
22.75,-12.483,68.3,0.00,Zouerate
22.75,121.15,76.1,0.00,Taidong
22.755,121.102,73.1,0.00,Taitung / Fongnian
22.767,-81.533,74.5,0.00,Union De Reyes   Matanzas
22.767,81.9,90.9,0.00,Pendra Road
22.767,100.983,67.8,0.09,Simao
22.783,-102.567,56.3,0.00,Zacatecas  Zac. (La Bufa  Zac.)
22.783,115.367,75.2,0.00,Shanwei
22.783,120.262,72.4,0.00,Gangshan
22.793,121.182,74.8,0.00,Jhihhang
22.8,5.433,76.6,0.00,Tamanrasset
22.817,-80.083,71.3,0.00,Sagua La Grande   Villa Clara
22.897,-102.687,66.7,0.00,General Leobardo C Ruiz Intl / Zacatecas Intl
22.917,-83.167,75.4,0.00,Bahia Honda  Pinar Del Rio
22.933,97.75,86.0,0.00,Lashio
22.95,120.206,74.7,0.00,Tainan
22.989,-82.409,73.6,0.00,Jose Marti Intl
23.0,120.217,78.5,0.00,Tainan (=593580)
23.034,-81.435,74.6,0.00,Juan Gualberto Gomez Intl
23.05,112.467,77.7,0.00,Gaoyao
23.077,72.635,91.1,0.00,Ahmedabad / Sardar Vallabhbhai Patel Intl
23.1,121.367,75.4,0.00,Cheng-Kung
23.15,-106.25,73.3,0.00,Mazatlan/G.Buelna I
23.167,-82.35,74.4,0.00,Casa Blanca   La Habana
23.178,80.052,92.3,0.00,Jabalpur
23.184,89.161,85.7,0.00,Jessore / Jashore
23.2,-106.417,74.7,0.00,Colonia Juan Carrasco Mazatlan  Sin.
23.267,119.667,73.8,0.00,Dongshi
23.287,77.337,90.1,0.00,Bhopal / Raja Bhoj
23.288,69.67,87.5,0.00,Bhuj
23.3,105.95,72.4,0.43,Napo
23.392,113.299,76.2,0.00,Baiyun Intl
23.4,110.083,74.9,0.02,Guiping
23.4,116.683,73.7,0.00,Shantou / Chaoshan
23.43,-162.21,73.4,0.00,Nw Hawaii 170 Nm West Northwest Of Kauai
23.45,103.333,74.8,0.00,Mengzi
23.462,120.393,73.2,0.00,Chiayi
23.483,111.3,76.9,0.00,Wuzhou
23.483,120.95,48.2,0.00,Mount Morrison
23.5,119.5,73.7,0.00,Penghu Islands
23.5,120.45,73.2,0.00,Chiayi
23.517,119.567,73.1,0.00,Magong
23.517,120.8,52.2,0.00,Mount Alisan
23.567,99.083,75.7,0.14,Mengding
23.569,119.628,70.6,0.00,Magong / Penghu
23.583,103.867,66.3,0.00,Dehoujie
23.593,58.284,88.7,0.00,Seeb Intl / Muscat Intl
23.6,101.983,81.8,0.00,Yuanjiang
23.633,58.567,94.6,0.00,Mina Sultan Qaboos
23.704,-98.957,77.6,0.00,General Pedro Jose Mendez Intl / Ciudad Victoria Intl
23.767,-98.2,76.0,0.26,Soto La Marina   Tamps.
23.779,90.383,87.2,0.00,Tejgaon
23.8,114.733,76.5,0.00,Heyuan
23.867,-166.283,73.6,0.00,French Frigate Shoals
23.883,113.517,77.1,0.00,Fogang
23.883,120.85,68.8,0.00,Joyutang
23.887,91.24,79.0,0.00,Agartala
23.9,106.6,76.7,0.63,Baise
23.95,100.217,67.1,0.01,Lincang
23.964,32.82,88.5,0.00,Aswan Intl
23.983,121.6,69.7,0.00,Hua-Lien City
24.0,97.85,77.3,0.00,Ruili
24.017,121.617,72.7,0.00,Hualian
24.023,121.618,68.5,0.00,Hualien
24.05,-104.6,64.3,0.00,Durango  Dgo.
24.067,105.067,70.4,0.31,Guangnan
24.073,-110.362,69.3,0.00,General Manuel Marquez De Leon Intl / La Paz Intl
24.124,-104.528,66.3,0.00,Durango Intl
24.144,38.063,76.6,0.00,Yenbo / Prince Abdulmohsin Bin Abdulaziz
24.15,120.683,74.5,0.00,Taizhong
24.153,89.049,86.9,0.00,Ishurdi
24.179,23.314,80.4,0.00,Kufra
24.186,120.654,68.8,0.00,Taichung
24.2,110.517,70.6,0.20,Mengshan
24.233,55.783,85.1,0.00,Buraimi (Aut)
24.25,120.517,74.7,0.00,Wu-Chi Observatory
24.265,120.621,69.8,0.00,Taichung Intl / Ching Chuang Kang Ab
24.283,116.067,75.1,0.00,Mei Xian
24.29,153.979,75.8,0.71,Minami Torishima
24.293,9.452,87.7,0.00,Tiska
24.345,124.187,75.7,0.00,New Ishigaki
24.35,109.4,73.2,0.28,Liuzhou
24.367,114.483,76.5,0.00,Lianping
24.428,54.458,79.1,0.00,Al Bateen Executive
24.428,118.359,68.2,0.00,Shang Yi / Kinmen
24.433,54.651,78.2,0.00,Abu Dhabi Intl / Zayed Intl
24.467,56.65,91.3,0.00,Sohar Majis
24.467,122.983,79.7,0.00,Yonaguni-Jima
24.533,103.767,65.5,0.00,Luxi
24.544,118.128,71.6,0.00,Gaoqi
24.553,39.705,81.4,0.00,Prince Mohammad Bin Abdulaziz
24.557,-81.755,76.9,0.00,Key West International Airport
24.583,-81.683,75.7,0.00,Key West Nas
24.6,121.85,73.7,0.00,Suao Met Station
24.667,113.6,73.9,3.19,Shaoguan
24.7,108.05,71.5,0.71,Hechi
24.722,46.725,76.5,0.00,King Salman Ab
24.75,121.767,73.4,0.00,Ilan
24.75,121.783,72.7,0.00,Ilan City
24.783,125.295,73.4,0.00,Miyako
24.784,141.323,74.1,0.00,Iwoto
24.8,112.367,75.3,0.51,Lianzhou
24.817,-107.4,78.2,0.00,Culiacan (City)   &
24.818,120.939,70.1,0.00,Hsinchu
24.827,125.145,76.3,0.00,Shimojishima
24.833,120.0,74.2,0.00,Hsinchu City
24.85,89.367,82.0,0.16,Bogra
24.867,94.917,85.4,0.00,Homalin
24.907,67.161,84.7,0.00,Jinnah Intl
24.95,115.65,74.9,0.00,Xunwu
24.958,46.699,73.7,0.00,King Khaled Intl
24.963,91.867,77.3,0.00,Osmani Intl
24.983,98.5,65.2,0.00,Tengchong
24.992,102.744,64.6,0.00,Wujiaba / Changshui
25.017,101.517,68.2,0.00,Chuxiong
25.033,121.517,75.9,0.00,Taibei
25.039,-77.466,72.5,0.00,Nassau Intl / Lynden Pindling Intl
25.05,121.217,73.7,0.00,Taoyuan
25.056,121.243,72.1,0.00,Taoyuan
25.067,121.533,76.8,0.00,589690
25.068,61.805,84.2,0.00,Jiwani
25.069,121.552,74.2,0.00,Songshan
25.078,121.233,73.3,0.00,Chiang Kai Shek Intl / Taoyuan Intl
25.1,117.017,74.1,0.00,Longyan
25.117,99.183,61.9,0.00,Baoshan
25.15,121.8,72.9,0.00,Chilung
25.16,75.846,91.0,0.00,Kota
25.17,-94.42,74.0,0.00,W Gulf 240 Nm South-Southeast Of Sabine
25.218,110.039,68.7,0.40,Liangjiang
25.237,-11.589,64.4,0.00,Bir Moghrein
25.255,55.364,79.8,0.00,Dubai Intl
25.261,51.565,79.1,0.00,Doha Intl
25.285,49.485,77.4,0.00,Al Ahsa
25.3,51.55,81.4,0.00,Doha Port
25.329,55.517,78.5,0.00,Sharjah Intl
25.367,-101.017,60.3,0.44,Plan De Guadalupe Intl / Saltillo Intl
25.383,68.417,86.9,0.00,Hyderabad
25.433,105.183,65.1,0.02,Xingren
25.433,106.767,68.8,0.31,Luodian
25.45,30.533,82.6,0.00,Kharga
25.483,-80.383,73.0,0.00,Homestead Afb Airport
25.517,69.783,90.0,0.00,Chhor
25.517,119.783,70.4,0.00,Pingtan
25.533,-103.45,74.3,0.00,Torreon Airport   &
25.583,103.833,63.3,0.00,Zhanyi
25.591,85.088,88.2,0.00,Jai Prakash Narayan Intl Patna
25.613,55.939,79.2,0.00,Ras Al Khaimah Intl
25.633,122.067,72.0,0.00,Pengjia Yu(=589740)
25.65,-80.433,79.2,0.00,Kendall Tamiami Exec
25.671,32.707,82.9,0.00,Luxor Intl
25.673,21.091,79.2,0.00,Tazerbo
25.685,-109.081,76.6,0.00,Valle Del Fuerte Intl / Los Mochis Intl
25.7,100.183,67.7,0.00,Dali
25.717,118.1,60.4,0.00,Jiuxian Shan
25.733,89.233,84.5,0.00,Rangpur
25.733,101.867,76.7,0.00,Yuanmou
25.733,112.967,70.3,0.20,Chenzhou
25.767,-97.533,77.8,0.00,Matamoros Intl
25.788,-80.317,74.2,0.00,Miami International Airport
25.833,107.55,60.0,0.12,Dushan
25.84,-89.66,79.5,0.00,Mid Gulf 180 Nm South Of Southwest Pass
25.847,131.263,72.0,0.00,Minami Daito
25.85,114.95,79.0,0.00,Ganzhou
25.85,116.367,72.6,0.00,Changting
25.866,-100.237,73.6,0.00,Del Norte Intl
25.914,-97.423,75.5,0.00,Brownsville/S Padre Island Intl Ap
25.967,108.533,70.9,0.16,Rongjiang
25.967,117.35,72.5,0.00,Yong'An
26.0,-111.367,81.2,0.00,Loreto            &
26.01,-85.91,79.0,0.00,E Gulf 260 Nm South Of Panama City  Fl
26.017,-98.233,81.9,0.91,Reynosa Intl
26.072,-80.154,75.6,0.00,Fort Lauderdale Hol
26.083,119.283,73.0,0.00,Fuzhou
26.106,91.586,85.1,0.00,Guwahati Intl / Lokpriya Gopinath Bordoloi Intl
26.133,34.25,76.7,0.00,Kosseir
26.153,-81.775,74.6,0.00,Naples Muni
26.16,119.958,65.8,0.00,Nangan
26.167,109.783,66.9,0.33,Tongdao
26.167,119.933,67.6,0.00,Mazu
26.184,-98.254,77.3,0.00,Mc Allen Miller Intl Arpt
26.196,127.646,71.0,0.00,Naha
26.199,36.476,75.3,0.00,Wejh
26.2,127.683,70.8,0.00,Naha
26.228,-97.654,77.6,0.00,Valley International Arpt
26.233,111.617,68.0,0.39,Lingling
26.265,50.152,76.4,0.00,King Abdulaziz Ab
26.267,127.75,74.6,0.00,Okinawa Marine Corps Air Station
26.271,50.634,77.1,0.00,Bahrain Intl
26.293,78.228,92.8,0.00,Gwalior
26.3,43.767,73.3,0.00,Gassim
26.356,127.768,72.5,0.00,Kadena Ab
26.364,126.714,74.4,0.00,Kumejima
26.4,103.25,54.7,0.00,Huize
26.533,-81.75,73.8,0.00,Southwest Florida I
26.539,106.801,61.5,0.12,Longdongbao
26.559,-78.696,75.9,0.00,Grand Bahama Intl
26.585,-81.861,75.5,0.00,Page Field Airport
26.633,118.15,73.1,0.00,Nanping
26.65,102.25,66.3,0.00,Huili
26.685,-80.099,74.0,0.00,Palm Beach International Airport
26.733,110.633,67.1,0.63,Wugang
26.761,80.889,90.5,0.00,Lucknow / Chaudhary Charan Singh Intl
26.824,75.812,89.3,0.00,Jaipur
26.833,100.217,58.8,0.00,Lijing
26.85,116.333,74.4,0.00,Guangchang
26.867,104.283,43.0,0.00,Weining
26.955,64.133,83.4,0.00,Panjgur
26.956,-101.47,78.4,0.00,Monclova Intl
26.967,108.667,64.2,0.51,Sansui
26.987,14.473,85.5,0.00,Sebha
27.0,120.7,65.7,0.01,Taishan
27.047,31.012,76.4,0.00,Asyut Intl
27.092,142.191,69.8,0.22,Chichi Jima Bonin Island
27.117,114.967,73.5,0.02,Ji'An
27.156,77.961,84.4,0.00,Agra
27.183,111.45,66.9,0.43,Shaoyang
27.233,2.5,83.9,0.00,In-Salah
27.3,105.233,51.1,0.00,Bijie
27.3,112.7,51.2,0.98,Nanyue
27.333,103.75,47.3,0.02,Zhaotong
27.333,117.467,70.1,0.00,Shaowu
27.333,120.2,71.2,0.00,Fuding
27.383,-82.55,73.0,0.00,Sarasota Bradenton
27.426,128.701,72.0,0.00,Okierabu
27.433,-99.567,82.7,0.00,Nuevo Laredo
27.438,41.686,72.8,0.00,Hail
27.45,109.683,65.3,0.51,Zhijiang
27.467,121.05,65.2,0.00,Nanji Shan
27.483,-109.917,79.2,0.00,Ciudad Obregon  Son
27.5,-97.817,72.5,0.00,Kingsville Nas
27.55,-99.467,78.9,0.00,Laredo Intl Airport
27.583,116.65,71.9,0.00,Nancheng
27.65,-81.333,78.8,0.00,Avon Park Gunnery R
27.653,-80.243,70.8,0.00,Vero Beach Muni
27.683,-97.283,74.0,0.00,Corpus Christi Nas
27.697,85.359,75.0,0.00,Tribhuvan Intl
27.7,-8.167,64.8,0.00,Tindouf
27.7,106.883,59.1,0.08,Zunyi
27.733,89.083,32.3,0.01,Pagri
27.741,-98.025,77.0,0.00,Alice International Arpt
27.774,-97.512,70.4,0.00,Corpus Christi International Airport
27.8,114.383,68.8,0.08,Yichun
27.815,-17.887,66.0,0.00,Hierro
27.836,128.881,73.6,0.00,Tokunoshima
27.838,-0.186,75.6,0.00,Touat Cheikh Sidi Mohamed Belkebir
27.85,-82.517,74.3,0.00,Mac Dill Afb Airport
27.9,-82.683,78.9,0.00,St Petersburg Clear
27.9,102.267,67.1,0.00,Xichang
27.917,118.533,72.1,0.00,Pucheng
27.932,-15.387,61.4,0.00,Gran Canaria
27.95,-110.767,74.7,0.00,Empalme  Son.
27.95,108.25,64.6,0.75,Sinan
27.95,117.833,59.8,0.00,Qixian Shan
27.962,-82.54,74.7,0.00,Tampa International Airport
27.969,-110.925,81.5,0.00,General Jose Maria Yanez Intl / Guaymas Intl
27.983,-82.017,82.9,0.00,Lakeland Linder Rgn
28.0,73.3,90.9,0.00,Bikaner
28.017,120.667,69.7,0.00,Wenzhou
28.02,-95.87,71.9,0.00,South Brazos A70
28.044,-16.572,64.2,0.00,Tenerife Sur
28.052,9.643,87.9,0.00,In Amenas
28.083,30.733,70.8,0.00,Minya
28.101,-80.644,73.1,0.00,Melbourne Intl Ap
28.2,-177.383,68.3,1.42,Henderson Field Airport
28.2,113.083,62.9,0.51,Changsha/Datuopu
28.233,-80.6,75.7,0.00,Patrick Afb Airport
28.284,68.45,93.1,0.00,Shahbaz Ab
28.333,28.867,68.6,0.00,Baharia
28.335,46.125,76.4,0.00,Al Qaisumah Intl
28.365,36.619,71.2,0.00,Tabuk / Prince Sultan Bin Abdulaziz
28.367,-97.667,71.5,0.00,Chase Naval Air Station
28.394,129.553,69.3,0.00,Naze/Funchatoge
28.417,92.467,48.3,0.00,Lhunze
28.431,129.713,73.2,0.00,Amami
28.434,-81.325,75.1,0.00,Orlando International Airport
28.45,-16.25,63.1,0.12,Sta. Cruz De Tenerife
28.45,98.883,41.6,0.02,Deqen
28.45,119.917,76.8,0.00,Lishui
28.45,121.883,64.1,0.00,Dachen Dao
28.453,-13.864,65.6,0.00,Fuerteventura
28.457,-99.218,75.1,0.00,Cotulla-La Salle Co Arpt
28.467,110.4,60.8,1.34,Yuanling
28.483,-16.342,53.8,0.00,Tenerife Norte
28.517,-80.8,78.5,0.00,Space Coast Rgnl
28.545,-81.333,7.7,0.00,Atoka Muni
28.585,77.206,87.9,0.00,Safdarjung
28.617,-80.7,73.0,0.00,Nasa Shuttle Fclty
28.626,-17.756,64.3,0.00,La Palma
28.633,87.083,36.5,0.00,Tingri
28.65,70.683,87.4,0.00,Khanpur
28.7,-105.967,72.3,0.00,Chihuahua Intl    &
28.725,-96.254,73.9,0.00,Palacios Municipal Airport
28.78,-81.244,80.1,0.00,Orlando Sanford Airport
28.8,104.6,57.6,0.61,Yibin
28.817,62.75,93.3,0.00,Nokkundi
28.817,120.917,61.7,0.00,Kuocang Shan
28.833,108.767,60.1,1.67,Youyang
28.861,-96.93,71.2,0.00,Victoria Regional Airport
28.865,115.9,67.6,0.00,Changbei Intl
28.883,105.433,56.3,0.12,Luzhou
28.945,-13.605,62.7,0.00,Lanzarote
28.95,107.15,40.7,0.43,Jinfo Shan (Mount)
28.967,118.867,75.7,0.00,Qu Xian
29.0,101.5,56.0,0.00,Jiulong
29.0,135.0,67.1,0.00,Moored Buoy 21004
29.033,21.567,78.9,0.00,Jalo
29.033,114.583,62.9,0.48,Xiushui
29.05,111.683,58.8,0.75,Changde
29.083,-110.95,79.3,0.00,Hermosillo Intl   &
29.096,-111.048,77.8,0.00,General Ignacio P Garcia Intl / Hermosillo Intl
29.117,15.95,82.9,0.00,Hon
29.17,-118.32,61.3,0.00,Isla Guadalupe
29.179,75.755,89.3,0.00,Hisar
29.183,-81.048,73.3,0.00,Daytona Beach Intl
29.2,25.483,74.8,0.00,Siwa
29.2,121.95,67.1,0.00,Shipu
29.227,47.969,75.8,0.00,Kuwait Intl
29.237,0.276,76.6,0.00,Timimoun
29.25,88.883,50.0,0.00,Xigaze
29.273,-94.859,73.5,0.00,Scholes Intl At Glston Apt
29.3,-94.8,73.9,0.00,Galveston
29.3,117.2,69.1,0.00,Jingdezhen
29.33,-89.4,25.5,0.00,Boothville
29.333,-89.408,77.1,0.00,Baton Rouge Metro R
29.36,-99.174,69.1,0.00,Hondo Municipal Airport
29.367,-100.783,73.2,0.00,Laughlin Afb Airport
29.369,-10.18,61.4,0.08,Sidi Ifni
29.378,-100.927,74.9,0.00,Del Rio International Airport
29.383,-98.583,72.2,0.00,Lackland Air Force Base (Kelly Field Annex)
29.383,113.083,59.7,1.26,Yueyang
29.4,110.167,59.8,2.49,Sangzhi
29.517,103.333,28.4,0.00,Emei Shan
29.517,106.483,55.2,0.18,Chong-Qing
29.533,-98.262,63.9,0.00,Randolph Afb Airport
29.544,-98.484,69.1,0.00,San Antonio International Airport
29.561,34.96,76.3,0.00,Eilat
29.567,94.467,51.9,0.02,Nyingchi
29.583,105.05,57.7,0.01,Neijiang
29.583,115.983,52.6,1.40,Lu Shan
29.6,120.817,73.2,0.00,Shengxian
29.612,35.018,74.5,0.00,Aqaba King Hussein Intl
29.617,-95.167,74.2,0.00,Ellington Field Airport
29.626,43.491,73.8,0.00,Rafha
29.633,-83.105,73.7,0.00,Cross City Airport
29.638,-95.282,73.5,0.00,William P Hobby
29.667,91.133,55.7,0.00,Lhasa / Gonggar
29.692,-82.276,74.4,0.00,Gainesville Rgnl
29.733,-85.033,70.7,0.08,Apalachicola Muni Airport
29.767,-92.117,76.0,0.00,Intracoastal City
29.785,40.1,71.0,0.00,Al Jouf
29.817,-90.017,75.8,0.00,New Orleans Nas
29.818,-95.673,75.0,0.00,West Houston
29.883,69.717,79.0,0.00,Bar Khan
29.94,34.936,68.5,0.00,Ovda
29.951,-94.021,72.3,0.00,Southeast Texas Regional Airport
29.98,-95.36,68.5,0.00,G Bush Intercontinental Ap/Houston Ap
29.983,103.0,54.3,0.63,Ya'An
29.997,-90.278,73.4,0.85,Louis Armstrong New Orleans Intl Ap
30.0,99.1,51.3,0.32,Batang
30.0,100.267,40.8,0.12,Litang
30.033,-91.883,80.3,0.00,New Iberia/Acadiana
30.033,122.117,66.9,0.00,Dinghai
30.05,101.967,41.6,0.91,Kangding
30.067,-85.583,69.9,0.35,Tyndall Afb Airport
30.09,-88.77,75.6,0.00,Biloxi 22 Nm South-Southeast Of Biloxi
30.122,31.406,68.6,0.00,Cairo Intl
30.125,-93.228,71.5,0.00,Lake Charles Regional Airport
30.133,-2.167,69.4,0.00,Beni-Abbes
30.133,118.15,47.1,0.41,Huang Shan
30.167,-102.417,71.0,0.00,Sanderson  Tx.
30.167,35.783,63.7,0.00,Ma'An
30.2,-97.683,69.4,0.00,Bergstrom Afb/Austi
30.2,-85.683,71.5,0.00,Panama City Bay Co
30.203,71.419,88.5,0.00,Multan Intl
30.205,-91.988,73.8,0.04,Lafayette Regional Airport
30.217,-81.883,78.1,0.00,Cecil Fld
30.228,120.432,69.2,0.02,Xiaoshan
30.233,-81.667,75.7,0.00,Jacksonville Nas
30.251,66.938,71.7,0.00,Quetta
30.283,109.467,56.8,2.83,Enshi
30.321,-97.76,68.9,0.00,Austin/Mueller Muni
30.333,-81.517,73.7,0.00,Jacksonville/Craig
30.333,76.467,84.7,0.00,Patiala
30.333,112.183,58.8,0.35,Jiangling
30.35,-87.317,72.3,0.43,Pensacola Nas
30.35,119.417,52.3,0.12,Tianmu Shan (Mtns)
30.367,-109.683,71.7,0.00,Pilares De Nacozari   Son.
30.371,-104.017,70.7,0.00,Marfa Municipal Airport
30.381,-9.546,57.0,0.00,Inezgane
30.386,130.659,70.9,0.00,Yakushima
30.393,-84.353,71.7,0.00,Tallahassee Regional Airport
30.4,-89.067,74.7,0.00,Gulfport Biloxi Int
30.4,-81.417,74.3,0.00,Mayport Naf
30.417,-88.917,77.4,0.00,Keesler Air Force Base
30.417,-86.683,72.6,0.31,Hurlburt Field Airport
30.483,-86.517,69.1,0.00,Eglin Afb Airport
30.495,-81.694,75.9,0.00,Jacksonville International Airport
30.533,38.9,69.8,0.00,Maarik
30.537,-91.147,71.2,0.02,Baton Rouge Metro R
30.547,130.95,70.6,0.00,Tanegashima
30.55,81.433,34.2,0.00,T'U-Ko-Erh-Ho-Kung
30.571,2.86,72.6,0.00,El Golea
30.579,103.947,56.0,0.05,Shuangliu
30.589,-96.365,69.3,0.00,Easterwood Fld
30.6,32.283,69.5,0.00,Ismailia          &
30.617,116.967,64.5,1.22,Anqing
30.626,-88.068,75.2,0.00,Mobile Downtown Airport
30.65,-86.517,70.6,0.08,Duke Fld
30.683,107.8,54.3,2.57,Liangping
30.688,-88.246,71.8,0.45,Mobile Regional Airport
30.717,-111.833,75.6,0.00,Altar  Son.
30.717,-87.017,70.5,0.01,Whiting Field Naval Air Station North
30.717,20.167,66.7,0.00,Agedabia
30.717,122.817,58.1,0.00,Sheng Shang
30.717,130.983,66.8,0.00,Tanegashima
30.733,111.367,59.0,0.48,Yichang
30.733,122.45,61.9,0.01,Shengsi
30.75,106.133,57.3,0.22,Gaoping
30.783,-86.517,65.6,0.00,Bob Sikes Airport
30.783,-83.277,72.4,0.00,Valdosta Regional Airport
30.784,114.208,58.3,0.63,Tianhe
30.82,30.191,77.4,0.00,Jiyanklis New
30.907,41.138,73.0,0.00,Arar
30.939,-6.909,52.8,0.00,Ouarzazate
30.95,88.633,28.6,0.04,Xainza
30.967,-83.2,74.4,0.00,Moody Afb/Valdosta
30.967,40.983,68.5,0.00,Arar              &
30.983,101.117,44.1,0.16,Dawu
31.017,109.533,52.8,0.75,Fengjie
31.033,-114.85,74.9,0.00,San Felipe  Bcn
31.033,35.467,78.8,0.00,Ghor Safi
31.05,-93.183,70.8,0.00,Polk Army Airfield
31.067,-97.833,66.4,0.00,Robert Gray Aff Airport
31.133,-97.717,70.8,0.00,Hood Aaf Airport
31.133,114.95,59.2,1.34,Macheng
31.15,-97.4,74.2,0.00,Draughon Miller Cen
31.15,97.167,41.3,0.79,Qamdo
31.152,-81.391,75.9,0.00,Malcolm Mc Kinnon Airport
31.167,112.633,55.2,0.35,Zhongxiang
31.183,-90.471,70.2,0.01,Mcom/Pike Co/J E Lws Fd Ap
31.184,29.949,65.8,0.00,Alexandria Intl
31.198,121.336,67.1,0.20,Hongqiao Intl
31.2,16.583,69.9,0.00,Sirte
31.2,107.5,56.3,0.00,Da Xian
31.236,-94.754,68.4,0.00,Angelina County Airport
31.25,-82.4,73.3,0.00,Waycross-Ware Co. Airport
31.267,-85.717,71.0,0.12,Cairns Army Airfield (Fort Rucker)
31.267,32.3,65.7,0.00,Port Said
31.317,-92.55,70.9,0.00,Alexandria Int
31.317,-85.45,71.2,0.02,Dothan Rgnl
31.325,27.222,66.9,0.00,Mersa Matruh
31.333,118.35,65.6,0.05,Wu-Hu
31.352,-100.495,73.2,0.00,San Angelo Regional/Maths Field Ap
31.358,69.464,76.3,0.00,Zhob
31.367,90.017,29.4,0.00,Baingoin
31.368,130.845,64.4,0.00,Kanoya
31.395,-92.291,76.4,0.00,Esler Regional Airport
31.399,-9.683,58.3,0.00,Essaouira / Mogador Intl
31.4,116.333,60.7,0.59,Huoshan
31.412,37.279,61.3,0.00,Guriat
31.417,95.6,36.3,0.25,Dengqen
31.433,119.483,67.2,0.16,Liyang
31.45,104.733,58.1,0.01,Mianyang
31.458,-109.606,71.4,0.00,Bisbee Douglas Intl
31.467,-89.333,74.3,0.00,Hattiesburg Laurel
31.483,92.067,31.6,0.00,Nagqu
31.514,10.598,81.1,0.00,Nalut
31.533,25.183,64.7,0.00,Salloum
31.536,-84.194,73.1,0.00,Sw Georgia Regional Arpt
31.536,-82.507,77.0,0.00,Alma/Bacon Co.
31.55,74.333,86.2,0.00,Lahore City
31.55,130.55,66.7,0.00,Kagoshima
31.583,105.967,57.6,0.31,Langzhong
31.588,-110.344,69.7,0.00,Sierra Vista Municipal-Libby Aaf Airport
31.607,-8.036,54.6,0.00,Menara
31.617,-91.3,81.1,0.00,Natchez/Hardy(Awos)
31.617,100.0,37.3,0.37,Garze
31.619,-97.228,68.3,0.00,Waco Regional Airport
31.633,-106.433,76.2,0.00,Ciudad Intl
31.646,-2.27,62.6,0.00,Bechar / Boudghene Ben Ali Lotfi
31.673,6.14,86.7,0.00,Oued Irara / Krim Belkacem
31.693,38.731,65.1,0.00,Turaif
31.71,74.797,87.0,0.00,Amritsar
31.723,35.993,58.5,0.00,Queen Alia Intl
31.733,98.567,42.0,0.04,Dege
31.742,118.862,62.6,0.37,Lukou
31.78,-103.202,77.6,0.00,Winkler County Airport
31.78,117.298,61.2,0.55,Luogang / Xinqiao
31.8,-98.95,75.3,0.00,Brownwood Municipal
31.803,130.719,65.8,0.00,Kagoshima
31.811,-106.376,73.1,0.00,El Paso International Airport
31.831,-104.809,70.2,0.00,Guadalupe Pass Amos
31.85,102.7,28.0,0.05,Ma-Tang
31.861,-86.012,73.3,0.12,Troy Municipal Airport
31.865,35.219,55.0,0.00,Jerusalem
31.867,35.217,54.3,0.00,Jerusalem Airport
31.877,131.449,66.9,0.00,Miyazaki
31.883,-81.567,77.8,0.00,Ft Stewart/Wright
31.883,93.783,38.4,0.00,Sog Xian
31.9,-80.9,52.7,0.00,Environm Buoy 41021
31.9,102.233,44.5,0.00,Barkam
31.909,70.897,84.6,0.00,D I Khan
31.933,131.417,64.3,0.00,Miyazaki
31.948,-102.209,72.3,0.00,Midland International Airport
31.948,-4.398,56.0,0.00,Moulay Ali Cherif
31.973,35.992,58.7,0.00,Marka Intl
31.983,128.35,68.2,0.00,Meshima
32.0,-75.083,72.9,0.00,S Hatteras - 250 Nm East Of Charleston
32.009,-81.146,74.1,0.00,Hunter Aaf
32.011,34.887,64.3,0.00,Ben Gurion
32.033,110.767,50.5,0.72,Fangxian
32.04,12.313,75.7,0.00,Yefren
32.05,72.667,87.5,0.00,Sargodha
32.067,108.033,48.4,0.51,Wanyuan
32.067,121.6,64.8,0.24,Lusi
32.084,131.451,62.3,0.00,Nyutabaru
32.097,20.269,63.9,0.00,Benina Airport
32.1,34.783,66.2,0.00,Sde-Dov (Tel-Aviv)
32.131,-110.955,74.8,0.00,Tucson International Airport
32.131,-81.202,75.2,0.00,Savannah/Hilton Head Intl Airport
32.133,114.05,54.9,0.83,Xinyang
32.15,112.667,54.4,0.20,Zaoyang
32.161,37.149,65.4,0.00,Prince Hasan
32.167,-110.883,73.7,0.00,Davis-Monthan Afb Airport
32.167,115.617,58.9,0.55,Gushi
32.215,-98.178,65.6,0.00,Clark Field Muni Airport
32.243,15.021,69.0,0.00,Misurata
32.25,-107.717,73.1,0.00,Deming Muni
32.25,96.217,40.1,0.00,Nangqen
32.283,-9.233,59.0,0.20,Safi
32.3,-86.408,69.9,0.04,Montgomery Rgnl (Dannelly Fd) Ap
32.3,84.05,26.7,0.08,Lumaringbo
32.321,-90.078,67.5,0.05,Jackson International Airport
32.334,-104.258,70.6,0.00,Cavern City Air Trml Arpt
32.335,-88.744,69.6,1.45,Key Field Airport
32.35,-85.0,70.5,0.00,Lawson Aaf Airport
32.354,-95.403,74.1,0.00,Tyler Pounds Regional Arpt
32.356,36.259,61.4,0.00,King Hussein
32.367,-64.683,61.8,0.00,Naval Atlantic Meterology & Oceanography Facility
32.367,-6.4,54.4,0.04,Beni-Mellal
32.383,-106.483,70.9,0.00,White Sands  Nm.
32.383,-86.35,72.9,0.20,Maxwell Afb Airport
32.384,3.794,74.9,0.00,Noumerat Moufdi Zakaria
32.385,-94.712,68.0,0.00,Longview
32.411,-99.682,70.4,0.00,Abilene Regional Airport
32.417,104.517,59.5,0.00,Pingwu
32.433,-99.85,71.6,0.00,Abilene Dyess Afb
32.433,111.733,55.4,0.40,Laohekou
32.447,-93.824,66.8,0.41,Shreveport Regional Airport
32.483,-80.717,72.3,0.00,Beaufort Mcas
32.5,-93.667,68.1,0.00,Barksdale Air Force Base
32.5,80.083,29.5,0.02,Shiquanhe
32.516,-92.041,69.7,0.00,Monroe Regional Airport
32.516,-84.942,71.3,0.04,Columbus Metro Airport
32.533,-116.983,67.3,0.00,Tijuana
32.539,38.195,68.6,0.00,H4
32.55,-88.567,69.8,0.00,Meridian Nas/Mc Cain Fd Ap
32.55,35.85,59.9,0.00,Irbid (Met)
32.555,12.056,69.3,0.00,Zuara
32.567,-117.117,62.5,0.00,Naval Auxiliary Landing Fd
32.567,-116.967,63.9,0.00,Brown Fld Muni
32.6,36.1,60.4,0.00,Dara'A
32.633,-115.217,81.8,0.00,Mexicali
32.633,-83.6,75.1,0.08,Robins Afb Airport
32.65,-114.617,78.5,0.00,Yuma Mcas
32.664,13.159,81.5,0.00,Tripoli Intl
32.666,128.833,67.6,0.00,Fukue
32.667,-114.6,78.7,0.00,Yuma Marine Corps Air Station/Yuma Intl Airport
32.667,103.6,40.6,0.08,Songpan
32.683,-96.867,72.1,0.00,Dallas Executive
32.683,-16.767,57.5,0.94,Funchal/S.Catarina
32.683,-4.733,45.9,0.00,Midelt
32.685,-83.653,70.3,0.05,Middle Georgia Regional Airport
32.693,-103.213,71.3,0.00,Lea County Regional Airport
32.7,-117.2,63.0,0.00,North Island Nas
32.7,128.833,66.8,0.00,Fukue
32.717,109.033,50.3,0.91,Ankang
32.717,133.017,67.0,0.00,Shimizu
32.733,-113.633,79.4,0.00,Stoval Airfield / Exercise
32.733,-96.967,70.2,0.00,Naval Air Station Operations
32.733,129.867,66.3,0.00,Nagasaki
32.734,-117.183,65.5,0.00,San Diego International Airport
32.767,-97.45,68.6,0.00,Fort Worth Naval Air Station Jrb/Carswell Field
32.767,-0.6,59.3,0.00,Ain-Sefra
32.77,-117.23,65.2,0.00,Mission Beach
32.782,-98.06,76.3,0.00,Mineral Wells Airport
32.783,22.583,63.1,0.00,Derna
32.8,-119.5,56.5,0.00,Environm Buoy 46024
32.8,21.883,60.5,0.00,Shahat
32.809,35.043,67.8,0.00,Haifa
32.817,-117.133,67.5,0.00,San Diego/Montgomer
32.817,-115.683,81.5,0.00,Naf
32.817,130.7,66.0,0.00,Kumamoto
32.819,-97.361,69.4,0.00,Fort Worth Meacham
32.833,-116.967,64.1,0.00,Gillespie Fld
32.834,-115.579,81.4,0.00,Imperial Co
32.837,130.855,67.4,0.00,Kumamoto
32.85,-109.633,68.9,0.00,Safford Rgnl
32.85,-106.1,68.1,0.00,Holloman Afb
32.85,117.3,58.8,1.11,Bengbu
32.85,120.283,60.6,0.67,Dongtai
32.852,-96.856,70.6,0.00,Dallas Love Field Airport
32.867,-117.133,62.6,0.00,San Diego Miramar Nas
32.867,115.733,56.0,0.88,Fuyang
32.883,-112.717,82.5,0.00,Gila Bend Af Aux
32.898,-97.019,67.8,0.00,Dallas/Ft Worth International Ap
32.899,-80.041,74.3,0.12,Charleston Afb/International Airport
32.9,-87.25,66.5,0.12,Nws Meteorological Obsy
32.9,95.3,33.3,0.04,Zadoi
32.917,129.914,67.9,0.00,Nagasaki
32.933,73.717,80.7,0.00,Jhelum
32.933,113.917,55.1,1.89,Zhumadian
32.967,-96.833,72.6,0.00,Addison
32.967,35.5,56.3,0.00,Har-Knaan (Zefat)
33.017,96.95,37.7,0.00,Yushu
33.023,-118.588,59.1,0.00,Nalf/F. Sherman Fld Arpt
33.067,-96.067,73.3,0.00,Majors
33.067,107.033,53.4,0.24,Hanzhong
33.068,6.089,82.2,0.00,Sidi Mahdi / Nesrat Hachani
33.073,-16.35,58.2,0.08,Porto Santo
33.1,112.483,55.0,0.31,Nanyang
33.115,139.786,66.0,0.00,Hachijojima
33.117,139.783,61.8,0.00,Hachijojima
33.2,126.267,63.9,0.00,Mosulpo (Kor-Afb)
33.212,-87.616,68.4,0.00,Tuscaloosa Municipal Arpt
33.221,-92.814,69.7,0.00,S. Ar Rgnl At Gdwin Fld Ap
33.233,131.617,59.7,0.00,Oita
33.237,-107.268,65.6,0.00,Trh Or Conseqces Muni Arpt
33.24,-119.458,58.8,0.00,San Nicolas Island Naval Outlying Field
33.25,126.567,65.3,0.00,Seogwipo
33.25,134.183,62.5,0.00,Murotomisaki
33.267,-115.417,42.9,0.00,Speed Bag Airfield
33.3,-117.35,63.3,0.00,Marine Corps Air Station
33.3,-111.667,77.4,0.00,Williams Gateway Airport
33.308,-104.508,70.8,0.00,Roswell International Air Center Ap
33.317,130.417,67.6,0.00,Metabaru (Jasdf)
33.33,-118.33,68.7,0.00,Santa Catalina Island
33.35,-105.667,59.4,0.00,Ruidoso
33.35,10.483,84.1,0.00,Medenine
33.364,-81.963,71.4,0.41,Augusta Regional At Bush Field Ap
33.367,-7.59,53.4,0.00,Mohammed V
33.4,104.917,55.3,0.00,Wudu
33.412,36.516,61.6,0.00,Damascus Intl
33.417,109.15,49.5,0.24,Chen-An
33.428,-112.004,78.4,0.00,Phoenix Sky Harbor Intl Airport
33.45,-117.68,64.4,0.00,Dana Point
33.45,-88.583,73.8,0.00,Golden Triangle Rgnl
33.45,135.75,61.8,0.00,Shionomisaki
33.456,-93.988,67.5,0.00,Texarkana Regional Airport-Webb Field
33.479,131.737,59.0,0.00,Oita
33.483,-90.985,72.5,0.00,Mid Delta Rgnl
33.496,-90.087,68.9,0.00,Greenwood Leflore
33.511,6.777,82.6,0.00,Guemar
33.511,126.493,67.9,0.00,Jeju Intl
33.517,126.533,66.9,0.00,Jeju
33.536,-0.242,48.6,0.01,Mecheria
33.546,133.669,65.0,0.00,Kochi
33.55,-112.367,77.1,0.00,Luke Afb Airport
33.557,-7.66,58.2,0.04,Anfa
33.566,-86.745,68.0,0.16,Birmingham International Airport
33.567,133.55,63.8,0.00,Kochi
33.583,102.967,29.6,0.01,Ruo'Ergai
33.583,130.383,65.9,0.00,Fukuoka
33.586,130.451,66.4,0.00,Fukuoka
33.587,-85.856,67.8,0.24,Anniston Metropolitan Arpt
33.6,-117.88,61.5,0.00,Newport Beach
33.6,-102.05,69.3,0.00,Reese Afb/Lubbock
33.6,119.033,55.8,1.40,Qingjiang
33.617,73.099,82.8,0.00,Chaklala
33.619,-114.714,81.4,0.00,Blythe Airport
33.627,-116.159,82.9,0.00,Desert Resorts Rgnl Arpt
33.63,-84.442,67.2,0.69,Hartsfield-Jackson Atlanta Intl Ap
33.65,-88.45,66.6,0.12,Columbus Afb Airport
33.662,135.364,65.3,0.00,Nanki Shirahama
33.666,-101.823,69.2,0.00,Lubbock International Airport
33.667,-117.733,62.8,0.00,El Toro Mcas
33.68,-117.866,67.8,0.00,J. Wayne Apt-Orange Co Apt
33.683,-78.933,72.0,0.12,Myrtle Beach Intl Airport
33.685,131.04,56.9,0.00,Tsuiki
33.7,-117.833,64.1,0.00,Tustin Mcaf
33.717,1.083,52.2,0.00,El-Bayadh
33.72,-96.67,70.4,0.00,Sherman-Denison
33.749,129.785,65.6,0.00,Iki
33.75,-119.08,58.8,0.00,Santa Monica Basin - 33Nm West Southwest
33.75,99.65,28.2,0.01,Darlag
33.75,105.75,53.0,0.47,Cheng-Xian
33.75,120.3,56.8,1.07,Sheyang
33.767,-118.167,63.0,0.00,Long Beach
33.767,-84.517,67.5,0.28,Fulton Co Arpt Brow
33.783,-118.05,68.0,0.00,Los Alamitos Aaf
33.783,114.517,56.8,1.65,Xihua
33.783,115.733,55.1,1.50,Boxian
33.8,97.133,15.5,2.13,Qingshui-He
33.802,-118.342,69.4,0.00,Torrance Airport
33.812,-118.146,65.0,0.00,Long Beach / Daugherty Field / Airport
33.816,-78.72,75.9,0.12,Grand Strand Airport
33.821,35.488,66.8,0.00,Rafic Hariri Intl
33.827,132.7,63.2,0.00,Matsuyama
33.833,-116.5,83.6,0.00,Palm Springs Intl
33.836,130.947,61.0,0.00,Kitakyushu
33.85,-80.48,79.0,0.00,Poinsett Range  Sumpter
33.85,132.783,61.9,0.00,Matsuyama
33.867,-117.983,68.8,0.00,Fullerton Municipal
33.867,-84.3,70.2,0.00,Dekalb Peachtree
33.875,10.775,73.3,0.00,Zarzis / Djerba
33.877,10.103,68.0,0.00,Gabes / Matmata
33.88,-78.02,75.8,0.00,South Port / Oak Island Coast Gu
33.883,130.653,64.0,0.00,Ashiya
33.9,-117.25,61.2,0.00,March Air Reserve Base
33.9,-106.4,70.9,0.00,Northrup Landing Strip
33.917,-84.517,70.2,0.59,Dobbins Air Reserve Base Airport
33.921,-80.801,75.9,0.00,Mc Entire Jngb
33.927,-4.978,52.5,0.00,Saiss
33.93,131.279,59.9,0.00,Yamaguchi Ube
33.933,-116.967,65.6,0.00,Beaumont
33.938,-118.389,69.3,0.00,Los Angeles International Airport
33.94,8.111,78.9,0.00,Nefta
33.942,-81.118,71.9,0.02,Columbia Metropolitan Airport
33.948,-83.328,68.5,0.04,Athens/Ben Epps Airport
33.95,130.933,61.9,0.00,Shimonoseki
33.967,-80.467,72.8,0.00,Shaw Air Force Base
33.979,-98.493,66.0,0.00,Sheppard Afb/Wichita Falls Muni Ap
34.0,134.633,61.4,0.00,Komatsujima (Jasdf)
34.017,-118.45,69.6,0.00,Santa Monica Muni
34.017,71.583,80.3,0.00,Peshawar
34.02,-118.82,63.6,0.00,Zuma Beach
34.033,36.717,54.7,0.02,Nabk
34.035,131.549,63.5,0.00,Hofu
34.045,131.052,58.0,0.00,Ozuki
34.051,-6.752,55.5,0.24,Rabat Sale Intl
34.067,-117.65,64.7,0.00,Ontario
34.067,134.567,60.8,0.00,Tokushima
34.067,136.2,59.4,0.00,Owase
34.074,139.56,65.9,0.00,Miyakejima
34.083,74.833,62.2,0.00,Srinagar
34.083,111.067,51.2,0.00,Lushi
34.095,-117.235,64.7,0.00,San Bernardino International Airport
34.117,-119.117,64.2,0.04,Point Mugu
34.117,139.517,60.9,0.00,Miyakejima
34.133,95.783,22.1,0.00,Qumarleb
34.133,134.607,63.8,0.00,Tokushima
34.15,0.067,55.2,0.08,El-Kheiter
34.15,132.233,62.1,0.00,Iwakuni
34.17,-119.22,67.7,0.00,Oxnard / Channel Island
34.18,-91.934,70.8,0.00,Grider Field Airport
34.18,-77.82,74.1,0.00,Wrightsville Beach
34.188,-79.731,72.3,0.12,Florence Regional Airport
34.198,129.292,65.2,0.00,Izuhara
34.201,-119.207,67.4,0.00,Oxnard Airport
34.201,-118.358,69.7,0.00,Burbank-Glendale-Pasa Arpt
34.21,-118.489,68.3,0.00,Van Nuys Airport
34.214,134.016,65.8,0.00,Takamatsu
34.217,-4.0,55.0,0.08,Taza
34.217,92.433,21.2,0.00,Tuotuohe
34.233,-118.067,51.0,0.00,Mount Wilson
34.233,135.167,62.2,0.00,Wakayama
34.25,-119.25,68.6,0.00,Ventura Harbor
34.257,-111.339,63.0,0.00,Payson
34.262,-88.771,67.2,0.00,Tupelo C D Lemons Arpt
34.267,-110.0,57.5,0.00,Show Low Rgnl
34.268,-77.9,74.9,0.12,Wilmington New Hanover County
34.283,117.15,54.8,1.55,Xuzhou
34.285,129.331,64.0,0.00,Tsushima
34.3,-116.167,74.0,0.00,Twentynine Palms Naas
34.3,-97.017,73.1,0.00,Ardmore Municipal
34.317,134.05,57.7,0.00,Takamatsu
34.348,-85.161,67.3,0.00,Richard B Russell Airport
34.35,107.133,55.3,0.00,Baoji
34.383,-103.317,65.0,0.00,Cannon Afb Airport
34.4,-119.7,73.5,0.00,Santa Barbara Harbor
34.4,126.7,59.5,0.00,Wando
34.4,132.467,61.6,0.00,Hiroshima
34.417,40.917,76.4,0.00,Abukmal
34.422,8.823,72.6,0.00,Gafsa
34.426,-119.843,68.5,0.00,Santa Barbara Municipal Airport
34.427,-100.283,74.4,0.00,Childress Municipal
34.436,132.919,63.4,0.00,Hiroshima
34.447,108.752,54.8,0.00,Xianyang
34.467,-93.083,69.7,0.00,Memorial Fld
34.483,110.083,35.6,0.00,Hua Shan
34.498,-82.71,72.9,0.08,Anderson Rgnl
34.52,113.841,59.8,0.12,Xinzheng
34.533,136.683,63.0,0.00,Akeno (Jasdf)
34.557,38.317,72.7,0.00,Palmyra
34.566,69.212,64.9,0.00,Kabul Intl
34.567,-98.417,71.1,0.00,Lawton Municipal
34.583,-117.383,58.9,0.00,Southern California Logistics Airport
34.583,105.75,50.1,0.00,Tianshui
34.59,32.988,65.7,0.00,Akrotiri
34.596,135.603,66.4,0.00,Yao
34.6,138.217,60.5,0.00,Omaezaki
34.644,-86.787,67.0,0.00,Huntsville Intl/C.T.Jones Field Airport
34.65,-99.267,66.9,0.00,Altus Afb Airport
34.65,-98.4,66.0,0.00,Henry Post Aaf Airport
34.65,-77.1,70.2,0.00,Swansboro / Bogue
34.652,-112.421,56.8,0.00,Prescott Municipal Ap
34.683,-94.617,62.4,0.00,Page  Ok.
34.683,3.25,57.6,0.00,Djelfa/Tletsi
34.683,135.517,62.9,0.00,Osaka
34.7,135.217,63.0,0.00,Kobe
34.708,-77.44,75.6,0.00,Jacksonville
34.71,-120.97,52.8,0.00,Pt Arguello - 17Nm West Northwest Of Poi
34.717,104.883,35.4,0.04,Wu-Shan
34.718,10.691,67.7,0.00,Thyna
34.718,32.486,63.8,0.00,Pafos Intl
34.727,-92.239,62.8,0.00,Little Rock Adams Field
34.733,101.6,30.3,0.01,Henan
34.733,127.75,60.7,0.00,Yeosu
34.741,-118.212,59.4,0.00,General William J. Fox Airfield Airport
34.744,-118.724,45.3,0.00,Sandberg
34.744,-87.6,64.8,0.00,North West Alabama Regional Airport
34.75,-120.567,56.4,0.00,Vandenberg Afb
34.75,137.703,59.4,0.00,Hamamatsu
34.75,139.367,59.6,0.00,Oshima
34.757,133.855,65.8,0.00,Okayama
34.768,-114.619,79.3,0.00,Needles Airport
34.782,139.36,65.0,0.00,Oshima
34.786,135.438,61.0,0.00,Osaka Intl
34.787,-1.924,54.6,0.08,Angads
34.793,5.738,80.2,0.00,Biskra / Mohamed Khider
34.8,138.183,60.8,0.00,Shizuoka Airport
34.813,138.298,60.8,0.00,Shizuhama
34.817,36.133,60.6,0.00,Safita
34.817,112.433,60.2,0.00,Mengjin
34.817,126.383,64.5,0.00,Mokpo
34.82,-1.77,59.0,0.39,Maghnia
34.833,-92.25,65.3,0.00,Little Rock Wsfo
34.833,-77.617,77.8,0.00,Jacksonville (Awos)
34.846,-82.346,73.3,0.00,Greenville Downtown Arpt
34.85,119.133,53.8,1.22,Ganyu
34.85,128.433,61.2,0.00,Tongyeong
34.854,-116.786,68.5,0.00,Barstow-Daggett Airport
34.867,0.15,52.2,0.16,Saida
34.875,33.625,66.1,0.00,Larnaka Intl
34.882,-95.783,65.8,0.00,Mc Alester Regional Arpt
34.899,-120.449,55.7,0.00,Santa Maria Pub/Capt G A Hancock Ap
34.9,-120.9,52.8,0.00,Pacific Buoy
34.9,-117.867,62.2,0.00,Edwards Air Force Base
34.9,-76.883,74.9,0.00,Cherry Point Mcas
34.9,132.067,60.0,0.00,Hamada
34.906,-82.213,68.7,0.03,Greenville-Spartanburg Intl Airport
34.917,-92.15,63.8,0.00,Little Rock Afb Airport
34.917,98.217,18.8,0.00,Madoi
34.983,-78.883,73.8,0.00,Fayetteville Rgnl G
34.983,139.867,59.0,0.00,Tateyama
34.987,139.829,63.0,0.00,Tateyama
34.989,-99.053,70.1,0.00,Hobart Municipal Airport
35.0,9.483,71.5,0.00,Sidi Bouzid
35.0,102.9,31.7,0.00,Hezuo
35.017,-1.45,57.9,0.63,Zenata Messali El Hadj
35.017,135.733,63.1,0.00,Kyoto
35.028,-110.721,61.2,0.00,Winslow-Lindbergh Regional Airport
35.033,-79.5,75.5,0.00,Mackall Aaf
35.034,-85.2,65.0,0.00,Lovell Field Airport
35.042,-106.616,63.1,0.00,Albuquerque Intl Sunport Airport
35.05,118.35,54.0,1.15,Linyi
35.056,-89.987,66.2,0.80,Memphis International Airport
35.068,-77.048,76.0,0.00,Craven County Reg Airport
35.083,128.083,61.4,0.00,Sacheon Ab
35.1,-121.01,53.4,0.00,Pt. San Luis  Ca - 18 Nm South Southwest
35.1,129.033,62.8,0.00,Busan
35.117,36.75,62.3,0.00,Hama
35.117,111.067,55.2,0.00,Yuncheng
35.12,-75.98,68.7,0.00,Oracoke Coast Guard Station
35.126,126.809,66.3,0.00,Gwangju
35.133,-78.933,72.8,0.00,Simmons Aaf Airport
35.144,-111.666,47.0,0.00,Flagstaff Pulliam Arpt
35.15,-6.1,58.1,0.71,Larache
35.167,126.9,67.3,0.00,Gwangju
35.167,128.033,60.5,0.00,Jinju
35.167,136.967,61.3,0.00,Nagoya
35.174,-79.009,70.8,0.00,Pope Afb Airport
35.177,-3.84,58.2,0.02,Cherif El Idrissi
35.18,128.938,61.8,0.00,Gimhae Intl
35.182,-103.603,70.5,0.00,Tucumcari Municipal Arpt
35.208,0.147,53.2,0.24,Ghriss
35.217,93.083,15.5,0.00,Wudaoliang
35.224,-80.955,66.7,0.59,Charlotte/Douglas International Ap
35.23,-101.704,66.2,0.00,Amarillo Rick Husband Intl Airport
35.233,-120.633,63.5,0.00,San Luis Co Rgnl
35.233,-75.622,70.8,0.00,Cape Hatteras
35.25,115.433,56.7,0.47,Heze/Caozhou
35.255,136.924,60.6,0.00,Nagoya
35.259,-113.95,61.4,0.00,Kingman
35.267,100.65,32.6,0.00,Tongde
35.28,-2.956,63.4,0.01,Melilla
35.283,62.35,72.9,0.00,Gyshgy
35.283,139.667,60.1,0.00,Yokosuka Naval Station
35.285,40.176,73.1,0.00,Deir Zzor
35.3,-1.35,61.6,0.47,Beni-Saf
35.317,-77.633,78.5,0.00,Kinston Regional Jetport At Stalling Field
35.317,138.867,60.0,0.00,Fuji (Jasdf)
35.333,-99.2,71.4,0.00,Clinton-Sherman
35.333,-94.363,64.9,0.00,Fort Smith Regional Airport
35.333,4.206,70.2,0.00,Bou Saada
35.34,25.18,60.0,0.00,Nikos Kazantzakis
35.341,1.463,47.0,0.00,Abdelhafid Boussouf Bou Chekif
35.344,-77.965,71.2,0.00,Seymour-Johnson Afb Airport
35.35,-89.867,66.1,0.00,Memphis Nas
35.383,105.0,30.3,0.00,Huajialing
35.389,-97.601,65.4,0.00,Will Rogers World Airport
35.394,136.87,60.1,0.00,Gifu
35.4,139.917,65.5,0.00,Kisarazu
35.414,132.89,65.4,0.00,Izumo
35.417,-97.383,68.6,0.00,Tinker Afb Airport
35.432,-82.538,62.2,0.12,Asheville Regional Airport
35.432,8.121,70.0,0.00,Cheikh Larbi Tebessi
35.433,119.533,53.8,0.75,Rizhao
35.433,126.433,66.4,0.00,Yong Jung-Ri
35.434,-119.054,60.0,0.00,Meadows Field Airport
35.45,133.067,59.3,0.00,Matsue
35.45,135.317,59.6,0.00,Maizuru
35.45,139.45,59.1,0.00,Atsugi Nas
35.483,-0.533,57.8,0.00,Oran/Tafaroui
35.483,-0.517,56.6,0.43,Oran-Tafaraoui
35.483,112.4,57.9,0.00,Yangcheng
35.483,134.233,61.3,0.00,Tottori
35.492,133.236,57.6,0.00,Miho
35.498,12.618,62.4,0.00,Lampedusa
35.514,-108.794,54.2,0.00,Gallup Municipal Airport
35.514,139.394,62.9,0.00,Kastner Aaf / Camp Zama Japan
35.517,137.817,58.5,0.00,Iida
35.53,134.167,60.1,0.00,Tottori
35.532,24.15,62.4,0.00,Souda
35.533,24.15,57.1,0.00,Souda Bay Crete
35.533,35.767,65.2,0.00,Lattakia
35.55,8.683,63.8,0.00,Thala
35.55,106.667,46.1,0.00,Pingliang
35.552,139.78,62.4,0.00,Tokyo Intl
35.567,116.85,52.9,0.55,Yanzhou
35.593,-88.917,64.5,0.00,Mckellar-Sipes Rgnl Arpt
35.593,129.352,65.2,0.00,Ulsan
35.594,-5.32,58.2,0.04,Saniat Rmel
35.617,-106.089,64.9,0.00,Santa Fe Municipal Airport
35.624,-0.621,58.1,0.24,Es Senia / Ahmed Benbella
35.654,-105.142,57.8,0.00,Las Vegas Municipal Arpt
35.667,-75.9,73.3,0.00,Dare County Gunnery Range  Nc.
35.667,4.5,66.8,0.00,M'Sila
35.667,10.1,67.7,0.00,Kairouan
35.667,10.75,64.8,0.00,Monastir-Skanes
35.667,138.55,59.8,0.00,Kofu
35.67,-121.28,50.7,0.00,Point Piedras Blanca
35.67,-120.628,59.3,0.00,Paso Robles Municipal Arpt
35.683,139.767,62.3,0.00,Tokyo
35.688,-117.693,69.8,0.00,China Lake
35.7,139.4,64.6,0.00,Tachikawa (Jasdf)
35.727,-5.917,55.8,0.28,Tanger Ibn Batouta Intl
35.733,107.633,46.4,0.00,Xifengzhen
35.733,140.85,58.7,0.00,Choshi
35.743,-81.382,68.0,0.35,Hickory Rgnl
35.748,139.348,59.5,0.00,Yokota Ab
35.752,6.309,67.8,0.00,Batna / Mostepha Ben Boulaid
35.765,140.386,58.6,0.00,Narita Intl
35.77,-75.52,73.8,0.00,Oregon Inlet Coast Guard Station
35.799,140.011,60.4,0.00,Shimofusa
35.818,-83.986,64.4,0.00,Mc Ghee Tyson Airport
35.833,-90.633,65.1,0.00,Jonesboro Muni
35.833,127.117,69.7,0.00,Jeonju
35.842,139.411,57.3,0.00,Iruma
35.85,-77.883,75.7,0.00,Rocky Mount Wilson
35.85,128.583,69.6,0.00,Camp Walker (H-805)
35.857,14.478,61.0,0.00,Luqa
35.879,-106.269,56.0,0.00,Los Alamos
35.883,0.117,59.3,0.75,Mostaganem
35.883,128.617,67.3,0.00,Taegu Acc (Kor-Afb)
35.889,-5.347,60.1,0.00,Ceuta
35.892,-78.782,69.7,0.00,Raleigh-Durham International Ap
35.894,128.659,65.3,0.00,Daegu Ab
35.9,128.667,57.6,0.00,Daegu - Exercise
35.917,126.617,63.0,0.00,Kunsan Ab
35.933,39.017,72.8,0.00,Raqqa
35.95,-112.15,53.7,0.00,Grand Canyon Park
35.95,62.917,75.7,0.00,Tagtabazar
35.951,-85.081,61.5,0.00,Crossville Mem Whit
35.967,-89.95,66.7,0.00,Arkansas International Airport
35.988,129.42,69.5,0.00,Pohang Gyeongju
36.0,-89.409,69.8,0.00,Dyersburg Municipal Arpt
36.0,-86.517,78.2,0.00,Smyrna
36.0,-5.6,60.2,0.08,Tarifa
36.002,126.763,65.0,0.00,Gunsan
36.01,-94.169,61.2,0.00,Drake Field Airport
36.017,-102.55,59.3,0.00,Dalhart Municipal
36.033,129.383,69.6,0.00,Pohang
36.033,140.2,65.2,0.00,Kasumigaura (Jasdf)
36.05,103.883,46.9,0.00,Lanzhou
36.05,114.133,59.6,0.00,Anyang
36.067,4.667,62.0,0.00,Bordj-Bou-Arreridj
36.067,9.367,73.5,0.00,Siliana
36.072,-115.163,67.0,0.00,Mccarran International Airport
36.097,-79.943,66.5,0.27,Piedmont Triad International Airport
36.117,128.317,63.8,0.00,Gumi
36.119,-86.689,64.3,0.29,Nashville International Airport
36.151,-5.35,60.8,0.05,Gibraltar
36.167,137.923,56.8,0.00,Matsumoto
36.178,5.324,61.6,0.00,Setif Ain Arnat / Setif 8 Mai 45
36.181,37.224,65.5,0.00,Aleppo Intl
36.181,140.415,56.5,0.00,Hyakuri
36.183,118.15,53.5,0.28,Yiyuan
36.199,-95.887,66.5,0.00,Tulsa International Airport
36.2,133.333,55.1,0.00,Saigo
36.217,127.983,65.0,0.00,Chupungnyeong
36.233,115.667,54.9,0.16,Xinxian
36.25,117.1,38.2,0.40,Tai Shan
36.25,137.967,54.1,0.00,Matsumoto
36.261,-76.175,74.7,0.00,Monroe Co
36.266,120.374,52.3,0.83,Liuting / Qingdao Intl
36.267,-93.157,66.3,0.00,Boone Co
36.274,23.017,59.8,0.00,Kithira / Alexandros Aristotelous Onassis
36.276,6.62,62.0,0.00,Mohamed Boudiaf Intl
36.297,-99.769,69.8,0.00,Gage/Shattuck
36.3,2.233,52.1,0.00,Miliana
36.3,98.1,30.4,0.00,Doulan
36.3,127.4,66.2,0.00,Taejon
36.317,-119.4,62.3,0.00,Visalia Muni
36.33,-117.1,65.3,0.00,Superior Valley Gunnery Range
36.333,-119.95,63.2,0.00,Naval Air Station
36.333,-97.917,65.6,0.00,Vance Afb
36.35,100.783,36.2,0.01,Gonghe
36.383,-97.783,67.3,0.00,Enid Woodring Rgnl
36.383,28.117,63.1,0.00,Rhodes/Paradissi  &
36.383,33.933,67.1,0.00,Silifke
36.383,140.467,55.7,0.00,Mito
36.395,136.407,54.4,0.00,Komatsu
36.4,139.067,60.4,0.00,Maebashi
36.405,28.086,63.0,0.00,Diagoras
36.417,94.9,36.9,0.00,Golmud
36.417,128.167,65.3,0.00,Sangju
36.449,-103.154,56.9,0.00,Clayton Municipal Airpark Airport
36.45,96.467,33.7,0.00,Nuo-Mu-Hong
36.467,10.7,62.9,0.00,Nabeul
36.473,-82.404,64.0,0.00,Bristol Tri City Airport
36.483,8.8,64.7,0.00,Jendouba
36.5,-6.25,60.1,1.06,Cadiz Obs
36.5,40.75,62.9,0.00,Hassakah
36.515,139.871,64.8,0.00,Utsunomiya
36.517,126.317,63.7,0.00,Anmyeondo
36.533,-115.567,58.0,0.00,Ind Sprng Range 63
36.533,61.217,77.7,0.00,Saragt
36.55,139.867,58.0,0.00,Utsunomiya
36.567,128.7,64.9,0.00,Andong
36.573,-79.335,70.6,0.04,Danville Regional Airport
36.573,36.154,64.5,0.00,Iskenderun
36.583,-121.833,53.3,0.00,Monterey Peninsula
36.583,104.683,38.1,0.00,Jingyuan
36.583,136.633,55.7,0.00,Kanazawa
36.6,109.5,53.5,0.00,Yan An
36.617,101.767,38.3,0.01,Xining / Caojiapu
36.621,-116.028,58.1,0.00,Desert Rock Airport
36.632,128.355,61.6,0.00,Yecheon
36.633,127.45,64.2,0.00,Cheongju
36.648,137.188,61.4,0.00,Toyama
36.65,-6.35,58.8,1.14,Rota Naval Air Station
36.664,-121.608,55.3,0.00,Salinas Muni
36.667,-87.483,62.8,0.00,Campbell Aaf Airport
36.667,68.917,76.4,0.00,Kunduz
36.667,138.2,55.4,0.00,Nagano
36.675,-4.499,57.1,0.08,Malaga
36.683,-121.767,55.0,0.00,Fritzsche Aaf
36.683,15.133,60.3,0.00,Cozzo Spadaro
36.683,116.983,56.3,0.55,Jinan/Tsinan
36.691,3.215,58.2,0.00,Houari Boumediene
36.7,38.95,71.5,0.00,Tel Abiadh
36.707,67.21,80.8,0.00,Mazar I Sharif / Mawlana Jalaluddin Muhammad Balkhi
36.712,5.07,63.1,0.00,Soummam Abane Ramdane
36.717,71.6,55.0,0.00,Ishkashim
36.717,127.499,62.3,0.00,Cheongju Intl
36.717,137.2,56.6,0.00,Toyama
36.733,-91.85,60.2,0.00,West Plains  Mo
36.733,24.433,63.1,0.00,Milos
36.737,-97.102,72.3,0.00,Ponca City Muni
36.744,-108.229,55.3,0.00,Four Corners Regional Arpt
36.745,-6.06,60.9,0.91,Jerez
36.767,-96.017,74.2,0.00,Bartlesville Muni
36.767,-90.467,61.2,0.00,Poplar Bluff(Amos)
36.767,119.183,53.5,0.40,Weifang
36.767,121.167,53.6,0.75,Haiyang
36.767,126.5,61.7,0.00,Seosan
36.78,-119.719,63.4,0.00,Fresno Yosemite International Airport
36.783,99.083,29.2,0.00,Cha-Ka
36.793,27.092,61.5,0.00,Kos
36.795,5.874,61.7,0.00,Ferhat Abbas Airport
36.817,-76.033,68.8,0.00,Oceana Nas
36.817,11.969,68.9,0.00,Pantelleria
36.822,7.809,63.2,0.00,Annaba / Rabah Bitat
36.833,21.7,59.9,0.00,Methoni
36.844,-2.37,61.9,0.01,Almeria
36.85,11.083,61.8,0.00,Kelibia
36.851,10.227,64.4,0.00,Carthage
36.867,81.7,55.0,0.00,Yutian/Keriya
36.883,-91.9,63.5,0.00,West Plains
36.899,30.8,63.4,0.00,Antalya
36.903,-76.192,69.0,0.00,Norfolk International Airport
36.917,-94.017,63.6,0.00,Monette
36.933,-111.45,59.3,0.00,Page Muni (Amos)
36.933,6.95,63.7,0.00,Skikda
36.933,126.45,58.0,0.00,Mangilsan
36.937,-76.289,69.1,0.08,Norfolk Nas
36.947,37.479,56.2,0.55,Oguzeli / Gaziantep
36.95,140.9,53.5,0.00,Onahama
36.965,-86.424,61.0,0.00,Bow Grn-Warren Co. Rgnl Ap
36.967,127.033,63.2,0.00,A 511 / Desiderio Aaf-Pyeongtaek / Camp Humphreys Rok
36.971,-25.171,57.6,0.00,Santa Maria
36.98,8.877,69.0,0.00,Tabarka 7 Novembre / Ain Draham
36.983,14.583,61.5,0.00,Comiso As (Usaf)
37.0,-101.88,56.7,0.00,Elkhart / Elkhart-Morton County
37.0,-8.95,56.2,0.00,Sagres
37.0,35.417,65.1,0.00,Incirlik Ab
37.0,129.417,60.9,0.00,Uljin
37.014,-7.966,55.3,0.00,Faro
37.021,41.191,65.2,0.00,Kamishly
37.033,-100.95,62.9,0.00,Liberal Muni
37.033,111.917,55.2,0.00,Jiexiu
37.056,-88.774,62.7,0.00,Paducah Barkley Field
37.067,82.717,53.2,0.00,Minfeng
37.067,92.867,30.4,0.00,T'A-Erh-Ting
37.067,112.983,53.7,0.00,Yushe
37.083,-76.36,69.6,0.00,Langley Afb Airport
37.083,14.217,62.6,0.00,Gela
37.087,-84.077,61.7,0.00,Cape Girardeau Rgnl
37.091,127.03,61.4,0.00,Osan Ab
37.1,25.367,63.1,0.00,Naxos
37.1,128.9,54.1,0.00,Kotar Range
37.1,138.25,57.5,0.00,Takada
37.133,-76.6,70.5,0.00,Felker Army Airfield
37.133,-76.483,68.8,0.22,Newport News Willia
37.133,79.933,63.1,0.00,Hotan
37.14,-107.76,52.9,0.00,Durango-La Plata Co
37.14,27.67,63.6,0.00,Imsik
37.15,108.383,46.6,0.00,Pin-Kou-Men
37.152,-94.495,65.9,0.00,Joplin Regional Airport
37.175,-5.616,59.3,0.28,Moron Ab
37.183,114.367,59.6,0.00,Xingtai
37.189,-3.777,55.7,0.00,Granada
37.2,102.867,19.7,0.01,Wushaoling
37.217,28.367,59.4,0.00,Mugla
37.225,-89.571,64.6,0.00,Cape Girardeau Rgnl
37.233,69.083,77.2,0.00,Pyandj
37.239,127.007,59.6,0.00,Suwon
37.24,-93.39,62.3,0.00,Springfield-Branson Regional Airport
37.245,9.791,64.7,0.00,Sidi Ahmed Air Base
37.25,-76.0,68.4,0.00,Cape Charles Coast Guard Station
37.262,-104.338,49.8,0.00,Perry Stokes Airport
37.267,126.983,61.4,0.00,Suwon
37.283,-6.917,58.6,0.43,Huelva
37.284,-98.553,65.1,0.00,Medicine Lodge
37.285,-120.514,62.0,0.00,Merced Muni Macready
37.287,67.31,82.0,0.00,Termez
37.296,-81.208,61.8,0.00,Mercer Co
37.3,-108.633,53.7,0.00,Cortez Muni
37.317,-79.974,66.3,0.68,Roanoke Regional/Woodrum Field Ap
37.317,68.133,83.0,0.00,Shaartuz
37.321,-79.207,66.7,0.24,Lynchburg Rgnl/Preston Glenn Fld Ap
37.333,100.133,29.5,0.01,Gangca
37.35,126.917,60.8,0.00,Sv Ri San
37.359,-121.924,61.2,0.00,N Y. Mineta Sn Jo Intl Apt
37.36,-122.88,51.5,0.00,Half Moon Bay - 24Nm South Southwest Of
37.367,-6.0,59.5,0.43,Sevilla/Tablada
37.367,97.367,35.8,0.00,Delingha
37.367,101.617,24.8,0.08,Hao-Men
37.371,-118.358,51.1,0.00,Bishop Airport
37.383,-120.567,58.8,0.00,Castle Afb
37.383,60.517,75.9,0.00,Tedzhen
37.383,136.9,54.6,0.00,Wajima
37.4,-122.7,51.2,0.00,Environm Buoy 46012
37.4,-121.133,67.1,0.00,Crows Landing
37.4,14.917,59.5,0.00,Catania/Sigonella
37.4,122.683,45.4,0.80,Chengshantou
37.406,-122.048,57.7,0.00,Moffett Federal Airfield
37.418,-5.893,57.0,0.18,Sevilla
37.433,116.317,58.8,0.04,Dezhou
37.433,127.633,62.0,0.00,Yeoju Range
37.439,-105.861,47.5,0.00,San Luis Valley Regional Airport
37.446,127.114,59.6,0.00,Seoul Ab
37.467,15.066,61.4,0.00,Catania Fontanarossa
37.467,53.967,67.0,0.00,Esenguly
37.467,126.633,59.1,0.00,Incheon
37.48,-76.32,63.9,0.00,Milford Haven Coast Guard Statio
37.483,-82.517,67.3,0.00,Pikeville (Ramos)
37.483,69.383,75.7,0.00,Parkhar
37.483,105.683,47.7,0.00,Zhongning
37.483,130.9,59.1,0.00,Ulleungdo
37.483,139.917,52.0,0.00,Wakamatsu
37.5,71.5,61.5,0.00,Khorog
37.5,111.1,53.7,0.00,Lishi
37.5,117.533,56.4,0.63,Huimin
37.5,129.133,62.8,0.00,Donghae Radar
37.512,-122.25,59.4,0.00,San Carlos
37.512,-77.323,67.9,0.06,Richmond International Airport
37.517,66.017,82.7,0.00,Carsanga
37.53,-75.62,65.1,0.00,Parramore Beach
37.531,22.404,55.5,0.00,Tripolis
37.533,74.833,31.5,0.00,Sajmak
37.533,126.967,59.5,0.00,Sinyongsan
37.558,126.791,55.9,0.00,Gimpo
37.567,126.967,61.4,0.00,Seoul City
37.591,-83.314,62.9,0.00,Jackson Carroll Arpt
37.6,62.183,78.5,0.00,Bajramaly
37.617,-114.517,49.5,0.00,Caliente  Nv.
37.617,-109.467,50.0,0.00,Blanding
37.617,-97.267,66.6,0.00,Mcconnell Afb Airport
37.617,54.783,75.7,0.00,Gyzyletrek
37.617,78.283,62.4,0.00,Pishan
37.617,120.317,51.4,0.67,Longkou
37.62,-122.365,55.1,0.00,San Francisco International Airport
37.624,-120.951,65.2,0.00,Mdsto Cty-Co H Sham Fd Apt
37.624,-118.838,43.6,0.00,Mammoth Yosemite
37.648,-97.43,64.5,0.00,Wichita Eisenhower National
37.67,-95.484,67.1,0.00,Chanute Martin Johnson Apt
37.69,26.912,59.3,0.00,Samos
37.7,134.3,55.2,0.00,Moored Buoy 21002
37.706,-112.146,37.0,0.00,Bryce Canyon Airport
37.709,-113.094,41.7,0.01,Cedar City Regional Arpt
37.719,127.099,64.0,0.00,H 207 Heliport
37.721,-122.221,57.4,0.00,Metro Oakland Intl Airport
37.733,-122.317,58.1,0.00,Alameda(Usn)
37.733,-87.167,67.2,0.00,Owensboro Daviess C
37.741,-25.698,57.3,0.00,Ponta Delgada
37.747,112.628,57.1,0.00,Wusu
37.75,-122.82,49.3,0.00,San Francisco - 18Nm West Of San Francis
37.75,-92.15,67.2,0.00,Waynesville Regional Airport At Forney Field
37.75,-89.017,69.0,0.00,Williamson Co Rgnl
37.754,128.944,58.0,0.00,Gangneung
37.767,-89.25,72.8,0.00,Southern Illinois
37.767,140.467,56.7,0.00,Fukushima
37.769,-99.968,62.7,0.00,Dodge City Regional Airport
37.771,128.868,61.6,0.00,Gangneung
37.775,-0.812,60.2,0.00,Murcia San Javier
37.784,-81.123,58.6,0.00,Beckley Raleigh Co Mem Ap
37.785,30.582,54.7,0.00,Isparta
37.799,-116.781,46.0,0.00,Tonopah Test Range
37.8,-122.7,48.9,0.00,Pacific Buoy
37.8,61.55,78.6,0.00,Chashkent
37.8,107.383,45.0,0.00,Yanchi
37.817,68.783,76.3,0.00,Kurgan-Tyube
37.833,65.2,82.6,0.00,Kerki Intl
37.842,-4.849,59.0,0.00,Cordoba
37.85,27.85,63.9,0.00,Aydin / Cildir
37.85,95.367,28.5,0.00,Da-Qaidam
37.85,136.917,56.2,0.00,Hegurashima (Lgt-H)
37.858,-80.399,60.5,0.00,Greenbrier Valley
37.882,23.735,63.9,0.00,Athinai
37.884,127.718,63.0,0.00,A 306
37.889,-121.226,60.8,0.00,Stockton Metropolitan Airport
37.894,40.201,57.7,0.00,Diyarbakir
37.9,-85.967,60.3,0.00,Godman Aaf Airport
37.9,127.733,58.6,0.00,Chuncheon
37.9,139.017,54.6,0.00,Niigata
37.911,12.488,65.4,0.00,Trapani Birgi
37.917,69.783,76.7,0.00,Kulyab
37.917,127.05,60.8,0.00,Camp Casey/Tongduch
37.921,21.293,58.6,0.00,Andravida
37.927,-100.725,60.2,0.00,Garden City Regional Arpt
37.933,-75.383,62.6,0.00,Chincoteague
37.933,83.65,52.5,0.00,Andir
37.933,124.667,45.6,0.00,Baengnyeongdo Ab
37.937,-75.471,65.3,0.00,Wallops Island Uau
37.95,-79.833,58.3,0.00,Ingalls Fld
37.95,139.117,55.4,0.00,Niigata Airport
37.951,-1.23,63.0,0.00,Alcantarilla
37.967,126.567,55.5,0.00,Kaesong
37.979,32.562,52.4,0.00,Konya
37.987,58.361,68.8,0.00,Ashgabat
38.033,125.7,54.4,0.00,Haeju
38.033,138.233,55.6,0.00,Aikawa
38.041,-84.606,59.5,0.00,Blue Grass Airport
38.044,-87.521,61.9,0.03,Evansville Regional Airport
38.049,-103.513,52.6,0.00,La Junta Municipal Airport
38.05,138.417,58.1,0.00,Sado
38.051,-117.09,44.4,0.00,Tonopah Airport
38.064,23.556,66.2,0.00,Elefsis
38.065,-97.861,57.5,0.00,Hutchinson Municipal Arpt
38.067,114.35,60.7,0.00,Shijiazhuang
38.071,15.652,60.0,0.00,Reggio Calabria
38.079,-7.932,52.4,0.25,Beja
38.083,-102.617,54.2,0.00,Lamar
38.083,62.8,84.2,0.00,Uchadzhy
38.1,-92.55,73.1,0.00,Lee C Fine Mem
38.131,-91.768,69.5,0.00,Rolla/Vichy Airport
38.137,-78.455,68.2,0.35,Charlottesville Albemarle Arpt
38.14,140.917,63.6,0.00,Sendai
38.15,85.55,51.9,0.00,Qiemo/Qarqan
38.15,124.883,52.0,0.20,Ryongyon
38.167,73.967,38.9,0.00,Murgab
38.167,120.783,45.7,0.63,Tuoji Island
38.176,13.091,64.6,0.00,Palermo
38.181,-85.739,60.8,0.00,Louisville Intl-Standiford Field Ap
38.2,-123.3,49.1,0.00,Pacific Buoy
38.2,15.55,63.1,0.00,Messina
38.228,-85.664,59.5,0.00,Bowman Field Airport
38.23,-123.32,49.0,0.00,Bodega Bay - 48Nm North Northwest Of San
38.233,127.967,59.1,0.00,Wonju Ab
38.233,140.917,63.0,0.00,Kasuminome (Jasdf)
38.25,90.85,32.9,0.00,Mangnai
38.25,140.35,54.0,0.00,Yamagata
38.251,128.565,57.0,0.00,Sokcho
38.267,-121.933,61.4,0.00,Travis Air Force Base
38.267,-78.9,66.2,0.00,Shenandoah Valley Rg
38.267,109.783,48.9,0.00,Yulin
38.267,140.9,55.6,0.00,Sendai
38.282,-0.558,59.4,0.47,Alicante
38.289,-104.506,50.5,0.00,Pueblo Memorial Airport
38.3,-76.417,63.1,0.00,Naval Air Station
38.317,-88.867,75.9,0.00,Mount Vernon
38.329,-96.195,67.8,0.00,Emporia Municipal Airport
38.33,-75.08,54.9,0.00,Ocean City
38.333,116.833,57.2,0.00,Cangzhou
38.341,-75.51,62.1,0.00,Salisbury Ocean Cit
38.365,-82.555,65.1,0.00,Tri-State/M.J.Fergus
38.371,-110.715,49.5,0.00,Hanksville
38.379,-81.59,66.3,0.07,Yeager Airport
38.38,-76.38,63.3,0.00,Cove Point Coast Guard Light Sta
38.405,141.22,53.8,0.00,Matsushima
38.412,140.371,58.6,0.00,Yamagata
38.417,-113.017,38.7,0.16,Milford Municipal Ap
38.417,127.283,52.2,0.00,Pyonggang
38.433,56.3,71.1,0.00,Garryqala
38.433,57.417,70.0,0.00,Bakherden
38.433,77.267,62.2,0.00,Shache
38.433,141.3,56.6,0.00,Ishinomaki
38.435,38.091,53.5,0.00,Erhac / Malatya
38.45,48.883,55.7,0.35,Astara
38.46,-74.7,53.0,0.00,Delaware Bay 26 Nm Southeast Of Cape May
38.467,64.367,79.9,0.00,Byrdalyk
38.467,70.883,67.3,0.00,Darvaz
38.467,102.183,35.1,0.00,Jin-Chang
38.468,43.332,45.6,0.04,Van
38.47,-70.56,61.6,0.00,Hotel 200Nm East Of Cape May Nj
38.483,106.217,48.7,0.00,Yinchuan / Hedong
38.5,-107.883,41.0,0.20,Montrose
38.5,126.533,52.5,0.00,Singye
38.504,-77.305,64.4,0.01,Quantico Mcaf
38.507,-121.495,60.7,0.00,Sacramento Executive Airport
38.513,27.01,63.9,0.00,Cigli
38.517,-122.817,62.4,0.00,C M Schulz Sonoma Co
38.517,-107.894,46.3,0.00,Montrose Rgnl
38.517,-5.117,55.2,0.04,Hinojosa Del Duque
38.517,125.767,52.1,0.04,Sariwon
38.52,-28.716,58.7,0.00,Horta
38.534,-106.933,40.7,0.00,Gunnison Co. (Awos)
38.543,68.825,73.3,0.00,Dushanbe
38.55,-89.85,63.7,0.00,Scott Air Force Base/Midamerica Airport
38.567,-121.3,61.0,0.00,Mather Field
38.567,-7.9,52.0,0.02,Evora
38.567,14.85,62.0,0.00,Isola Salina
38.583,-92.15,68.8,0.00,Jefferson City Mem
38.6,-106.92,31.8,0.24,Gunnison Aviation Weather Report
38.607,39.291,51.8,0.12,Elazig
38.617,55.183,72.7,0.00,Bekibent
38.633,103.083,43.1,0.00,Minqin
38.667,-121.4,61.4,0.00,Sacramento Mcclellan Afb
38.678,-104.757,43.3,0.04,Butts Aaf Airport
38.683,29.4,55.3,0.00,Usak
38.683,61.2,78.3,0.00,Cheshme
38.696,-121.59,63.0,0.00,Sacramento Intl Airport
38.7,13.183,59.3,0.00,Ustica Island
38.717,-93.55,66.7,0.00,Whiteman Afb Airport
38.717,-77.183,62.2,0.02,Davison Aaf Airport
38.717,125.383,47.4,0.46,Nampo
38.726,30.601,51.7,0.04,Afyon
38.733,48.833,57.4,0.00,Lankaran
38.733,115.483,60.1,0.00,Baoding
38.733,128.183,55.3,0.00,Changjon
38.75,58.467,76.3,0.00,Bokyrdak
38.75,112.7,54.6,0.00,Yuanping
38.753,-90.374,66.3,0.02,Lambert-St Louis International Ap
38.762,-27.091,58.1,0.00,Lajes
38.767,-9.133,55.2,0.02,Lisboa/Gago Coutinho
38.767,48.4,56.7,0.12,Lerik
38.77,35.495,50.5,0.16,Erkilet / Kayseri
38.781,-9.136,53.1,0.00,Lisboa
38.8,-97.65,61.9,0.00,Salina Municipal Airport
38.8,65.717,79.8,0.00,Karshi
38.8,98.417,20.8,0.00,Tuo-Le
38.809,27.834,61.4,0.00,Akhisar
38.81,-104.688,41.0,0.06,City Of Colorado Springs Municipal Ap
38.817,-92.218,62.7,0.00,Columbia Regional Airport
38.817,-76.867,60.5,0.01,Andrews Air Force Base Airport
38.832,-94.89,70.6,0.00,New Century Aircenter Arpt
38.833,93.383,29.5,0.00,Lenghu
38.842,-99.273,61.7,0.00,Hays Rgnl
38.844,-94.56,72.3,0.00,Richard Gebaur
38.847,-77.035,63.4,0.00,Ronald Reagan Washington Natl Ap
38.873,1.373,58.2,0.02,Ibiza
38.876,-98.809,57.2,1.93,Russell Municipal Airport
38.883,-120.0,43.2,0.00,Lake Tahoe
38.883,22.433,70.3,0.00,Lamia
38.89,-79.855,57.3,0.16,Elkins-Rand Co-J.Rand Field Airport
38.891,-6.821,59.3,0.20,Talavera La Real / Badajoz
38.9,-76.43,60.3,0.00,Thomas Point Coast Guard Station
38.9,46.25,58.5,0.00,Megri
38.905,16.242,60.4,0.00,Lamezia Terme
38.917,72.167,27.3,0.00,Fedcenko Glacier
38.917,139.85,51.4,0.00,Sakata
38.925,20.765,60.2,0.00,Aktion
38.935,-77.447,61.0,0.27,Washington Dulles International Ap
38.949,-1.864,54.2,0.00,Albacete
38.95,-95.664,64.5,0.00,Forbes Field Airport
38.95,45.633,62.3,0.00,Julfa
38.95,113.517,19.2,0.00,Wutai Shan
38.966,121.539,46.1,0.26,Zhoushuizi
38.967,-104.817,37.5,0.02,Usaf Academy Airstrip Airport
38.968,24.487,65.4,0.00,Skiros
38.983,-3.917,57.0,0.00,Ciudad Real
38.983,56.283,70.9,0.00,Gyzylarbat
38.997,17.08,56.6,0.00,Crotone
39.0,-110.15,48.2,0.00,Green River Range
39.0,70.3,66.9,0.00,Rasht
39.033,88.167,59.7,0.00,Ruoqiang
39.044,-84.672,58.6,0.00,Cincinnati/Northern Kentucky Intl Ap
39.05,-96.767,64.9,0.12,Marshall Army Airfield
39.05,123.217,45.0,1.02,Haiyang Dao
39.057,26.598,63.2,0.00,Mitilini
39.067,26.883,59.7,0.00,Dikili
39.073,-95.626,64.9,0.00,Philip Billard Municipal Airport
39.083,-76.767,63.7,0.16,Tipton Airport
39.083,63.6,75.1,0.00,Chardzhev
39.083,100.283,41.7,0.00,Zhangye
39.1,-121.567,63.2,0.00,Yuba Co
