lat,lon,temp,precip,name
-90.0,0.0,-82.5,0.00,Amundsen-Scott
-82.517,-174.45,-5.0,0.00,Lettau
-80.033,-178.633,-24.5,0.00,Gill
-80.0,-119.4,-19.8,0.00,Byrd Station
-79.95,165.117,-19.5,0.00,Marilyn
-79.9,169.983,-17.7,0.00,Schwerdtfeger
-77.95,166.5,-21.8,0.00,Pegasus North
-77.9,170.817,-28.6,0.00,Ferrell
-77.85,166.667,-9.6,0.00,Mcmurdo
-77.433,163.75,-12.7,0.00,Marble Point
-75.61,-26.272,-21.9,0.00,Halley
-75.117,123.367,-82.7,0.00,Dome C Ii
-75.017,-62.533,-19.8,0.00,Navy Operated(Amos)
-74.95,163.683,-13.6,0.00,Manuela
-74.483,160.483,-43.3,0.00,Sandra
-74.233,160.283,-48.1,0.00,Lynn
-73.05,-13.383,3.2,0.00,Nordenskiold Base
-72.2,-60.167,-6.1,0.00,Univ. Wi Id 8902 (Butler Island)
-70.667,-8.25,9.9,0.00,Neumayer
-70.433,134.15,-60.2,0.00,D-85
-69.0,39.583,-1.4,0.00,Syowa
-68.583,77.967,2.4,0.00,Davis
-68.117,-67.133,13.5,0.00,Base San Martin
-67.6,62.867,-5.6,0.00,Mawson
-67.367,-179.967,13.4,0.00,Univ. Wi Id 8983 (Scott Island)
-67.017,-61.467,11.4,0.00,Univ. Wi Id 8926 (Larsen Ice Shelf)
-66.717,139.833,7.5,0.00,D-10
-66.667,140.017,9.9,0.00,Dumont D'Urville
-66.283,110.533,10.1,0.00,Casey
-66.283,162.333,18.4,0.00,Young Island
-64.233,-56.717,-8.4,0.04,Base Marambio (Centro Met. Antartico)
-63.4,-56.983,-1.7,0.24,Base Esperanza
-63.317,-56.683,16.5,0.00,Base Bernardo O'Higgins
-62.5,-59.683,25.4,0.00,Base Arturo Prat
-62.233,-58.633,25.7,0.00,Base Carlini
-62.183,-58.983,29.8,0.08,Centro Met. Antartico Pdte. Eduardo Frei
-60.733,-44.733,29.2,0.04,Base Orcadas
-56.475,-68.73,36.8,0.08,Isla Diego Ramirez
-54.843,-68.296,39.9,0.17,Ushuaia Malvinas Argentinas
-54.499,158.937,43.0,0.04,Macquarie Island
-54.283,-36.5,36.3,0.00,Grytviken
-53.778,-67.749,40.9,0.00,Rio Grande
-53.003,-70.855,43.4,0.00,Carlos Ibanez Del Campo Intl
-52.55,169.167,41.4,0.04,Cambell Island Aws
-52.433,-59.083,46.6,0.00,Sea Lion Island
-52.4,-75.1,45.9,1.34,Islotes Evangelistas
-51.9,-60.917,47.3,0.00,Weddell Island
-51.823,-58.447,49.5,0.00,Mount Pleasant
-51.609,-69.313,44.2,0.08,Rio Gallegos
-51.317,-59.6,48.7,0.00,Pebble Island
-50.483,166.3,44.2,0.24,Enderby Island Aws
-50.333,-72.3,46.6,0.00,Lago Argentino Arpt
-49.307,-67.803,56.0,0.00,San Julian
-48.167,-52.933,33.6,0.00,Grates Cove(Auto)
-46.875,37.86,49.4,0.04,Marion Island
-46.517,-71.017,50.0,0.00,Perito Moreno Arpt
-46.433,51.85,36.0,0.00,Alfred Faure (Iles Crozet)
-46.412,168.313,40.8,0.28,Invercargill
-46.15,166.6,44.7,1.14,Puysegur Point Aws
-45.785,-67.466,62.1,0.00,Comodoro Rivadavia
-45.767,170.733,46.3,0.00,Taiaroa Head
-44.4,171.25,50.3,0.00,Timaru Harbour
-43.95,-176.567,48.9,0.12,Chatham Islands Aws
-43.867,169.0,49.7,0.00,Haast Aws
-43.65,146.267,63.1,0.00,Maatsuyker Island Lighthouse
-43.5,147.15,68.3,0.00,Cape Bruny Lighthouse
-43.489,172.532,47.2,0.00,Christchurch Intl
-43.211,-65.27,67.3,0.00,Almirante Zar
-43.167,147.833,63.6,0.00,Port Arthur /Palmer
-42.983,145.5,64.3,0.00,Low Rocky Point (Aws)
-42.908,-71.139,51.7,0.08,Esquel
-42.9,147.233,49.9,0.00,Mt Wellington
-42.883,147.333,65.1,0.00,Hobart (Ellerslie Road)
-42.836,147.51,64.9,0.00,Hobart
-42.717,170.983,48.9,0.20,Hokitika Aerodrome Aws
-42.15,145.283,65.3,0.00,Strahan Aerodrome
-41.733,171.567,47.9,0.00,Westport Aerodrome
-41.717,174.267,52.3,0.00,Cape Campbell Aws
-41.617,147.733,60.2,0.00,Storys Creek Aws
-41.545,147.214,61.1,0.00,Launceston
-41.439,-73.094,53.0,0.51,El Tepual Intl
-41.327,174.805,52.7,0.00,Wellington Intl
-41.3,173.2,54.6,0.04,Nelson Aerodrome Aws
-41.25,-68.733,56.7,0.02,Maquinchao
-41.167,146.417,58.2,0.00,Devonport Airport
-41.151,-71.158,48.0,0.00,San Carlos De Bariloche
-41.05,146.8,62.8,0.00,Low Head (Lgt-H)
-41.0,145.733,56.3,0.00,Wynyard Airport
-40.917,144.7,63.0,0.00,Marrawah
-40.905,174.989,52.5,0.00,Paraparaumu
-40.869,-63.0,65.7,0.00,Gobernador Castello
-40.783,-65.1,66.5,0.00,San Antonio Oeste Aero
-40.733,148.117,65.5,0.00,Swan Island Lightho
-40.667,144.683,63.4,0.00,Cape Grim Baps
-40.55,173.0,56.0,0.08,Farewell Spit Aws
-40.35,-9.883,56.1,0.00,Gough Island
-40.317,175.6,52.3,0.00,Palmerston North Aws
-40.1,148.0,72.2,0.00,Flinders Island Airport
-39.933,143.85,67.6,0.00,King Island Currie
-39.467,175.683,41.4,0.39,Waiouru Aws
-39.467,176.867,54.1,0.00,Napier Aerodrome Aws
-39.117,146.417,75.2,0.00,Wilsons Promontory Lighthouse
-39.017,174.183,53.7,0.00,New Plymouth Aws
-38.949,-68.156,59.7,0.01,Presidente Peron
-38.85,143.517,72.6,0.00,Cape Otway Lighthouse
-38.767,-72.637,55.3,0.94,Maquehue
-38.725,-62.169,65.8,0.00,Comandante Espora
-38.663,177.978,53.3,0.02,Gisborne
-38.6,145.583,69.6,0.00,Wonthaggi
-38.45,144.1,70.7,0.00,Aireys Inlet
-38.45,145.3,67.2,0.00,Rhyll (Aws)
-38.4,142.233,68.6,0.00,Port Fairy Aws
-38.35,145.167,71.0,0.00,Cerberus Aws
-38.317,141.467,71.2,0.00,Portland Cashmore Airport
-38.283,142.433,66.7,0.00,Warrnambool Airport
-38.217,146.467,58.2,0.00,Latrobe Valley Airport
-38.167,144.367,68.4,0.00,Geelong Racecourse
-38.099,147.149,61.7,0.00,East Sale
-38.067,142.767,66.6,0.00,Mortlake Racecourse
-37.976,145.102,69.5,0.00,Melbourne Moorabbin
-37.934,-57.573,61.1,0.00,Mar Del Plata
-37.9,144.117,69.8,0.00,Sheoaks Aws
-37.867,144.75,69.9,0.00,Laverton Raaf
-37.867,148.0,69.2,0.00,Lakes Entrance
-37.817,144.967,69.4,0.00,Melbourne Regional Office
-37.8,77.533,61.9,0.00,Martin De Vivies (Ile Amsterdam)
-37.8,149.267,67.6,0.00,Point Hicks (Lighthouse)
-37.733,140.783,70.8,0.00,Mount Gambier Aero
-37.683,148.45,65.9,0.00,Orbost (Comparison)
-37.673,144.843,68.6,0.00,Melbourne Intl
-37.672,176.196,56.7,0.00,Tauranga
-37.667,144.85,68.7,0.00,Melbourne Intl Arpt
-37.65,142.067,66.6,0.00,Hamilton Airport
-37.567,149.9,63.3,0.00,Gabo Island Lighthouse
-37.55,178.3,54.2,0.00,Hicks Bay Aws
-37.517,143.783,62.7,0.00,Ballarat Aerodrome
-37.283,142.983,65.7,0.00,Ararat Prison
-37.25,150.05,65.3,0.00,Green Cape Aws
-37.237,-59.228,58.1,0.08,Tandil
-37.217,148.267,58.1,0.00,Gelantipy
-37.15,146.433,49.1,0.00,Mount Buller Aws
-37.008,174.792,57.0,0.00,Auckland Intl
-37.0,149.233,54.8,0.00,Bombala Aws
-36.967,139.717,66.2,0.00,The Limestone
-36.967,147.133,47.7,0.00,Mount Hotham
-36.95,140.733,73.9,0.00,Naracoorte
-36.883,145.183,65.0,0.00,Mangalore Airport
-36.867,147.267,46.4,0.00,Falls Creek Aws
-36.773,-73.063,54.8,0.83,Carriel Sur Intl
-36.733,144.317,60.3,0.00,Bendigo Airport Aws
-36.667,149.817,58.2,0.00,Bega Aws
-36.65,142.067,66.0,0.00,Horsham Polkemmet Rd
-36.588,-64.276,66.1,0.00,Santa Rosa
-36.55,145.967,64.3,0.00,Benalla (Shadforth Street)
-36.35,-57.733,63.3,0.51,Dolores Airport
-36.317,141.633,73.9,0.00,Nhill Aerodrome
-36.3,148.967,52.2,0.00,Cooma Airport Aws
-36.25,150.217,64.4,0.00,Montague Island Lighhouse
-36.2,-61.067,60.2,0.04,Bolivar Aero
-36.2,147.883,57.4,0.00,Corryong (Parish Lane)
-36.1,140.35,73.6,0.00,Keith
-35.917,150.15,62.2,0.02,Moruya Heads Pilot Station
-35.85,138.133,70.2,0.00,Cape Willoughby
-35.75,136.583,67.8,0.00,Cape Borda
-35.667,145.617,62.7,0.00,Frankston (Ballam Park)
-35.55,144.933,70.4,0.00,Deniliquin Post Off
-35.494,-69.574,62.7,0.00,Malargue
-35.433,149.783,52.3,0.00,Braidwood Racecourse Aws
-35.383,143.533,69.5,0.00,Swan Hill Aerodrome
-35.35,150.483,65.3,0.00,Ulladulla Aws
-35.333,136.117,68.8,0.00,Neptune Island
-35.333,140.517,72.8,0.00,Lameroo Comparison
-35.307,149.195,53.4,0.00,Canberra
-35.165,147.466,63.4,0.00,Wagga Wagga
-35.133,173.267,57.7,0.00,Kaitaia Observatory
-35.117,137.733,71.3,0.00,Edithburgh Aws
-35.117,139.267,77.3,0.00,Murray Bridge
-34.983,137.4,68.9,0.00,Warooka
-34.967,-71.217,55.2,0.00,Curico/Gen Freire
-34.967,138.7,67.2,0.00,Mount Lofty
-34.949,150.537,66.9,0.00,Nowra
-34.945,138.531,73.5,0.00,Adelaide Intl
-34.941,117.802,62.7,0.00,Albany Airport
-34.933,138.533,73.6,0.00,Adelaide Intl Arpt
-34.917,138.617,71.4,0.00,Kent Town
-34.85,-56.2,66.1,0.51,Prado
-34.838,-56.031,65.1,0.12,Carrasco Intl
-34.833,20.017,63.1,0.00,Cape Agulhas
-34.822,-58.536,66.1,0.16,Ministro Pistarini
-34.793,138.633,73.9,0.00,Adelaide Parafield
-34.789,-56.265,66.8,0.51,Angel S Adami
-34.75,137.517,74.3,0.00,Minlaton Aero
-34.703,138.621,73.0,0.00,Edinburgh
-34.7,138.933,75.5,0.00,Mount Crawford
-34.633,148.033,63.7,0.00,Cootamundra Airport
-34.605,135.88,69.0,0.00,Port Lincoln
-34.6,135.883,75.1,0.00,Port Lincoln Aero
-34.588,-68.403,61.9,0.00,San Rafael
-34.559,-58.416,66.2,0.00,Aeroparque Jorge Newbery
-34.546,-60.931,62.7,0.04,Junin
-34.533,144.867,68.0,0.00,Hay Aws
-34.517,144.85,68.6,0.00,Hay (Miller Street)
-34.483,-54.3,66.3,0.00,Rocha
-34.483,150.4,62.3,0.00,Bowral (Parry Drive)
-34.456,-57.771,66.3,0.08,Laguna De Los Patos Intl
-34.433,172.683,58.8,0.00,Cape Reinga Aws
-34.383,135.367,66.8,0.00,Coles Point
-34.383,137.667,72.9,0.00,Maitland
-34.367,115.133,65.5,0.02,Cape Leeuwin
-34.317,146.067,67.7,0.00,Griffith Aws
-34.25,148.25,57.6,0.00,Young Airport
-34.183,22.15,60.4,0.00,Mossel Bay (Lgt-H)
-34.167,140.75,72.9,0.00,Renmark
-34.135,-63.362,64.9,0.00,Laboulaye
-34.006,22.379,57.0,0.00,George
-34.0,137.533,77.1,0.00,Warburto Point
-33.985,25.617,60.0,0.00,Port Elizabeth Intl / Chief Dawid Stuurman Intl
-33.965,18.602,57.5,0.00,Cape Town Intl
-33.95,116.133,64.0,0.16,Bridgetown Post Office
-33.95,151.2,67.3,0.00,Sydney Intl Airport
-33.946,151.177,67.0,0.00,Sydney Intl
-33.924,150.988,63.0,0.00,Sydney Bankstown
-33.85,148.65,65.1,0.00,Cowra Airport Comparison
-33.85,151.2,66.8,0.00,Sydney (Observatory Hill)
-33.833,121.893,64.3,0.00,Esperance
-33.73,-65.387,62.9,0.00,Villa Reynolds
-33.717,150.283,59.4,0.00,Katoomba (Narrow Neck Rd)
-33.683,117.55,63.5,0.00,Katanning Comparison
-33.683,121.833,62.2,0.00,Esperance Aero
-33.65,134.883,65.9,0.00,Elliston
-33.633,-78.833,63.5,0.31,Juan Fernandez
-33.617,150.267,59.2,0.00,Mount Boyce
-33.601,150.781,64.5,0.00,Richmond
-33.483,145.517,71.9,0.00,Hillston Airport
-33.417,149.65,55.5,0.00,Bathurst Airport Aws
-33.393,-70.786,52.6,0.00,Arturo Merino Benitez Intl
-33.383,149.117,56.5,0.00,Orange Airport Comparison
-33.359,-56.499,67.3,0.00,Santa Bernardina Intl
-33.3,117.333,64.9,0.00,Wagin
-33.283,151.567,68.5,0.00,Norah Head Lighthou
-33.273,-66.356,65.7,0.00,San Luis
-33.25,-58.067,68.3,0.08,Mercedes/Ricardo De
-33.217,-54.383,67.5,0.08,Treinta Y Tres
-33.133,135.55,73.2,0.00,Kyancutta
-33.133,148.167,67.9,0.00,Parkes (Macarthur Street)
-33.117,118.467,63.8,0.00,Lake Grace Comparison
-33.085,-64.261,64.6,0.00,Rio Cuarto Area De Material
-33.059,137.514,76.8,0.00,Whyalla
-33.036,27.826,61.2,0.00,East London / King Phalo
-33.017,137.517,77.8,0.00,Whyalla
-33.01,-58.613,67.6,0.01,Gualeguaychu
-32.917,151.783,67.0,0.00,Newcastle Nobbys Signal Station
-32.904,-60.785,66.8,0.08,Rosario
-32.9,144.283,68.5,0.00,Ivanhoe Post Office
-32.833,17.85,67.2,0.00,Cape Columbine
-32.832,-68.793,62.2,0.00,El Plumerillo
-32.8,-56.517,66.1,0.36,Paso De Los Toros
-32.795,151.834,65.1,0.00,Williamtown
-32.733,25.583,56.7,0.00,Somerset East
-32.733,150.233,57.9,0.00,Nullo Mountain Aws
-32.684,-62.158,65.2,0.03,Marcos Juarez
-32.683,-57.633,67.1,0.04,Young
-32.567,149.617,55.8,0.00,Mudgee Airport Aws
-32.517,115.717,66.6,0.00,Mandurah
-32.45,123.867,69.4,0.00,Balladonia
-32.433,136.067,74.1,0.00,Mount Ive
-32.338,-54.217,66.4,0.12,Cerro Largo
-32.333,117.867,63.2,0.00,Corrigin
-32.217,148.575,62.0,0.00,Dubbo
-32.2,121.783,66.0,0.00,Norseman
-32.133,133.7,73.5,0.00,Ceduna Amo
-32.1,115.883,65.1,0.00,Jandakot Aero
-32.033,150.833,59.0,0.00,Scone Airport
-32.017,115.5,68.2,0.00,Rottnest Island
-32.0,141.467,69.5,0.00,Broken Hill Airport Aws
-31.95,115.767,68.7,0.00,Swanbourne
-31.94,115.967,63.6,0.00,Perth Intl
-31.917,115.867,65.4,0.00,Perth Metro
-31.9,152.483,67.1,0.00,Taree /Radio Statio
-31.795,-60.48,64.9,0.28,General Urquiza
-31.768,150.842,61.5,0.00,Murrurundi (Haydon Street)
-31.749,-55.926,65.8,0.01,Tacuarembo
-31.718,-52.328,67.6,0.00,Pelotas / Joao Simoes Lopes Neto
-31.712,-60.812,67.0,0.00,Sauce Viejo
-31.68,128.879,74.9,0.00,Eucla
-31.668,116.015,63.7,0.00,Pearce
-31.65,117.25,64.5,0.00,Cunderdin
-31.606,29.522,63.2,0.00,Port St Johns
-31.571,-68.418,63.5,0.00,San Juan
-31.567,143.367,80.3,0.00,Wilcannia (Reid St)
-31.55,147.183,69.7,0.00,Nyngan Airport
-31.542,159.079,65.6,0.00,Lord Howe Island Aero
-31.483,145.833,70.4,0.00,Cobar Mo
-31.467,118.267,62.6,0.00,Merredin
-31.45,130.9,68.7,0.00,Nullarbor
-31.433,-57.983,66.8,0.00,Nueva Hesperides Intl
-31.433,152.917,64.4,0.00,Port Macquarie
-31.324,-64.208,65.8,0.00,Ambrosio L V Taravella
-31.297,-57.997,67.5,0.12,Comodoro Pierrestegui
-31.267,149.267,61.7,0.00,Coonabarabran (Namoi Street)
-31.233,119.333,63.8,0.00,Southern Cross
-31.144,136.817,75.0,0.00,Woomera
-31.083,125.65,71.4,0.00,Balgair
-31.067,150.833,65.6,0.00,Tamworth Airport Aws
-31.017,115.317,70.8,0.00,Lancelin
-30.975,-55.476,65.0,0.04,Presidente General Don Oscar D Gestido
-30.917,153.083,68.9,0.00,Smoky Cape Lighthouse
-30.9,116.717,63.1,0.00,Wongan Hills
-30.85,143.083,73.1,0.00,White Cliffs
-30.833,128.1,77.2,0.00,Forrest Airport
-30.833,128.117,68.2,0.00,Forrest
-30.789,121.462,67.0,0.00,Kalgoorlie Boulder
-30.717,134.583,73.4,0.00,Tarcoola
-30.667,24.017,49.8,0.00,Deaar(Ua)
-30.617,130.4,81.0,0.00,Cook
-30.533,151.667,56.0,0.00,Armidale (Tree Group Nursery)
-30.401,-56.508,68.0,0.00,Artigas Intl
-30.367,-66.283,68.0,0.00,Chamical Aero
-30.321,153.116,63.6,0.00,Coffs Harbour
-30.3,115.033,69.7,0.02,Jurien Bay
-30.283,116.667,67.5,0.00,Dalwallinu Comparison
-30.033,145.95,70.7,0.00,Bourke Airport Aws
-29.994,-51.171,66.8,0.00,Salgado Filho
-29.97,30.951,65.4,0.00,Durban Intl
-29.946,-51.144,67.0,0.24,Canoas / Campo Nossa Senhora De Fatima
-29.916,-71.2,56.3,0.00,La Florida
-29.883,-61.95,74.1,0.00,Ceres
-29.783,151.083,53.0,0.00,Inverell Research Centre
-29.782,-57.038,69.3,0.00,Rubem Berta
-29.733,151.733,53.7,0.00,Glen Innes Post Office
-29.711,-53.688,68.0,0.00,Santa Maria
-29.689,-57.152,70.5,0.00,Paso De Los Libres
-29.689,17.94,67.0,0.00,Springbok
-29.65,138.067,69.9,0.00,Marree Comparison
-29.533,30.283,53.6,0.00,Cedara
-29.467,149.85,66.4,0.00,Moree
-29.433,142.0,72.4,0.00,Tibooburra Post Office
-29.433,153.367,65.5,0.00,Yamba Pilot Station
-29.382,-66.796,66.7,0.00,La Rioja
-29.304,27.503,57.6,0.00,Mejametalana
-29.267,117.683,64.0,0.00,Paynes Find
-29.25,-177.933,63.5,0.00,Raoul Island Aws
-29.183,-59.7,73.7,0.00,Reconquista Aero
-29.093,26.302,48.0,0.00,Bloemfontein Intl / Bram Fischer Intl
-29.05,152.017,56.9,0.00,Tenterfield (Federation Park)
-29.042,167.939,64.5,0.00,Norfolk Island Intl
-28.883,121.333,72.8,0.00,Leonora
-28.803,24.765,51.9,0.00,Kimberley
-28.796,114.708,65.8,0.00,Geraldton
-28.705,121.891,69.5,0.00,Murrin Murrin
-28.617,122.417,71.6,0.00,Laverton Aero
-28.596,-70.756,61.0,0.00,Vallenar
-28.596,-65.752,67.0,0.00,Catamarca
-28.517,150.317,66.1,0.00,Goondiwindi Airport
-28.5,32.4,61.4,0.04,Cape St. Lucia
-28.399,21.26,65.4,0.00,Upington
-28.3,113.6,71.0,0.00,North Island
-28.248,28.336,48.9,0.00,Bethlehem
-28.164,153.505,66.6,0.12,Gold Coast
-28.1,140.2,74.3,0.00,Moomba (Private)
-28.067,145.683,72.8,0.00,Cunnamulla Post Office
-28.05,117.833,69.5,0.00,Mount Magnet
-28.033,148.583,62.7,0.00,Saint George
-28.0,143.817,78.1,0.00,Thargomindah Post O
-27.933,153.433,68.0,0.12,Gold Coast Seaway
-27.766,-64.31,68.7,0.12,Santiago Del Estero
-27.717,114.167,69.2,0.00,Kalbarri
-27.67,-48.547,69.9,0.06,Hercilio Luz
-27.617,-144.333,71.4,0.02,Rapa
-27.583,151.933,59.1,0.08,Toowoomba
-27.57,153.008,67.9,0.00,Brisbane Archerfield
-27.45,-59.056,78.5,0.00,Resistencia
-27.446,-58.762,81.2,0.00,Corrientes
-27.417,153.067,66.6,0.02,Brisbane Airport
-27.411,151.735,62.4,0.00,Oakey
-27.386,-55.971,75.5,2.40,Posadas
-27.383,153.117,67.3,0.00,Brisbane Intl Arpt
-27.317,-55.833,77.1,3.27,Encarnacion
-27.3,133.617,76.7,0.00,Marla Police Station
-27.296,-70.414,61.7,0.00,Chamonate
-27.165,-109.422,71.9,0.08,Mataveri Intl
-27.15,151.267,65.3,0.00,Dalby Airport
-27.033,153.467,70.1,0.16,Cape Moreton Lighthouse Aws
-26.841,-65.105,66.4,0.00,Teniente Benjamin Matienzo
-26.757,-60.493,80.2,0.08,Presidencia Roque Saenz Pena / Termal
-26.683,15.25,75.1,0.00,Luderitz (Diaz Point)
-26.667,-57.15,79.6,0.55,San Juan Bautista
-26.617,144.25,70.7,0.00,Quilpie Airport
-26.614,118.537,74.6,0.00,Meekatharra Airport
-26.567,151.833,63.6,0.00,Kingaroy Airport
-26.55,148.783,63.7,0.00,Roma Airport
-26.54,18.111,72.4,0.00,Keetmanshoop
-26.413,146.263,70.2,0.00,Charleville
-26.333,-70.607,61.8,0.00,Chanaral
-26.213,-58.228,78.7,0.04,Formosa
-26.139,28.246,54.2,0.00,Johannesburg Intl
-25.921,32.573,68.1,0.00,Maputo
-25.917,113.517,72.2,0.00,Denham
-25.9,139.35,75.8,0.00,Birdsville Police S
-25.9,153.083,71.9,0.04,Rainbow Beach
-25.89,28.171,58.7,0.00,Pretoria(Met)
-25.85,133.3,72.7,0.00,Kulgera
-25.767,-56.433,82.6,0.04,Villarrica
-25.737,-54.473,74.5,0.00,Cataratas Del Iguazu
-25.633,151.617,68.2,0.00,Gayndah Post Office
-25.596,-54.487,76.2,0.00,Cataratas Intl
-25.528,-49.176,66.7,0.00,Afonso Pena
-25.517,152.717,67.6,0.16,Maryborough
-25.417,142.65,74.5,0.00,Windorah Post Office
-25.405,-49.232,65.6,0.00,Bacacheri
-25.24,-57.519,81.8,0.00,Silvio Pettirossi Intl
-25.2,130.983,70.2,0.00,Yulara Aero
-25.038,46.956,69.4,0.51,Tolagnaro
-25.033,128.3,76.0,0.00,Giles Meteorological Office
-24.9,152.317,69.3,0.04,Bundaberg Aero
-24.888,113.67,73.5,0.00,Carnarvon Airport
-24.856,-65.486,65.0,0.00,Salta
-24.721,-60.549,81.2,0.00,Alferez Armando Rodriguez
-24.717,153.2,72.3,0.00,Sandy Cape Lighthouse
-24.483,150.567,68.4,0.00,Thangool Airport
-24.417,145.467,69.9,0.00,Blackall
-24.393,-65.098,70.6,0.00,Jujuy
-24.3,131.55,75.7,0.00,Watarrka
-24.15,151.883,68.0,2.01,Seventeen Seventy
-24.117,152.717,73.9,0.16,Lady Elliot Island
-23.925,-46.288,76.6,0.00,Base Aerea De Santos
-23.867,29.45,58.5,0.00,Polokwane
-23.85,151.267,68.5,0.20,Gladstone Radar
-23.807,133.902,70.0,0.00,Alice Springs
-23.8,133.917,69.4,0.00,Alice Springs Arpt
-23.627,-46.655,70.7,0.00,Congonhas Deputado Freitas Nobre
-23.567,148.183,72.4,0.00,Emerald Airport
-23.509,-46.638,74.0,0.00,Campo De Marte
-23.45,151.917,71.8,0.39,Heron Island Res Stn
-23.444,-70.445,62.1,0.00,Cerro Moreno Intl / Andres Sabella Intl
-23.442,-57.427,82.5,0.08,Teniente Col Carmelo Peralta
-23.433,-46.467,70.4,0.00,Guarulhos
-23.433,144.283,71.4,0.00,Longreach Aero
-23.383,43.728,74.8,0.87,Toliara
-23.382,150.475,69.7,0.28,Rockhampton
-23.365,-149.524,76.5,0.02,Tubuai Mataura
-23.35,119.717,77.6,0.00,Newman
-23.334,-51.13,78.6,0.00,Londrina / Governador Jose Richa
-23.25,155.533,74.2,0.00,Cato Island
-23.229,-45.862,71.7,0.00,Professor Urbano Ernesto Stumpf
-23.2,131.917,82.3,0.00,Papunya
-23.133,-134.967,74.7,0.63,Mangareva
-23.033,115.033,81.5,0.00,Emu Creek Station
-23.007,-47.135,73.9,0.00,Viracopos
-22.983,-43.367,78.8,0.00,Rio/Jacarepagua
-22.95,136.15,80.0,0.00,Jervois
-22.932,-43.719,77.4,0.00,Santa Cruz / Campo Nero Moura
-22.917,139.9,75.8,0.00,Boulia Airport
-22.91,-43.163,78.0,0.00,Santos Dumont
-22.883,14.433,64.8,0.00,Walvis Bay (Pelican Point)
-22.875,-43.385,81.3,0.00,Campo Delio Jardim De Mattos
-22.817,147.633,68.1,0.00,Clermont Post Office
-22.809,-43.244,74.5,0.00,Galeao Antonio Carlos Jobim
-22.792,-45.205,72.1,0.00,Guaratingueta / Campo Edu Chaves
-22.567,17.1,69.4,0.00,Windhoek/Eros(Saaf)
-22.55,-61.55,87.1,0.00,Pelayo Prat Gill
-22.55,-55.703,72.7,0.00,Ponta Pora
-22.48,17.471,70.5,0.00,Hosea Kutako Intl
-22.383,143.033,72.3,0.00,Winton Post Office
-22.35,149.533,69.5,0.04,St Lawrence Post Office
-22.333,-41.767,77.5,0.00,Macae
-22.333,40.333,77.3,0.24,Ile Europa
-22.267,166.45,71.7,0.12,Noumea
-22.25,131.8,74.7,0.00,Yuendumu
-22.236,114.089,78.2,0.00,Learmonth
-22.217,30.0,70.1,0.00,Beitbridge
-22.175,-51.425,78.7,0.00,Presidente Prudente
-22.015,166.213,71.9,0.00,Noumea La Tontouta
-22.0,148.033,68.5,0.00,Moranbah  Water Tre
-21.985,-47.335,74.8,0.00,Campo Fontenelle
-21.967,152.467,74.7,0.00,Gannet Cay
-21.961,-63.652,70.0,0.01,Yacuiba
-21.917,-157.95,78.1,0.00,Mangaia Island
-21.917,-46.383,68.0,0.00,Caldas
-21.817,-138.8,77.5,0.87,Muroroa Atoll (Mil)
-21.633,115.117,74.9,0.00,Onslow
-21.6,138.3,77.6,0.00,Urandangi
-21.556,-64.701,73.4,0.00,Capitan Av Oriel Lea Plaza Intl
-21.45,115.017,78.3,0.00,Thevenard Island
-21.267,-43.761,63.9,0.08,Major Brigadeiro Doorgal Borges
-21.255,-63.406,76.8,0.00,Tcnl Rafael Pabon
-21.241,-175.15,73.8,0.00,Fua Amotu Intl
-21.203,-159.806,78.9,0.01,Rarotonga Intl
-21.202,48.358,77.8,0.87,Mananjary
-21.183,115.967,83.4,0.00,Mardie
-21.159,27.468,63.8,0.00,P.G. Matante International Airport
-21.133,-47.767,77.9,0.00,Leite Lopes
-21.117,149.217,69.9,0.16,Mackay Mo
-21.05,29.367,64.5,0.00,West Nicholson
-21.008,31.579,69.1,0.00,Buffalo Range
-21.0,134.4,74.3,0.00,Ali Curung
-20.933,154.4,76.4,0.00,Frederick Reef
-20.917,28.45,63.2,0.00,Kezi
-20.887,55.51,77.7,0.00,St Denis Gillot / La Reunion Roland Garros
-20.817,115.383,80.0,0.00,Barrow Il (Private)
-20.817,144.233,73.8,0.00,Hughenden Airport
-20.783,117.15,80.4,0.00,Roebourne
-20.775,167.24,75.5,0.04,Lifou Ouanaham
-20.733,143.133,74.2,0.00,Richmond Post Office
-20.667,-178.717,75.0,0.00,Ono-I-Lau Aws
-20.667,141.733,74.7,0.00,Julia Creek
-20.664,139.489,77.6,0.00,Mount Isa
-20.546,164.256,76.0,0.04,Koumac
-20.535,-70.181,64.6,0.00,Diego Aracena Intl
-20.533,150.383,76.2,0.00,Creal Reef
-20.469,-54.673,80.2,0.00,Campo Grande
-20.43,57.684,75.2,0.55,Sir Seewoosagur Ramgoolam Intl
-20.378,118.626,76.0,0.00,Port Hedland Intl
-20.367,116.85,80.2,0.00,Legendre Island
-20.35,148.95,72.7,0.28,Hamilton Island Airport
-20.3,57.467,73.7,0.00,Vacoas (Mauritius)
-20.285,44.318,79.5,0.00,Morondava
-20.258,-40.286,78.6,1.14,Goiabeiras / Eurico De Aguiar Salles Intl
-20.233,169.767,74.5,0.00,Aneityum
-20.2,32.617,58.4,0.16,Chipinge
-20.133,-157.35,78.8,0.00,Mauke Island
-20.133,127.983,86.8,0.00,Balgo Hills Asa
-20.1,119.583,79.7,0.00,Pardoo Station
-20.055,30.859,60.7,0.02,Masvingo Intl
-20.05,-63.567,72.7,0.00,Camiri
-20.021,28.627,60.0,0.00,J M Nkomo Intl / Bulawayo
-20.02,148.21,74.2,0.00,Bowen Airport Aws
-19.967,158.483,76.1,0.00,Ile Loop (Chesterfield)
-19.9,-144.949,79.0,0.00,Hereheretue
-19.851,-43.951,73.1,0.00,Pampulha Carlos Drummond De Andrade
-19.833,48.8,81.5,0.03,Mahanoro
-19.796,34.908,75.8,0.00,Beira
-19.777,-174.341,76.4,0.24,Haapai
-19.765,-47.965,78.5,0.00,Uberaba / Mario De Almeida Franco
-19.758,63.361,78.4,0.12,Plaine Corail
-19.634,-43.969,73.5,0.00,Tancredo Neves Intl
-19.633,134.183,77.9,0.00,Tennant Creek Airport
-19.602,18.123,72.0,0.00,Grootfontein
-19.543,-65.724,54.1,0.00,Capitan Nicolas Rojas
-19.533,-59.367,84.7,0.00,Adrian Jara
-19.455,169.224,73.2,0.16,Tanna
-19.436,29.862,56.5,0.00,Gweru Thornhill
-19.253,146.765,75.6,0.00,Townsville
-19.25,146.767,75.4,0.00,Townsville(Civ/Mil)
-19.133,179.75,75.5,0.02,Matuku Aws
-19.083,152.383,77.7,0.00,Marion Reef
-19.067,-169.917,75.0,0.00,Alofi
-19.05,178.167,74.0,0.09,Vunisea
-19.012,-57.673,86.4,0.00,Corumba Intl
-19.007,-65.289,69.7,0.02,Juana Azurduy De Padilla
-18.975,-57.821,89.3,0.00,Tte De Av Salvador Ogaya G
-18.883,-48.217,75.6,0.00,Uberlandia
-18.831,-159.764,81.8,0.00,Aitutaki
-18.797,47.479,71.3,0.00,Ivato
-18.65,-173.983,78.3,0.00,Vavau
-18.65,135.95,77.5,0.00,Brunette Downs
-18.63,27.021,71.1,0.00,Hwange National Park
-18.533,32.133,58.9,0.00,Rusape
-18.517,146.383,74.2,0.04,Lucinda Point Aws
-18.483,163.083,78.4,0.04,Ile Surprise
-18.349,-70.339,67.2,0.00,Chacalluta
-18.317,-59.75,85.6,0.00,Robore (Civ/Mil)
-18.317,29.883,64.5,0.00,Kadoma
-18.3,143.55,77.5,0.00,Georgetown Post Office
-18.3,146.033,69.8,0.12,Cardwell Stoney Creek
-18.233,-178.8,77.1,0.12,Lakemba Island
-18.233,127.667,79.2,0.00,Halls Creek Airport
-18.217,28.933,66.7,0.00,Gokwe
-18.183,31.467,56.2,0.00,Grasslands
-18.11,49.393,82.4,0.00,Toamasina
-18.096,25.839,72.8,0.00,Victoria Falls Intl
-18.075,-140.946,81.4,0.00,Hao
-18.067,-163.183,82.9,0.00,Palmerston *
-18.053,-70.276,65.3,0.00,Coronel Carlos Ciriani Santa Rosa Intl
-18.05,44.033,79.7,0.24,Maintirano
-18.043,178.559,75.8,0.00,Nausori Intl
-18.0,-85.1,70.0,0.00,Data Buoy 32302
-17.963,-67.076,56.5,0.00,Juan Mendoza
-17.956,19.719,74.4,0.00,Rundu
-17.945,122.232,79.6,0.00,Broome Intl
-17.93,31.094,60.5,0.08,Robert Gabriel Mugabe Intl / Harare
-17.833,25.162,74.2,0.00,Kasane
-17.812,-63.171,79.2,0.00,El Trompillo
-17.755,177.443,76.6,0.00,Nadi Intl
-17.75,139.55,76.3,0.00,Burketown Post Office
-17.717,148.45,78.3,0.00,Flinders Reef
-17.699,168.32,74.7,1.97,Port Vila Bauerfield
-17.667,141.083,83.5,0.00,Normanton
-17.652,-39.253,78.1,0.12,Caravelas
-17.645,-63.135,77.3,0.00,Viru Viru Intl
-17.617,27.333,79.0,0.00,Binga
-17.583,123.817,82.4,0.00,Curtin Aero
-17.554,-149.607,81.1,0.00,Tahiti Faa A
-17.55,133.533,82.5,0.00,Elliott
-17.533,118.95,83.2,0.00,Rowley Shoals
-17.432,32.185,64.5,0.08,Mutoko
-17.421,-66.177,63.9,0.00,Jorge Wilstermann Intl
-17.383,131.117,76.3,0.00,Wave Hill
-17.233,-178.95,77.6,0.02,Vanua Balavu Aws
-17.15,176.9,78.4,0.01,Viwa Aws
-17.117,152.0,77.9,0.00,Lihou Reef
-17.094,49.816,80.8,0.00,Sainte Marie
-17.067,145.417,72.9,0.00,Mareeba Airport
-17.05,42.717,82.4,0.00,Ile Juan De Nova
-17.017,128.217,81.7,0.00,Warmun
-17.0,178.7,78.4,0.00,Nabouwalu
-16.886,145.755,73.3,0.04,Cairns Intl
-16.883,145.767,73.3,0.00,Cairns Airport
-16.833,29.617,63.2,0.28,Karoi
-16.783,31.583,69.7,0.00,Mount Darwin
-16.767,145.967,73.9,0.00,Green Island
-16.7,177.583,77.8,0.00,Yasawa
-16.667,139.167,76.5,0.00,Mornington Island
-16.632,-49.221,82.2,0.00,Santa Genoveva
-16.52,28.885,78.2,0.00,Kariba Intl
-16.513,-68.192,44.5,0.04,El Alto Intl
-16.467,147.867,78.0,0.00,Holmes Reef
-16.45,59.617,82.1,0.00,St. Brandon (St. Raphael)
-16.45,123.0,78.9,0.00,Cygnet Bay
-16.444,-151.751,81.5,0.00,Bora Bora Motu Mute
-16.433,136.067,84.9,0.00,Mcarthur River Mine
-16.417,167.8,77.5,0.12,Lamap/Malekoula Isl
-16.401,-61.045,83.5,0.00,San Ignacio De Velasco Airport
-16.383,145.567,76.4,0.24,Low Isles Lighthouse
-16.341,-71.583,63.1,0.00,Rodriguez Ballon
-16.288,149.965,78.3,0.02,Willis Island
-16.25,-62.1,81.4,0.00,Concepcion
-16.229,-48.964,76.0,0.00,Base Aerea / Campo Marechal Marcio De Souza E Mello
-16.183,33.583,78.1,0.08,Tete
-15.95,-173.767,81.5,0.00,Keppel
-15.933,-5.667,67.4,0.08,St. Helena Is.
-15.883,54.517,82.6,0.16,Serge-Frolow (Ile Tromelin)
-15.863,-47.913,72.5,0.00,Presidente Juscelino Kubitschek
-15.861,-52.389,82.1,0.00,Barra Do Garcas
-15.778,128.708,83.3,0.00,Kununurra
-15.75,136.8,81.4,0.00,Centre Island
-15.667,46.352,82.8,0.00,Philibert Tsiranana
-15.653,-56.117,85.7,0.00,Marechal Rondon
-15.633,30.417,81.0,0.00,Kanyemba
-15.583,133.217,81.1,0.00,Larrimah
-15.567,-175.617,80.4,0.00,Niuafoou
-15.517,123.15,79.5,0.00,Adele Island
-15.501,167.223,77.9,0.08,Santo Pekoa Intl
-15.483,128.117,82.9,0.00,Wyndham
-15.433,145.183,76.7,0.00,Cooktown Mission
-15.383,-75.167,70.4,0.00,San Juan De Marcona
-15.333,28.45,68.6,0.00,Lusaka Intl
-15.106,39.282,72.1,1.34,Nampula
-14.999,50.32,79.8,0.00,Antsirabato
-14.883,47.983,84.0,0.00,Antsohihy
-14.819,-64.918,80.7,0.00,Tte Av Jorge Henrich Arauz
-14.521,132.378,81.3,0.00,Tindal
-14.483,-145.033,83.8,0.08,Takaroa
-14.483,-67.483,82.9,0.00,Rurrenabaque
-14.467,132.267,82.1,0.00,Katherine Country Club
-14.331,-170.714,83.7,0.04,Tafuna/Pago Pago International Ap
-14.317,-178.117,82.1,0.00,Maopoopo / Futuna Pointe Vele
-14.3,-67.367,84.2,0.00,Reyes
-14.117,123.533,84.8,0.00,Browse Island Aws
-13.85,167.55,81.7,0.03,Sola/Vanua Lava Isl
-13.8,-171.783,81.2,0.00,Apia/Upolu Island
-13.789,33.781,64.5,0.00,Lilongwe Intl
-13.762,-65.435,86.1,0.00,Santa Ana Del Yacuma
-13.75,126.15,83.9,0.00,Troughton Island
-13.75,143.117,78.9,0.00,Coen Airport
-13.745,-76.22,67.8,0.00,Pisco Intl
-13.733,130.683,80.6,0.00,Mango Farm
-13.65,136.933,81.7,0.00,North East Island
-13.536,-71.939,56.2,0.24,Teniente Alejandro Velasco Astete Intl
-13.333,-64.15,86.7,0.00,Magdalena
-13.317,166.617,82.4,0.00,Linua Airport Aws (Torres Is.)
-13.312,48.315,87.8,0.00,Fascene
-13.262,-43.408,79.5,0.00,Bom Jesus Da Lapa
-13.238,-176.199,79.7,0.00,Wallis Hihifo
-13.233,-163.083,82.9,0.00,Suwarrow
-13.133,39.033,76.3,0.00,Montepuez
-13.067,-64.667,85.0,0.83,San Joaquin
-12.911,-38.331,82.4,0.00,Deputado Luis Eduardo Magalhaes
-12.805,45.281,85.2,0.00,Dzaoudzi Pamandzi
-12.783,143.3,77.8,0.08,Lockhart River Airport
-12.683,141.917,77.5,0.02,Weipa Aero
-12.667,132.9,84.9,0.00,Jabiru Airport
-12.617,131.05,83.7,0.00,Noonamah Airstrip
-12.614,-69.229,84.0,0.00,Padre Aldamiz
-12.5,177.05,84.4,0.16,Rotuma Island
-12.415,130.877,82.1,0.00,Darwin Intl
-12.4,130.883,82.0,0.00,Darwin (Civ/Mil)
-12.349,49.292,81.8,0.00,Arrachart
-12.283,136.817,80.4,0.04,Gove Airport
-12.233,131.033,80.7,0.00,Gunpoint
-12.233,131.883,81.7,0.00,Point Stuart
-12.188,96.834,81.2,0.00,Cocos Keeling Islands
-12.117,134.9,80.5,0.00,Milingimbi Aws
-12.05,134.217,77.8,0.00,Maningrida
-12.022,-77.114,68.0,0.00,Jorge Chavez Intl
-11.783,130.017,80.6,0.00,Cape Fourcroy
-11.583,47.283,84.3,0.00,Iles Glorieuses
-11.4,130.417,81.7,0.04,Pirlangimpi
-11.317,131.767,82.4,0.00,Cape Don Aws
-11.04,-68.783,75.8,0.28,Heroes Del Acre / Cap Av Civ Anibal Arab Fadul Intl
-11.017,-66.117,84.5,0.00,Riberalta / Cap Av Selin Zeitun Lopez
-11.017,136.75,81.3,0.00,Cape Wessel Aws
-10.984,-37.07,84.4,0.00,Santa Maria
-10.951,142.459,64.3,0.04,Bamaga Injinoo
-10.915,-165.839,82.9,0.00,Pukapuka Arpt
-10.75,179.5,84.1,0.22,Niulakita
-10.7,165.8,82.6,0.00,Santa Cruz Island
-10.433,56.6,83.5,0.00,Agalega
-10.417,161.917,80.4,0.02,Kira Kira
-10.172,123.671,80.6,0.00,El Tari
-10.05,-161.1,85.5,0.00,Rakahanga Atoll
-10.05,143.067,81.5,0.00,Coconut Island
-9.869,-67.894,79.8,0.00,Presidente Medici / Placido De Castro Intl
-9.866,-56.106,81.2,0.00,Alta Floresta / Piloto Osvaldo Marques Dias
-9.8,-139.033,82.3,0.00,Hiva-Oa
-9.511,-35.792,79.5,0.17,Zumbi Dos Palmares
-9.433,147.217,78.8,0.00,Port Moresby W.O.
-9.428,160.055,79.2,0.00,Honiara Intl
-9.417,159.967,81.1,0.00,Honiara
-9.362,-40.569,81.4,0.00,Senador Nilo Coelho
-9.333,-54.967,86.5,0.00,Cachimbo
-9.183,-171.883,83.7,0.00,Nukunonu Aws
-9.017,-158.067,83.3,0.20,Penrhyn Island
-8.933,33.467,68.7,0.04,Mbeya
-8.783,160.733,79.6,0.00,Auki
-8.749,115.167,82.0,0.00,Denpasar Ngurah Rai
-8.709,-63.902,81.8,0.00,Governador Jorge Teixeira De Oliveira
-8.533,-172.517,87.4,0.00,Atafu
-8.517,179.217,85.0,0.00,Funafuti Intl Arpt
-8.517,179.233,86.3,0.00,Funafuti
-8.489,117.412,81.2,0.00,Sumbawa Besar
-8.378,-74.574,81.3,0.00,Cap Fap David Abensur Rengifo Intl
-8.348,-49.302,84.7,0.00,Conceicao Do Araguaia
-8.328,157.263,81.2,0.28,Munda
-8.267,122.967,81.4,0.00,Larantuka/Gewayenta
-8.217,114.383,82.2,0.00,Banyuwangi
-8.217,124.567,81.2,0.00,Alor/Mali/Kalabahi
-8.126,-34.924,82.5,0.39,Guararapes Gilberto Freyre Intl
-8.081,-79.109,68.1,0.00,Capitan Fap Carlos Martinez De Pinillos
-7.983,131.3,81.6,0.00,Saumlaki
-7.97,-14.394,80.9,0.00,Ascension Aux Af
-7.733,109.017,82.0,0.00,Cilacap
-7.38,112.787,84.2,0.00,Surabaya Juanda
-7.346,108.247,79.9,1.38,Cibeureum
-7.32,-47.459,86.0,0.00,Carolina / Brig Lysias Augusto Rodrigues
-7.3,72.4,83.4,0.00,Diego Garcia Naval Air Station
-7.27,-35.896,76.6,0.00,Presidente Joao Suassuna
-7.233,177.15,84.4,0.00,Nui
-7.217,112.717,84.7,0.00,Surabaya/Perak
-7.217,113.717,86.3,0.00,Surabaya/Gedangan
-7.1,-34.867,80.2,0.24,Joao Pessoa
-7.05,113.967,83.2,0.00,Kalianget (Madura Is)
-6.983,110.383,85.3,0.00,Jenderal Ahmad Yani
-6.883,107.6,74.4,0.12,Bandung
-6.878,39.203,79.0,1.38,Mwalimu Julius K Nyerere Intl
-6.85,109.15,80.8,0.00,Tegal
-6.787,-79.828,71.4,0.00,Cap Fap Jose A Quinones Gonzales Intl
-6.75,108.267,82.1,1.22,Cirebon/Jatiwangi
-6.7,106.933,71.6,0.04,Bogor/Citeko
-6.7,156.383,80.9,0.91,Taro Island
-6.267,106.891,81.5,0.00,Halim Perdanakusuma Intl
-6.183,106.833,79.8,0.02,Jakarta/Observatory
-6.126,106.656,77.7,0.04,Soekarno Hatta Intl
-6.117,106.133,80.0,0.00,Serang
-5.911,-35.248,82.6,0.00,Campo Augusto Severo
-5.85,112.633,84.0,0.00,Sangkapura (Bawean Is.)
-5.683,132.75,83.5,0.00,Tual/Dumatubun
-5.667,176.133,84.0,0.00,Nanumea Island
-5.531,-47.46,82.0,0.00,Prefeito Renato Moreira
-5.467,122.617,81.4,0.00,Bau-Bau/Beto Ambiri
-5.369,-49.138,81.3,0.00,Maraba / Joao Correa Da Rocha
-5.242,105.179,78.1,0.04,Radin Inten Ii
-5.206,-80.616,78.9,0.00,Capitan Fap Guillermo Concha Iberico
-5.202,-37.364,87.3,0.00,Dix Sept Rosado
-5.062,119.554,82.8,0.00,Sultan Hasanuddin Intl
-5.06,-42.823,85.1,0.00,Senador Petronio Portella
-4.816,11.887,81.2,0.00,Pointe Noire / Antonio Agostinho Neto
-4.674,55.522,80.5,0.08,Seychelles Intl
-4.577,-81.254,75.3,0.00,Capitan Fap Victor Montes Intl
-4.386,15.445,74.7,0.00,Ndjili Intl
-4.252,15.253,79.0,0.00,Maya Maya
-4.2,12.7,80.4,0.00,Dolisie
-4.193,-69.943,82.4,0.98,Alfredo Vasquez Cobo
-4.035,39.594,74.6,2.05,Mombasa Moi Intl
-3.983,13.917,78.3,0.00,Mouyondzi
-3.855,-32.423,80.1,0.12,Fernando De Noronha
-3.786,-49.72,80.4,0.00,Tucurui
-3.785,-73.309,79.2,0.00,Coronel Francisco Secada Vignetta Intl
-3.776,-38.533,81.7,0.00,Pinto Martins Intl
-3.71,128.089,78.6,0.00,Pattimura
-3.683,13.35,76.4,1.57,Sibiti
-3.553,-80.381,79.9,0.00,Cap Fap Pedro Canga Rodriguez
-3.442,114.763,83.9,0.00,Syamsudin Noor
-3.417,10.65,79.5,0.00,Mayumba
-3.4,38.567,72.2,0.12,Voi
-3.383,-64.724,81.5,0.04,Tefe / Prefeito Orlando Marinho
-3.324,29.319,75.1,0.12,Bujumbura Intl
-3.229,40.102,75.6,1.85,Malindi
-3.146,-59.986,83.6,0.00,Campo Ponta Pelada
-3.039,-60.05,80.6,0.00,Eduardo Gomes Intl
-2.898,104.701,80.0,0.00,Sultan Mahmud Badaruddin Ii
-2.889,-78.984,60.7,0.16,Mariscal Lamar
-2.85,11.017,81.6,0.00,Tchibanga
-2.746,107.755,77.2,0.51,H As Hanandjoeddin
-2.705,111.673,81.5,0.00,Iskandar
-2.585,-44.234,82.9,0.00,Marechal Cunha Machado Intl
-2.55,120.367,82.0,0.00,Masamba/Andi Jemma
-2.422,-54.793,82.1,0.00,Santarem / Maestro Wilson Fonseca
-2.225,113.943,81.9,0.04,Palangka Raya/Tjilik Riwut
-2.17,106.13,79.4,0.00,Pangkalpinang / Depati Amir
-2.157,-79.884,80.8,0.00,Simon Bolivar Intl / Jose Joaquin De Olmedo Intl
-2.067,147.433,81.4,0.12,Momote/Manus Island
-1.845,11.057,82.8,0.00,Mouilla Ville / Raphael Boubala
-1.533,13.267,78.1,0.43,Moanda Bangombe
-1.5,33.8,73.4,0.20,Musoma
-1.417,120.658,81.0,0.24,Kasiguncu / Imip
-1.379,-48.476,80.8,0.00,Val De Cans Julio Cezar Ribeiro Intl
-1.322,36.815,69.2,1.46,Nairobi Wilson
-1.319,36.928,64.0,0.63,Jkia / Nairobi Jomo Kenyatta Intl
-1.3,36.75,64.2,0.00,Nairobi/Dagoretti
-1.268,116.894,81.9,0.00,Sultan Aji Muhammad Sulaiman Sepinggan
-1.19,136.108,81.5,0.00,Frans Kaisiepo
-1.133,35.833,65.0,0.16,Narok
-1.039,122.772,80.6,0.00,Bubung
-0.95,-80.683,78.4,0.00,Eloy Alfaro Intl
-0.95,114.9,85.6,0.28,Muaratewe/Beringin
-0.875,100.352,77.8,0.39,Tabing
-0.712,8.754,82.7,0.00,Port Gentil
-0.704,10.246,83.1,0.00,Lambarene
-0.693,73.156,83.4,0.00,Gan Island
-0.683,119.733,83.3,0.00,Palu/Mutiara
-0.667,34.783,64.8,0.00,Kisii
-0.5,36.967,64.0,1.02,Nyeri
-0.5,37.45,65.6,0.98,Embu
-0.485,117.157,85.2,0.00,Temindung
-0.479,104.579,80.7,0.00,Dabo
-0.464,39.648,83.3,0.00,Garissa
-0.367,35.35,63.5,0.00,Kericho
-0.35,102.333,81.0,1.10,Rengat/Japura Arpt
-0.35,111.783,80.3,0.04,Nangapinoh
-0.267,36.1,66.3,0.12,Nakuru
-0.151,109.404,81.5,0.55,Supadio
-0.141,-78.488,59.9,0.59,Mariscal Sucre Intl
-0.086,34.729,74.6,0.00,Kisumu
0.051,-51.072,80.2,0.00,Macapa / Alberto Alcolumbre
0.083,37.65,66.0,0.79,Meru
0.271,34.787,69.0,0.12,Kakamega
0.459,9.412,82.8,0.00,Leon M Ba
0.461,101.445,82.7,0.00,Sultan Syarif Kasim Ii
0.483,35.3,62.6,0.04,Eldoret
0.579,12.891,80.0,0.00,Makokou
0.637,122.85,83.5,0.00,Jalaluddin / Djalaluddin
0.783,11.533,81.2,0.00,Mitzic
0.923,104.532,79.8,0.08,Kijang
0.972,34.959,64.6,0.16,Kitale
1.0,9.6,85.3,3.15,Cocobeach
1.166,97.705,76.8,0.85,Binaka
1.35,103.994,81.2,1.26,Singapore Changi Intl
1.382,173.147,84.2,0.00,Bonriki Intl
1.433,125.183,81.6,0.12,Bitung
1.485,110.347,80.1,0.00,Kuching Intl
1.549,124.926,79.3,0.00,Sam Ratulangi
1.556,98.889,78.7,0.45,Pinang Sore / Dr Ferdinand Lumbantobing
1.616,16.038,82.5,0.24,Ouesso
1.733,40.092,81.5,0.00,Wajir
1.767,109.3,86.8,0.00,Paloh
1.817,127.833,80.6,0.00,Galela/Gamarmalamu
2.076,11.493,77.5,0.00,Bitam
2.262,111.985,79.9,0.00,Sibu
2.263,102.252,79.8,0.94,Malacca
2.3,37.9,71.2,0.00,Marsabit
2.846,-60.69,80.0,0.00,Boa Vista / Atlas Brasil Cantanhede
2.85,117.333,82.9,0.00,Tanjung Selor
3.122,35.609,88.1,0.00,Lodwar
3.124,113.02,80.0,0.00,Bintulu
3.131,101.549,81.6,0.00,Sultan Abdul Aziz Shah Intl
3.2,106.25,83.9,0.00,Tarempa
3.333,117.567,81.6,0.00,Tarakan/Juwata
3.533,39.05,74.5,0.04,Moyale Lower (Oda)
3.543,-76.382,75.7,0.00,Alfonso Bonilla Aragon Intl
3.558,98.672,81.0,0.43,Polonia / Kualanamu Intl
3.683,125.528,82.3,0.00,Naha
3.775,103.209,81.8,0.04,Kuantan
3.8,98.7,80.0,0.00,Medan/Belawan
3.883,-51.8,77.9,0.00,Saint Georges
3.933,41.867,84.4,0.02,Mandera
3.967,13.2,79.4,0.00,Abong-Mbang
4.006,9.719,83.7,0.00,Douala
4.089,9.361,83.2,0.00,Tiko
4.192,73.529,86.2,0.00,Male Intl / Velana Intl
4.217,100.7,80.5,0.31,Sitiawan
4.222,15.786,80.5,0.00,Berberati
4.25,96.117,78.0,0.01,Meulaboh/Cut Nyak / Cut Nyak Dhien Nagan Raya
4.313,118.122,78.5,0.00,Tawau
4.317,21.183,81.9,0.00,Mobaye
4.322,113.987,81.0,0.00,Miri
4.398,18.519,82.0,0.00,Bangui M Poko
4.417,-7.367,81.2,0.00,Tabou
4.467,14.367,81.2,0.00,Batouri
4.702,-74.147,60.3,0.04,El Dorado Intl
4.733,22.833,80.3,0.00,Bangassou
4.747,-6.661,82.8,0.12,San Pedro
4.813,-75.74,70.5,0.00,Matecana
4.82,-52.36,79.1,2.95,Rochambeau / Cayenne Felix Eboue
4.896,-1.775,83.4,0.00,Takoradi
4.944,114.928,83.7,0.00,Brunei Intl
4.95,-6.083,80.9,0.04,Sassandra/Drewin
4.95,9.933,76.7,0.00,Nkongsamba
5.05,21.2,79.3,0.51,Alindao
5.227,96.95,79.3,0.00,Malikus Saleh
5.261,-3.926,82.1,0.08,Abidjan Felix Houphouet Boigny Intl
5.267,17.633,80.3,0.00,Bossembele
5.283,39.75,68.4,0.00,Neghelli (Mil)
5.297,100.277,81.3,0.47,Penang Intl
5.3,-3.3,81.6,0.55,Adiake
5.301,115.25,83.8,0.51,Labuan
5.333,153.733,83.0,0.00,Satawan Atoll Aws  Caroline Islands
5.35,162.95,82.3,0.00,Kosrae Atoll Aws  Caroline Is.
5.357,162.958,84.5,0.00,Kosrae
5.4,26.5,74.6,0.16,Obo
5.45,-55.183,80.6,0.00,Johan A Pengel Intl
5.453,-55.188,79.9,0.02,Johan A Pengel Intl
5.524,95.42,78.8,0.35,Sultan Iskandar Muda
5.605,-0.167,85.2,0.00,Kotoka Intl
5.62,-67.606,77.5,0.04,Cacique Aramare
5.811,-55.191,80.6,0.20,Zorg En Hoop
5.85,20.65,77.3,0.87,Bambari
5.874,95.34,79.9,0.20,Maimun Saleh
5.901,118.059,81.8,0.00,Sandakan
5.935,43.579,80.0,0.43,Gode
5.937,116.051,81.1,0.00,Kota Kinabalu Intl
5.95,-57.03,80.4,0.24,Nickerie
5.967,15.633,76.7,0.00,Bouar
6.039,10.123,76.3,0.00,Bamenda
6.05,125.1,82.3,0.00,Gen. Santos
6.1,171.4,81.0,0.00,Mili Atoll Aws  Marshall Is.
6.133,-5.95,81.8,0.00,Gagnoa
6.165,-75.423,64.3,0.94,Jose Maria Cordova
6.166,1.255,83.8,0.00,Gnassingbe Eyadema Intl
6.167,102.293,81.1,0.12,Sultan Ismail Petra
6.357,2.384,84.0,0.00,Card Bernardin Gadin De Cadjehoun Intl
6.483,17.433,85.7,0.00,Bossangoa
6.5,-58.25,82.4,0.00,Georgetown
6.5,23.267,79.3,0.35,Yalinga
6.52,101.743,81.2,0.00,Narathiwat
6.533,21.983,77.1,0.28,Bria
6.583,1.5,85.5,0.00,Tabligbo
6.65,-4.7,86.4,0.02,Dimbokro City
6.793,-6.473,81.9,0.00,Daloa
6.903,-5.366,81.6,0.00,Yamoussoukro
6.922,122.06,82.1,0.00,Zamboanga Intl
6.933,100.393,80.8,1.10,Hat Yai Intl
6.967,80.767,60.6,0.00,Nuwara Eliya
7.067,38.05,70.5,0.00,Awassa (Lake) / Hawassa
7.126,125.646,82.8,0.00,Francisco Bangoy Intl
7.133,40.0,65.0,0.00,Robe/Bale
7.167,2.067,82.6,0.00,Bohicon
7.181,79.866,86.7,0.00,Bandaranaike Intl Colombo
7.187,100.608,83.6,0.00,Songkhla
7.211,-70.756,79.7,0.00,Guasdualito
7.272,-7.587,80.2,0.00,Man
7.333,134.483,81.2,0.31,Babelthuap/Koror Air
7.357,13.559,75.1,0.00,Ngaoundere
7.467,151.85,81.8,0.16,Chuuk International Airport
7.509,99.617,79.3,0.00,Trang
7.533,99.05,82.1,0.16,Ko Lanta
7.565,-72.035,75.6,0.00,Mayor Buenaventura Vivas
7.633,155.167,82.7,0.00,Oroluk Atoll Aws  Caroline Islands
7.666,36.817,70.6,0.00,Jimma Aba Jifar
7.733,-8.833,79.6,0.00,N'Zerekore/Konia
7.739,-5.074,81.1,0.00,Bouake
7.817,-0.033,86.9,0.00,Kete-Krachi
7.841,-72.44,81.4,0.00,San Antonio Del Tachira / General Cipriano Castro Intl
8.033,2.467,81.2,0.16,Save
8.033,79.833,88.7,0.00,Puttalam
8.05,-2.783,83.8,0.00,Bondoukou/Soko
8.086,-80.945,88.3,0.03,Ruben Cantu
8.113,98.317,81.2,0.00,Phuket Intl
8.122,-63.537,86.3,0.24,Ciudad Bolivar
8.15,125.133,78.0,0.00,Malaybalay
8.3,73.15,87.6,0.00,Minicoy
8.301,80.428,85.5,0.00,Anuradhapura
8.367,126.333,80.7,0.00,Hinatuan
8.391,-82.435,84.0,0.00,Enrique Malek Intl
8.417,124.617,79.9,0.00,Lumbia Airport
8.471,99.956,80.3,0.00,Cha Ian
8.483,76.95,85.7,0.00,Thiruvananthapuram
8.582,-71.161,69.6,0.63,Alberto Carnevalli
8.583,149.65,82.4,0.00,Ului Atoll (Amos)
8.601,123.334,82.0,0.00,Dipolog
8.62,-70.221,82.9,0.31,Barinas
8.624,16.071,94.9,0.00,Moundou
8.65,111.917,85.2,0.00,Truong Sa
8.683,106.6,83.6,0.00,Con Son
8.733,167.733,82.9,0.24,Bucholz Aaf Kwajalein Kmr Atol Ap
8.867,39.9,87.5,0.00,Metehara
8.917,-79.6,83.8,0.00,Howard
8.925,-67.417,86.9,0.12,Calabozo
8.95,125.483,83.3,0.00,Butuan
8.978,38.799,66.8,0.24,Bole Intl
8.983,-79.517,87.8,0.00,Marcos A. Gelabert
8.983,1.15,86.0,0.00,Sokode
9.027,-69.755,80.9,0.00,Guanare
9.033,-2.483,87.7,0.00,Bole
9.071,-79.383,81.6,0.02,Tocumen Intl
9.133,99.136,80.7,0.00,Surat Thani
9.15,18.383,94.8,0.00,Sarh (Civ/Mil)
9.183,105.15,85.4,0.00,Ca Mau
9.334,123.3,83.4,0.00,Dumaguete
9.336,13.37,93.4,0.00,Garoua
9.34,-70.584,75.9,0.00,Dr Antonio Nicolas Briceno
9.35,2.617,84.2,0.00,Parakou
9.367,14.917,96.4,0.00,Pala
9.387,-5.557,88.2,0.00,Korhogo
9.467,100.05,83.8,0.00,Ko Samui
9.483,138.083,81.6,0.06,Yap International Airport
9.5,-7.567,87.2,0.00,Odienne
9.533,112.883,85.8,0.00,Yongshujiao
9.55,1.167,86.2,0.00,Kara
9.553,-69.238,80.8,0.08,Oswaldo Guevara Mujica / Batalla De Araure
9.557,-0.863,90.0,0.00,Tamale
9.577,-13.612,84.8,0.00,Conakry / Ahmed Sekou Toure Intl
9.625,41.854,84.0,0.00,Dire Dawa Intl
9.664,123.853,82.2,0.00,Tagbilaran
9.742,118.759,82.7,0.00,Puerto Princesa
9.749,-63.153,84.7,0.00,Maturin / Jose Tadeo Monagas Intl
9.767,1.091,85.5,0.00,Niamtougou International
9.778,98.585,80.4,0.00,Ranong
9.783,125.483,81.8,0.04,Surigao
9.817,-70.933,81.6,0.61,Mene Grande
9.907,-67.38,84.3,0.01,San Juan De Los Morros
9.946,76.272,85.3,0.02,Cochin
9.994,-84.209,72.7,0.00,Juan Santamaria Intl
10.043,-69.359,77.7,0.00,Barquisimeto Intl
10.05,-12.867,83.0,0.00,Kindia
10.083,-2.508,89.2,0.00,Wa
10.217,103.967,84.1,0.00,Phu Quoc
10.25,-67.649,84.3,0.00,Mariscal Sucre
10.283,22.783,96.9,0.00,Birao
10.3,-68.233,75.0,0.00,Palmichal
10.308,123.979,85.1,0.00,Mactan Cebu Intl
10.317,1.383,85.2,0.00,Natitingou
10.35,37.717,71.5,0.00,Debre Marcos
10.367,-12.083,85.3,0.00,Mamou
10.367,0.467,91.9,0.00,Mango/Sansanne
10.383,-9.3,87.7,0.00,Kankan
10.442,-75.513,81.5,0.00,Rafael Nunez
10.45,-64.13,81.0,0.00,Antonio Jose De Sucre
10.451,14.257,92.8,0.00,Salak
10.485,-66.844,78.7,0.00,Generalisimo Francisco De Miranda Ab
10.517,-71.65,84.0,0.00,La Canada
10.558,-71.728,87.8,0.00,La Chinita Intl
10.574,-62.313,85.9,0.00,Guiria / Almirante Cristobal Colon
10.595,-61.337,81.2,0.00,Piarco
10.603,-66.991,79.2,0.00,Simon Bolivar Intl
10.711,99.362,84.7,0.00,Chumphon
10.765,78.71,90.6,0.00,Tiruchirappalli
10.819,106.652,85.9,0.00,Tan Son Nhat Intl
10.85,121.0,84.0,0.00,Cuyo
10.867,0.25,90.0,0.00,Dapaon
10.89,-74.781,81.7,0.00,Ernesto Cortissoz
10.9,-1.1,94.7,0.00,Navrongo
10.913,-63.967,82.1,0.00,Del Caribe Intl Gen Santiago Marino
10.917,-63.967,82.5,0.00,Porlamar (Aeropuerto Int Del Caribe)
10.933,-14.317,90.0,0.00,Boke/Baralande
10.933,108.1,84.6,0.00,Phan Thiet
11.031,77.044,83.8,0.00,Coimbatore
11.036,125.742,82.1,0.00,Guiuan
11.083,39.717,73.6,0.00,Combolcha/Dessie
11.133,2.933,91.7,0.00,Kandi
11.15,-60.833,81.8,0.00,Crown Point
11.228,125.028,82.0,0.16,Daniel Z Romualdez
11.25,75.783,87.6,0.00,Kozhikode
11.326,-12.287,79.8,0.00,Labe
11.35,-5.683,87.4,0.00,Sikasso
11.367,162.35,81.0,0.00,Eniwetak Atoll Aws  Marshall Is.
11.415,-69.681,84.4,0.00,Jose Leonardo Chirinos
11.417,-7.5,91.2,0.00,Bougouni
11.417,114.333,85.8,0.00,Song Tu Tay (South West Cay)
11.55,43.15,85.3,0.00,Djibouti
11.598,122.752,82.2,0.00,Roxas
11.608,37.322,81.1,0.00,Bahir Dar Ginbot Haya Intl
11.767,79.767,86.5,0.00,Cuddalore
11.783,124.883,82.2,0.00,Catbalogan
11.788,99.805,85.6,0.00,Prachuap
11.895,-15.654,85.5,0.00,Bissau Oswaldo Vieira Intl
12.004,-61.786,81.8,0.00,Point Salines Intl
12.131,-68.269,84.1,0.00,Flamingo
12.134,15.034,99.3,0.00,Ndjamena Hassan Djamous
12.141,-86.168,90.2,0.00,Managua Intl / Augusto Cesar Sandino Intl
12.189,-68.96,84.2,0.00,Hato
12.217,120.2,85.0,0.00,Coron
12.25,109.2,84.4,0.00,Nha Trang
12.362,121.047,84.4,0.00,San Jose
12.369,123.629,83.6,0.00,Masbate
12.383,-5.467,95.4,0.00,Koutiala
12.41,-16.746,77.6,0.00,Cap Skirring
12.501,-70.015,83.5,0.00,Reina Beatrix Intl
12.502,124.636,83.4,0.00,Catarman
12.52,37.434,75.6,0.00,Gonder Atse Tewodros
12.534,-7.95,93.6,0.00,Senou / President Modibo Keita
12.556,-16.282,83.0,0.00,Ziguinchor
12.572,-12.22,90.6,0.00,Kedougou
12.584,-81.711,82.4,0.02,Gustavo Rojas Pinilla
12.6,102.117,82.4,0.00,Chanthaburi
12.633,101.35,87.4,0.00,Rayong
12.636,99.952,86.2,0.00,Hua Hin
12.683,100.983,86.9,0.00,Sattahip
12.833,45.033,85.1,0.00,Aden
12.85,-11.233,98.2,0.00,Kenieba
12.883,-14.967,89.3,0.00,Kolda
12.961,74.89,84.4,0.00,Mangalore
12.967,77.583,85.4,0.00,Bangalore
12.983,8.933,96.9,0.00,Magaria
12.994,80.181,88.9,0.00,Chennai Intl
12.999,100.067,86.0,0.00,Phetchaburi
13.075,-59.492,81.3,0.00,Grantley Adams Intl
13.144,-61.211,81.5,0.06,E T Joshua
13.157,123.746,82.9,0.12,Legazpi
13.233,11.983,96.9,0.00,Maine-Soroa
13.25,43.283,86.2,0.00,Mokha
13.333,-4.833,100.4,0.00,San
13.338,-16.652,85.2,0.00,Banjul Intl
13.367,100.983,89.5,0.00,Chon Buri/Sattahip / Suvarnabhumi Intl
13.373,12.627,96.2,0.00,Diffa
13.4,-6.15,96.8,0.00,Segou
13.417,121.183,85.2,0.00,Calapan/Mindoro Isl
13.467,39.533,69.7,0.00,Mekele
13.482,2.184,98.3,0.00,Diori Hamani
13.483,144.8,81.8,0.06,Guam Wfo
13.503,7.127,96.4,0.00,Maradi
13.567,144.917,80.7,0.08,Andersen Afb
13.576,124.206,80.0,0.00,Virac
13.654,124.341,77.7,0.16,Catanduanes Radar
13.7,102.504,86.6,0.51,Aranyaprathet
13.733,-60.953,81.4,0.00,Hewanorra Intl
13.733,100.567,88.5,0.00,Bangkok Metropolis
13.737,-13.653,95.3,0.00,Tambacounda
13.767,109.217,86.5,0.00,Quy Nhon
13.779,8.984,97.2,0.00,Zinder
13.8,5.25,99.3,0.00,Birni-N'Konni
13.847,20.844,98.0,0.00,Abeche
13.913,100.607,90.4,0.00,Bangkok Intl / Don Mueang Intl
13.983,10.3,96.9,0.00,Goure
14.017,99.533,89.4,0.00,Kanchana Buri
14.017,121.6,81.7,0.00,Tayabas
14.061,-87.217,73.4,0.01,Toncontin Intl
14.078,101.38,88.5,0.00,Khao E To
14.083,121.05,87.4,0.00,Ambulong
14.1,98.217,86.9,0.00,Dawei
14.1,122.017,81.2,0.00,Alabat
14.129,122.98,84.4,0.00,Daet
14.147,-16.051,97.9,0.00,Kaolack
14.167,145.25,82.2,0.00,Rota Intl/Rota Isl
14.2,1.45,98.4,0.00,Tillabery
14.233,76.433,84.5,0.00,Chitradurga
14.25,13.117,100.2,0.00,N'Guigmi
14.333,-88.167,72.7,0.00,La Esperanza
14.433,-89.2,82.7,0.00,Nueva Ocotepeque
14.45,79.983,89.7,0.00,Nellore
14.467,100.133,89.9,0.00,Suphan Buri
14.482,-11.44,102.3,0.00,Kayes/Dag-Dag
14.5,120.9,87.6,0.00,Sangley Point
14.509,121.02,87.0,0.00,Ninoy Aquino Intl
14.513,-4.08,99.5,0.00,Ambodedjo
14.583,-90.527,64.6,0.00,La Aurora
14.583,77.633,93.0,0.00,Pbo Anantapur
14.583,120.983,88.9,0.00,Manila
14.591,-61.003,78.8,0.08,Le Lamentin
14.65,-16.233,95.9,0.00,Diourbel
14.65,121.05,86.6,0.00,Science Garden
14.663,49.375,86.9,0.00,Riyan / Mukalla Intl
14.74,-17.49,75.9,0.00,Leopold Sedar Senghor Intl
14.75,121.65,84.4,0.02,Infanta
14.783,-88.783,74.6,0.00,Santa Rosa De Copan
14.794,-92.37,87.0,0.00,Tapachula Intl
14.8,-92.367,87.0,0.00,Tapachula Intl Arpt
14.8,100.617,88.5,0.00,Lop Buri
14.876,5.265,98.9,0.00,Tahoua
14.883,103.5,88.3,0.00,Surin
14.917,-92.25,84.4,0.00,Tapachula  Chis
14.935,102.079,88.7,0.00,Khorat
15.0,145.617,83.8,0.00,West Tinian
15.117,145.733,81.8,0.00,Saipan/Isley (Cgs)
15.167,-7.283,96.4,0.00,Nara/Keibane
15.233,-9.35,97.1,0.00,Nioro Du Sahel
15.251,104.87,86.6,0.00,Ubon Ratchathani
15.261,-83.781,87.4,0.02,Puerto Lempira
15.333,119.967,82.3,0.00,Iba/Luzon Island
15.337,-61.392,80.9,0.00,Canefield
15.383,-15.117,97.4,0.00,Linguere
15.417,75.633,86.9,0.00,Gadag
15.433,45.333,94.6,0.00,Marib
15.453,-87.924,84.6,0.00,La Mesa Intl / Ramon Villeda Morales Intl
15.476,44.22,70.9,0.00,Sanaa Intl
15.483,73.817,83.8,0.00,Goa/Panjim
15.65,-13.25,96.8,0.00,Matam/Ouro Sogui
15.673,100.137,91.9,0.00,Nakhon Sawan
15.73,121.5,85.1,0.00,Baler
15.733,120.933,85.3,0.00,Munoz
15.742,-86.853,88.8,0.00,Goloson Intl
15.775,-96.263,88.2,0.00,Bahias De Huatulco Intl
15.776,-87.476,83.1,0.00,Tela
15.783,-96.283,89.2,0.00,Bahias De Huatulco
15.8,78.067,95.9,0.00,Kurnool
15.8,102.033,89.2,0.00,Chaiyaphum
15.859,74.618,83.2,0.00,Belgaum
15.877,-97.089,82.7,0.00,Puerto Escondido Intl
15.967,48.783,92.6,0.00,Sayun
15.983,48.95,93.9,0.00,Seiyoun
16.044,108.199,82.3,0.00,Danang Intl
16.051,-16.463,86.4,0.00,Saint Louis Ousmane Masseck Ndiaye
16.07,103.646,88.7,0.00,Rob Muang
16.083,120.35,86.7,0.00,Dagupan
16.1,-88.25,82.6,0.00,Hunting Caye
16.16,-13.508,97.7,0.00,Kaedi
16.2,81.15,88.3,0.00,Machilipatnam/Franchpet
16.248,-0.005,100.1,0.00,Gao
16.25,-92.133,65.8,0.00,Comitan  Chis.
16.265,-61.532,80.6,0.01,Le Raizet
16.267,122.133,83.1,0.00,Casiguran
16.317,-86.523,84.1,0.00,Juan Manuel Galvez Intl
16.375,120.62,69.9,0.67,Baguio
16.402,107.703,83.7,0.00,Phubai
16.467,102.784,89.7,0.00,Khon Kaen
16.483,99.533,91.8,0.00,Kamphaeng Phet
16.5,-15.817,95.6,0.00,Rosso
16.533,104.717,87.8,0.00,Mukdahan
16.533,111.617,84.7,0.00,Sanhu Dao
16.59,-11.406,94.8,0.00,Kiffa
16.622,-7.317,96.5,0.00,Nema
16.65,-14.967,94.7,0.00,Podor
16.676,101.195,88.1,0.00,Phetchabun
16.7,98.545,84.9,0.00,Mae Sot
16.711,-9.638,93.9,0.00,Aioun El Atrouss
16.73,-3.008,96.7,0.00,Tombouctou
16.733,-169.533,78.8,0.00,Johnston Atoll Airport
16.74,-93.173,66.9,0.00,General Div P A Angel H Corzo Molina / Teran
16.741,-22.949,71.7,0.00,Amilcar Cabral Intl
16.75,-99.75,81.6,0.00,Acapulco/G. Alvarez
16.75,-93.133,81.8,0.00,Francisco Sarabia / Tuxtla Gutierrez Intl
16.75,-62.167,82.0,0.00,Blackburne/Plymouth
16.757,-99.754,81.5,0.00,General Juan N Alvarez Intl / Acapulco Intl
16.783,100.279,89.2,0.00,Phitsanulok
16.833,112.333,84.6,0.00,Xisha Dao
16.896,99.253,92.5,0.00,Tak
16.901,42.586,88.3,0.00,King Abdullah Bin Abdulaziz
16.907,96.133,89.3,0.00,Yangon Intl
16.933,54.017,86.2,0.00,Mina Salalah
16.95,82.233,89.7,0.00,Kakinada
16.967,7.967,99.4,0.00,Agadez / Mano Dayak
16.983,73.333,82.0,0.00,Ratnagiri
17.0,-96.733,77.4,0.00,Xoxocotlan Intl / Oaxaca Intl
17.039,54.091,84.6,0.00,Salalah
17.137,-61.793,79.4,0.00,V C Bird Intl
17.14,-157.79,76.2,0.00,Sw Hawaii 215 Nm South Southwest Of Hilo
17.15,104.133,85.0,0.20,Sakon Nakhon
17.183,-87.5,81.6,0.00,Half Moon Caye
17.206,-62.59,82.3,0.00,Vance Winkworth Amory Intl
17.233,99.05,93.8,0.00,Bhumibol Dam
17.311,-62.719,81.3,0.00,Robert L Bradshaw
17.386,102.788,88.2,0.00,Udon Thani
17.4,-83.933,84.1,0.00,Islas Del Cisne
17.417,104.783,83.1,0.20,Nakhon Phanom
17.439,101.722,85.7,0.00,Loei
17.452,78.461,94.8,0.00,Begumpet Airport / Hyderabad Intl
17.467,47.121,90.2,0.00,Sharurah
17.483,106.6,84.3,0.00,Dong Hoi
17.52,-152.48,75.0,0.00,Se Hawaii 185 Nm Southeast Of Hilo  Hi
17.533,-14.683,93.3,0.00,Boutilimit
17.539,-88.308,84.2,0.00,Philip S W Goldson Intl
17.55,-99.5,74.3,0.00,Chilpancingo  Ro.
17.6,-101.483,85.0,0.00,Ixtapa-Zihuatanejo
17.602,-101.461,82.7,0.00,Ixtapa Zihuatanejo Intl
17.611,44.419,86.0,0.00,Nejran
17.617,100.1,94.1,0.00,Uttaradit
17.628,75.935,89.7,0.00,Solapur
17.638,121.731,84.9,0.00,Tuguegarao
17.666,54.025,88.6,0.00,Thumrait
17.7,-64.813,83.6,0.00,Christiansted/Alex.
17.7,83.3,85.6,0.00,Cwc Vishakhapatnam/Waltair
17.867,102.75,87.8,0.01,Nong Khai
17.917,19.111,94.2,0.00,Faya Largeau
17.936,-76.788,83.7,0.00,Norman Manley Intl
17.983,-92.817,83.9,0.00,C P A Carlos Rovirosa Intl / Villahermosa Intl
17.988,102.563,90.7,0.00,Wattay Intl
18.008,-66.563,82.0,0.00,Mercedita
18.041,-63.109,80.5,0.00,Princess Juliana Intl
18.098,-15.948,83.5,0.00,Nouakchott
18.132,100.165,90.7,0.00,Phrae
18.133,55.183,83.6,0.00,Marmul
18.167,97.933,85.2,0.00,Mae Sariang
18.178,120.532,85.4,0.00,Laoag Intl
18.183,-94.5,84.7,0.00,Coatzacoalcos  Ver
18.217,109.583,85.1,0.00,Sanya
18.24,42.657,68.9,0.00,Abha
18.25,-92.083,77.5,0.00,Palizada
18.25,-67.15,81.6,0.00,Eugenio Maria De Ho
18.251,-71.12,80.6,0.06,Maria Montez Intl
18.255,-65.641,81.0,0.00,Naval Station Roosevelt Roads Ceiba
18.271,99.504,87.8,0.00,Lampang
18.297,42.804,67.6,0.00,King Khaled Ab
18.336,-64.98,86.0,0.00,Cyril E King Airport
18.367,121.633,83.9,0.00,Aparri
18.417,-66.0,82.0,0.00,San Juan Intl Arpt
18.43,-69.669,80.1,0.00,De Las Americas Intl
18.433,-69.883,82.2,0.00,Santo Domingo
18.433,-66.011,82.1,0.00,San Juan L M Marin Intl Ap
18.5,-67.133,80.3,0.00,Aquadilla/Borinquen
18.504,-77.913,80.8,0.00,Sangster Intl
18.505,-88.327,84.1,0.00,Chetumal Intl
18.533,73.85,80.9,0.00,Pune
18.567,-68.363,81.0,0.17,Punta Cana Intl
18.567,99.033,86.4,0.00,Lamphun
18.57,-11.424,89.2,0.00,Tidjikja
18.58,-72.293,85.0,0.00,Toussaint Louverture Intl / Port Au Prince Intl
18.65,-91.833,87.8,0.00,Ciudad Del Car
18.654,-91.799,87.2,0.00,Ciudad Del Carmen Intl
18.717,-110.95,74.8,0.00,Isla Socorro  Col.
18.737,105.671,85.0,0.00,Vinh
18.767,79.433,100.6,0.79,Ramgundam
18.767,98.963,83.4,0.00,Chiang Mai Intl
18.8,95.217,92.8,0.00,Prome
18.808,100.783,87.3,0.00,Nan
18.835,-99.262,81.4,0.00,General Mariano Matamoros / Cuernavaca Intl
18.85,-97.1,69.2,0.00,Orizaba  Ver.
18.9,145.6,81.3,0.00,Pagan Island Aws  Mariana Is.
18.917,96.467,89.1,0.00,Toungoo
19.0,-155.667,70.5,0.00,South Point  Hawaii
19.05,-104.317,78.3,0.00,Manzanillo  Col.
19.05,-69.383,79.7,0.00,Sabana De La Mar
19.067,109.883,83.3,0.00,Xin-Shi
19.089,72.868,82.8,0.00,Chhatrapati Shivaji Maharaj Intl
19.1,108.617,85.9,0.00,Dongfang
19.117,41.083,83.5,0.00,Al-Qunfudah
19.145,-104.559,78.2,0.00,Playa De Oro Intl / Manzanillo Intl
19.146,-96.187,80.8,0.00,General Heriberto Jara Intl / Veracruz Intl
19.15,-104.583,79.5,0.00,Manzanillo
19.15,-96.117,79.4,0.00,Hacienda Ylang Ylang Veracruz  Ver.
19.158,-98.371,65.0,0.00,Hermanos Serdan Intl / Puebla Intl
19.16,-160.74,75.8,0.00,W Hawaii 205 Nm Southwest Of Honolulu  H
19.193,99.9,87.1,0.00,Phayao
19.2,-96.133,80.8,0.00,Veracruz/Gen Jara
19.233,110.467,85.3,0.00,Qionghai
19.277,-103.577,80.4,0.00,Colima
19.283,-99.683,55.5,0.00,Toluca  Mex.
19.283,166.65,79.4,0.09,Wake Island Airfld
19.3,-81.367,83.1,0.00,Owen Roberts Airport
19.301,97.976,85.3,0.00,Mae Hong Son
19.317,-98.25,62.2,0.00,Tlaxcala  Tlax.
19.337,-99.566,58.0,0.00,Licenciado Adolfo Lopez Mateos Intl / Toluca Intl
19.397,-102.039,73.0,0.00,Licenciado Y Gen Ignacio Lopez Rayon / Uruapan
19.4,-99.183,72.1,0.00,Mexico (Central)   D.F.
19.433,-99.133,66.3,0.00,Aerop Internacional Mexico  D F
19.436,-99.072,66.2,0.00,Licenciado Benito Juarez Intl / Mexico City Intl
19.517,109.583,84.1,0.28,Danxian
19.55,-96.917,71.8,0.04,Jalapa  Ver.
19.567,-88.05,85.0,0.01,Felipe Carrillo Puerto  Q Roo
19.567,5.767,98.6,0.00,In-Guezzam
19.7,-101.183,66.7,0.00,Morelia  Mich.
19.717,-103.467,69.1,0.00,Ciudad Guzman  Jal.
19.719,-155.053,73.1,0.09,Hilo International Airport
19.733,-156.033,77.7,0.00,Kona Intl At Keahol
19.75,-155.55,64.6,0.00,Bradshaw Aaf
19.75,105.783,80.7,0.00,Thanh Hoa
19.817,-90.5,88.8,0.00,Ingeniero Alberto Acuna Ongay Intl / Campeche Intl
19.85,-101.05,73.1,0.00,Morelia New
19.85,-101.026,72.6,0.00,General Francisco J Mujica Intl / Morelia Intl
19.85,-77.233,79.5,0.00,Cabo Cruz  Granma
19.863,75.398,87.1,0.00,Aurangabad
19.885,99.827,83.9,0.00,Chiang Rai
19.9,-75.15,82.3,0.00,Guantanamo Bay Naval Air Station
19.97,-75.835,79.8,0.00,Antonio Maceo Intl
19.983,-102.317,68.7,0.00,Zamora  Mich.
19.984,42.621,81.5,0.00,Bisha
20.0,110.25,88.1,0.00,Haikou
20.083,-98.367,64.3,0.00,Tulancingo  Hgo.
20.133,-98.75,62.4,0.00,Pachuca  Hgo.
20.133,-75.233,81.1,0.00,Guantanamo   Guantanamo
20.133,92.873,86.9,0.00,Sittwe
20.133,107.717,79.6,0.00,Bach Long Vi
20.244,85.818,88.5,0.00,Bhubaneshwar / Biju Patnaik Intl
20.296,41.634,77.7,0.00,Al Baha / King Saud Bin Abdulaziz
20.367,110.167,87.9,0.00,Xuwen
20.433,106.15,82.0,0.00,Nam Dinh
20.451,121.98,83.2,0.00,Basco
20.517,-103.333,69.9,0.00,Guadalajara Intl
20.517,-86.917,84.6,0.00,Cozumel Intl
20.522,-103.311,70.3,0.00,Don Miguel Hidalgo Y Costilla Intl / Guadalajara Intl
20.522,-86.926,84.4,0.00,Cozumel Intl
20.617,-100.186,20.8,0.00,Queretaro Intercontinental
20.667,-105.267,76.9,0.00,Puerto Vallarta
20.667,116.717,84.2,2.04,Dongsha Dao
20.675,58.89,83.7,0.00,Masirah
20.68,-105.254,76.7,0.00,Licenciado Gustavo Diaz Ordaz Intl / Puerto Vallarta Intl
20.699,77.059,92.6,0.00,Akola
20.783,-156.95,73.4,0.00,Lanai
20.786,-76.315,76.6,0.00,Frank Pais Intl
20.8,106.633,79.9,0.00,Phu Lien
20.85,88.25,85.2,0.00,Sandheads
20.9,-156.429,73.8,0.00,Kahului Airport
20.9,70.367,82.3,0.00,Veraval
20.933,-89.667,82.1,0.00,Merida/Licenciado
20.933,-17.03,67.4,0.00,Nouadhibou
20.937,-89.658,82.0,0.00,Licenciado Manuel Crescencio Rejon Int / Merida Intl
20.95,-156.667,74.8,0.67,Kapalua
20.983,-101.483,67.1,0.00,Guanajuato Intl / Leon Intl
21.0,-101.283,66.5,0.00,Guanajuato  Gto.
21.017,-86.867,82.4,0.00,Cancun Intl
21.033,-86.867,82.5,0.00,Cancun Intl
21.033,109.117,76.0,0.00,Wei-Zhou Island
21.092,79.047,94.1,0.00,Dr Baba Saheb Ambedkar Intl
21.15,-157.1,75.7,0.00,Molokai (Amos)
21.183,81.733,90.2,0.00,Swami Vivekananda
21.2,-76.617,76.0,1.21,Puerto Padre   Las Tunas
21.2,72.833,86.1,0.00,Surat
21.217,110.4,86.0,0.00,Zhanjiang
21.221,105.807,81.9,0.00,Noibai Intl
21.3,-89.65,80.1,0.00,Progreso  Yuc.
21.3,99.617,83.8,0.00,Kengtung
21.317,-158.067,76.2,0.00,Kalaeloa Arpt
21.324,-157.929,76.8,0.00,Honolulu International Airport
21.333,40.267,62.5,0.00,Al-Hada
21.383,93.95,82.1,0.00,Mindat
21.4,-77.85,75.3,1.28,Camaguey  Camaguey
21.417,39.217,84.5,0.00,Jeddah I.E.
21.419,-104.843,73.3,0.00,Tepic
21.42,-77.848,74.9,0.00,Ignacio Agramonte Intl
21.433,39.767,90.0,0.00,Makkah
21.45,-157.768,75.6,0.02,Kaneohe Mcas
21.452,91.964,83.9,0.00,Coxs Bazar
21.483,40.544,76.4,0.00,Taif
21.483,109.1,83.4,0.00,Beihai
21.487,-158.028,70.4,0.00,Wheeler Army Airfield
21.5,101.583,80.2,0.01,Mengla
21.517,111.3,82.6,0.00,Tian-Cheng
21.616,-81.546,78.1,0.00,Vilo Acuna Intl
21.68,39.157,84.5,0.00,King Abdulaziz Intl
21.705,-102.318,73.3,0.00,Jesus Teran Intl / Aguascalientes Intl
21.733,-82.767,79.7,0.10,La Fe  Isla De La Juventud
21.733,112.767,81.9,0.00,Shangchuan Dao
21.833,106.767,81.7,0.00,Lang Son
21.835,-82.784,79.4,0.00,Rafael Cabrera
21.867,-84.95,78.3,0.81,Cabo San Antonio   Pinar Del Rio
21.867,111.967,81.4,0.00,Yangjiang
21.883,-102.317,71.6,0.00,Aguascalientes
21.9,-159.6,75.3,0.00,Port Allen Arpt
21.933,-99.983,78.7,0.00,Rio Verde  S.L.P.
21.933,-79.45,80.5,0.02,Sancti Spiritus   Sancti Spiritus
21.95,108.617,81.9,0.00,Qinzhou
21.983,96.1,94.4,0.00,Mandalay
21.984,-159.341,75.4,0.02,Lihue Airport
22.0,100.783,80.9,0.00,Jinghong
22.0,120.75,83.9,0.00,Hengchun (=595590)
22.027,-78.79,76.1,0.00,Maximo Gomez
22.029,121.534,78.0,0.00,Lanyu
22.033,-159.783,78.3,0.00,Barking Sands Pacific Missile Range Fac Arpt
22.033,121.55,78.0,0.00,Lan Yu
22.041,120.73,82.9,0.00,Hengchun
22.067,-81.033,78.6,0.17,Playa Giron  Matanzas
22.15,113.592,83.5,0.00,Macau Intl
22.167,-101.0,73.3,0.00,San Luis Potosi
22.2,-97.85,77.9,0.00,Tampico  Tamps
22.25,91.813,84.3,0.00,Shah Amanat Intl
22.25,109.967,83.4,0.00,Bobai
22.254,-100.931,73.2,0.00,Ponciano Arriaga Intl / San Luis Potosi Intl
22.267,112.783,84.3,0.00,Tai-Shan
22.283,-97.883,80.9,0.00,Tampico Intl Arpt
22.296,-97.866,80.2,0.00,General Francisco Javier Mina Intl / Tampico Intl
22.309,70.78,86.7,0.00,Rajkot
22.309,113.915,84.3,0.00,Hong Kong Intl
22.312,114.173,82.8,0.00,Kowloon
22.35,56.483,92.5,0.00,Fahud (Aut)
22.35,110.933,83.8,0.00,Xinyi
22.35,120.9,87.6,0.00,Dawu
22.367,106.75,84.2,0.31,Longzhou
22.417,-83.683,78.4,0.03,Pinar Del Rio
22.417,120.55,87.0,0.00,Chia Tung
22.5,103.967,84.7,0.00,Lao Cai
22.533,59.483,92.8,0.00,Sur
22.567,99.933,72.2,0.00,Lancang
22.577,120.35,84.3,0.00,Kaohsiung Intl
22.608,108.172,83.1,0.00,Wuxu
22.617,101.817,72.7,0.00,Jiangcheng
22.633,120.283,83.6,0.00,Kaohsiung
22.639,113.811,84.3,0.00,Baoan Intl
22.667,106.25,85.0,0.00,Cao Bang
22.672,120.462,86.0,0.00,Pingtung South
22.683,121.5,80.0,0.00,Lu-Tao
22.7,120.482,84.2,0.00,Pingtung North
22.722,75.801,83.2,0.00,Devi Ahilyabai Holkar
22.75,-12.483,80.0,0.00,Zouerate
22.75,121.15,82.1,0.00,Taidong
22.755,121.102,82.3,0.00,Taitung / Fongnian
22.767,-81.533,76.5,0.03,Union De Reyes   Matanzas
22.767,81.9,89.3,0.00,Pendra Road
22.767,100.983,71.1,0.00,Simao
22.783,-102.567,54.7,0.00,Zacatecas  Zac. (La Bufa  Zac.)
22.783,115.367,81.1,0.00,Shanwei
22.783,120.262,82.2,0.00,Gangshan
22.793,121.182,83.5,0.00,Jhihhang
22.8,5.433,78.6,0.00,Tamanrasset
22.8,5.45,78.4,0.00,Tamanrasset
22.813,86.169,87.4,0.00,Jamshedpur
22.817,-80.083,75.6,0.75,Sagua La Grande   Villa Clara
22.897,-102.687,64.4,0.00,General Leobardo C Ruiz Intl / Zacatecas Intl
22.9,-102.717,64.6,0.00,Zacatecas
22.917,-83.167,79.9,0.00,Bahia Honda  Pinar Del Rio
22.933,97.75,81.2,0.00,Lashio
22.95,120.206,83.9,0.00,Tainan
22.989,-82.409,77.5,0.00,Jose Marti Intl
23.0,120.217,85.0,0.00,Tainan (=593580)
23.034,-81.435,75.8,0.00,Juan Gualberto Gomez Intl
23.05,112.467,82.5,0.59,Gaoyao
23.067,57.633,73.2,0.00,Saiq
23.077,72.635,90.9,0.00,Ahmedabad / Sardar Vallabhbhai Patel Intl
23.083,114.417,83.3,0.04,Hui-Yang
23.1,121.367,82.5,0.00,Cheng-Kung
23.133,106.417,79.8,0.00,Xinjing
23.133,107.65,87.7,0.00,Long'An
23.152,-109.721,75.6,0.00,Los Cabos Intl / San Jose Del Cabo Intl
23.161,-106.266,74.5,0.00,General Rafael Buelna Intl / Mazatlan Intl
23.167,-106.283,73.9,0.00,Mazatlan/G. Rafael
23.167,-82.35,78.3,0.00,Casa Blanca   La Habana
23.178,80.052,85.6,0.00,Jabalpur
23.184,89.161,86.1,0.00,Jessore / Jashore
23.2,-106.417,75.6,0.00,Colonia Juan Carrasco Mazatlan  Sin.
23.267,119.667,82.0,0.00,Dongshi
23.287,77.337,84.0,0.00,Bhopal / Raja Bhoj
23.288,69.67,86.2,0.00,Bhuj
23.3,105.95,80.9,0.00,Napo
23.314,85.322,88.2,0.00,Birsa Munda
23.367,104.383,78.1,0.02,Wenshan
23.392,113.299,83.7,0.00,Baiyun Intl
23.4,110.083,81.8,0.00,Guiping
23.4,116.683,82.3,0.00,Shantou / Chaoshan
23.45,103.333,76.4,0.00,Mengzi
23.462,120.393,82.8,0.00,Chiayi
23.483,111.3,81.9,0.00,Wuzhou
23.483,120.95,41.3,0.00,Mount Morrison
23.5,119.5,83.0,0.00,Penghu Islands
23.5,120.45,81.3,0.00,Chiayi
23.517,120.8,57.3,0.00,Mount Alisan
23.55,99.4,72.0,0.00,Gengma
23.569,119.628,82.3,0.00,Magong / Penghu
23.583,103.867,70.9,0.00,Dehoujie
23.593,58.284,86.9,0.00,Seeb Intl / Muscat Intl
23.6,101.983,83.2,0.00,Yuanjiang
23.633,-103.65,66.2,0.00,Sombrerete  Zac.
23.7,-15.867,66.5,0.00,Villa Cisneros(Mil)
23.704,-98.957,86.4,0.00,General Pedro Jose Mendez Intl / Ciudad Victoria Intl
23.717,-98.983,85.6,0.00,Ciudad Victoria Apt
23.733,44.633,87.2,0.00,Al-Khusariah
23.742,-99.17,80.3,0.00,Ciudad Victoria   Tamps.
23.767,-98.2,85.1,0.00,Soto La Marina   Tamps.
23.779,90.383,82.5,0.00,Tejgaon
23.8,114.733,78.1,0.67,Heyuan
23.85,109.417,81.8,0.00,Da-Wan
23.883,113.517,77.9,2.20,Fogang
23.883,120.85,74.9,0.00,Joyutang
23.9,106.6,85.8,0.02,Baise
23.95,100.217,69.8,0.00,Lincang
23.95,112.2,80.8,0.08,Huaiji
23.964,32.82,77.8,0.00,Aswan Intl
23.967,115.967,79.2,0.31,Song-Lin-Ba
23.983,121.6,81.8,0.00,Hua-Lien City
24.0,97.85,73.1,0.00,Ruili
24.017,38.233,85.2,0.00,Yenbo A.W.S.
24.023,121.618,82.1,0.00,Hualien
24.05,-104.6,65.6,0.00,Durango  Dgo.
24.067,-110.383,76.5,0.00,La Paz
24.067,105.067,79.5,0.00,Guangnan
24.073,-110.362,77.4,0.00,General Manuel Marquez De Leon Intl / La Paz Intl
24.124,-104.528,68.0,0.00,Durango Intl
24.133,-104.55,71.3,0.00,Durango Apt
24.144,38.063,84.9,0.00,Yenbo / Prince Abdulmohsin Bin Abdulaziz
24.15,120.683,82.5,0.14,Taizhong
24.153,89.049,88.2,0.00,Ishurdi
24.179,23.314,78.3,0.00,Kufra
24.186,120.654,84.2,0.08,Taichung
24.2,110.517,78.7,0.08,Mengshan
24.25,120.517,82.6,0.20,Wu-Chi Observatory
24.262,55.609,90.3,0.00,Al Ain Intl
24.265,120.621,80.7,0.24,Taichung Intl / Ching Chuang Kang Ab
24.283,116.067,76.6,0.94,Mei Xian
24.29,153.979,77.3,0.00,Minami Torishima
24.293,9.452,82.5,0.00,Tiska
24.345,124.187,81.1,0.00,New Ishigaki
24.35,109.4,78.8,0.00,Liuzhou
24.367,114.483,75.7,1.85,Lianping
24.428,54.458,84.5,0.00,Al Bateen Executive
24.428,118.359,72.2,0.00,Shang Yi / Kinmen
24.433,54.651,87.0,0.00,Abu Dhabi Intl / Zayed Intl
24.45,102.567,68.6,0.00,Yuxi
24.467,56.65,81.3,0.00,Sohar Majis
24.467,111.567,77.1,0.55,Hexian/Babu
24.467,122.978,83.3,0.00,Yonaguni
24.467,123.017,80.0,0.00,Yonagunijima
24.533,103.767,70.3,0.00,Luxi
24.544,118.128,72.9,1.14,Gaoqi
24.553,39.705,86.8,0.00,Prince Mohammad Bin Abdulaziz
24.557,-81.755,80.6,0.00,Key West International Airport
24.567,80.833,93.9,0.00,Satna
24.583,-81.683,81.0,0.00,Key West Nas
24.6,121.85,79.6,0.00,Suao Met Station
24.63,-81.11,79.2,0.00,Sombrero Key  Fl
24.633,117.65,78.0,0.51,Zhangzhou
24.667,113.6,75.5,1.02,Shaoguan
24.7,108.05,79.0,0.02,Hechi
24.722,46.725,86.7,0.00,King Salman Ab
24.733,-81.05,79.9,0.00,Florida Keys Maratho
24.744,84.951,90.7,0.00,Gaya
24.75,121.767,81.9,0.00,Ilan
24.75,121.783,80.0,0.04,Ilan City
24.76,93.897,76.8,0.00,Imphal
24.765,-107.475,77.8,0.00,Culiacan Intl
24.783,125.295,79.6,0.00,Miyako
24.784,141.323,76.6,0.00,Iwoto
24.8,112.367,73.4,1.42,Lianzhou
24.8,118.583,71.1,1.14,Jin-Jiang
24.817,-107.433,77.5,0.00,Culiacan
24.818,120.939,79.4,0.47,Hsinchu
24.827,125.145,80.2,0.00,Shimojishima
24.833,120.0,78.8,0.79,Hsinchu City
24.85,89.367,81.6,0.00,Bogra
24.907,67.161,83.2,0.00,Jinnah Intl
24.933,121.3,81.4,0.00,Pa Kuei/Bakuai
24.95,115.65,74.3,0.94,Xunwu
24.958,46.699,87.0,0.00,King Khaled Intl
24.963,91.867,77.4,0.20,Osmani Intl
24.983,98.5,61.0,0.00,Tengchong
24.992,102.744,65.8,0.00,Wujiaba / Changshui
25.0,-111.633,62.9,0.00,Ciudad Constitucion  Bcs
25.01,-80.38,76.8,0.00,Molasses Reef  Fl
25.017,101.517,69.3,0.00,Chuxiong
25.033,121.517,80.6,0.14,Taibei
25.039,-77.466,78.1,0.00,Nassau Intl / Lynden Pindling Intl
25.056,121.243,79.3,0.20,Taoyuan
25.067,116.35,74.8,1.10,Shanghang
25.068,61.805,85.7,0.00,Jiwani
25.069,121.552,81.0,0.00,Songshan
25.078,121.233,80.5,0.51,Chiang Kai Shek Intl / Taoyuan Intl
25.117,99.183,63.9,0.00,Baoshan
25.15,121.8,78.5,0.00,Chilung
25.16,75.846,92.8,0.00,Kota
25.17,-94.42,75.3,0.00,W Gulf 240 Nm South-Southeast Of Sabine
25.218,110.039,69.8,0.28,Liangjiang
25.237,-11.589,72.3,0.00,Bir Moghrein
25.255,55.364,84.7,0.00,Dubai Intl
25.261,51.565,83.2,0.00,Doha Intl
25.283,60.617,81.4,0.00,Chahbahar
25.285,49.485,89.2,0.00,Al Ahsa
25.329,55.517,87.6,0.00,Sharjah Intl
25.35,-105.75,65.8,0.00,Tepehuanes  Dgo.
25.367,-101.017,69.0,0.00,Plan De Guadalupe Intl / Saltillo Intl
25.383,68.417,83.8,0.00,Hyderabad Airport
25.433,105.183,69.6,0.00,Xingren
25.433,106.767,78.4,0.00,Luodian
25.45,30.533,75.3,0.00,Kharga
25.483,-80.383,80.5,0.00,Homestead Afb Airport
25.5,28.967,75.1,0.00,Dakhla
25.517,69.783,85.8,0.00,Chhor
25.517,119.783,70.9,0.98,Pingtan
25.533,-103.467,83.9,0.00,Torrejon
25.568,-103.411,36.0,0.00,Torreon Intl
25.583,103.833,68.4,0.00,Zhanyi
25.591,85.088,89.0,0.00,Jai Prakash Narayan Intl Patna
25.613,55.939,87.5,0.00,Ras Al Khaimah Intl
25.633,122.067,77.2,0.00,Pengjia Yu
25.65,-80.433,74.7,0.00,Kendall Tamiami Exec
25.654,57.799,82.8,0.00,Jask
25.671,32.707,77.6,0.00,Luxor Intl
25.673,21.091,80.2,0.00,Tazerbo
25.685,-109.081,77.6,0.00,Valle Del Fuerte Intl / Los Mochis Intl
25.7,100.183,62.2,0.00,Dali
25.717,118.1,59.3,0.87,Jiuxian Shan
25.733,-100.3,83.1,0.00,Monterrey  N.L.
25.733,89.233,80.0,0.00,Rangpur
25.733,101.867,79.8,0.00,Yuanmou
25.733,112.967,65.7,0.51,Chenzhou
25.767,-100.1,82.3,0.00,Monterrey/Escobedo
25.767,-97.55,82.0,0.00,Matamoros Intl
25.77,-97.525,82.0,0.00,General Servando Canales Intl / Matamoros Intl
25.778,-100.107,82.2,0.00,General Mariano Escobedo Intl / Monterrey Intl
25.783,98.85,61.3,0.00,Liu-Ku
25.788,-80.317,75.8,0.51,Miami International Airport
25.833,42.25,83.0,0.00,Uqlat Al-Suq0R
25.833,54.833,81.5,0.00,Abu Musa
25.833,107.55,64.2,0.00,Dushan
25.84,-89.66,77.2,0.00,Mid Gulf 180 Nm South Of Southwest Pass
25.847,131.263,76.2,0.00,Minami Daito
25.85,114.95,71.6,0.55,Ganzhou
25.85,116.367,71.0,1.02,Changting
25.866,-100.237,90.4,0.00,Del Norte Intl
25.914,-97.423,78.7,0.00,Brownsville/S Padre Island Intl Ap
25.967,108.533,69.3,0.31,Rongjiang
25.967,117.35,72.5,0.31,Yong'An
26.009,-98.229,82.2,0.00,General Lucio Blanco Intl / Reynosa Intl
26.01,-85.91,80.8,0.00,E Gulf 260 Nm South Of Panama City  Fl
26.017,-98.25,80.6,0.00,Reynosa Intl Arpt
26.072,-80.154,75.2,0.00,Fort Lauderdale Hol
26.083,119.283,70.8,0.24,Fuzhou
26.106,91.586,79.1,0.00,Guwahati Intl / Lokpriya Gopinath Bordoloi Intl
26.133,34.25,73.9,0.00,Kosseir
26.153,-81.775,73.0,0.00,Naples Muni
26.16,119.958,64.5,0.00,Nangan
26.167,109.783,63.3,0.04,Tongdao
26.167,119.933,64.3,0.00,Mazu
26.183,117.617,67.3,1.06,Sanming
26.184,-98.254,79.5,0.00,Mc Allen Miller Intl Arpt
26.196,127.646,77.2,0.00,Naha
26.199,36.476,74.8,0.00,Wejh
26.2,127.683,77.2,0.00,Naha
26.217,56.25,84.9,0.00,Khasab Port
26.219,68.39,90.3,0.00,Nawabshah
26.228,-97.654,79.9,0.00,Valley International Arpt
26.233,111.617,65.9,0.35,Lingling
26.251,73.049,90.3,0.00,Jodhpur
26.265,50.152,86.1,0.00,King Abdulaziz Ab
26.267,127.75,77.7,0.00,Okinawa Marine Corps Air Station
26.271,50.634,83.8,1.97,Bahrain Intl
26.3,43.767,82.6,0.00,Gassim
26.356,127.768,78.4,0.00,Kadena Ab
26.364,126.714,77.4,0.08,Kumejima
26.4,103.25,63.3,0.00,Huize
26.517,119.533,67.7,0.63,Luoyuan
26.532,54.825,84.4,0.00,Bandar Lengeh
26.533,-81.75,73.0,0.00,Southwest Florida I
26.539,106.801,62.5,0.02,Longdongbao
26.559,-78.696,73.8,0.35,Grand Bahama Intl
26.585,-81.861,74.7,1.10,Page Field Airport
26.61,-80.03,76.3,0.00,Lake Worth  Fl
26.617,92.783,79.8,0.09,Tezpur
26.633,118.15,70.3,0.75,Nanping
26.65,102.25,65.9,0.00,Huili
26.685,-80.099,75.8,0.33,Palm Beach International Airport
26.7,-79.0,74.9,0.00,Settlement Point  Gbi
26.7,105.767,59.2,0.01,Zhi-Jin
26.724,8.623,78.6,0.00,Illizi Takhamalt / Ibrahim Ghouma
26.733,-108.283,78.2,0.00,Choix  Sin.
26.733,110.633,63.8,0.94,Wugang
26.761,80.889,85.5,0.00,Lucknow / Chaudhary Charan Singh Intl
26.824,75.812,88.1,2.36,Jaipur
26.833,100.217,58.5,0.00,Lijing
26.85,116.333,69.2,1.02,Guangchang
26.867,104.283,54.8,0.00,Weining
26.933,-105.667,68.4,0.00,Hidalgo Del Parral   Chih.
26.933,112.583,66.2,0.39,Hengyang
26.95,-96.7,73.6,0.00,Corpus Christi  Tx. 50Nm Southeast Of Co
26.955,64.133,85.8,0.00,Panjgur
26.956,-101.47,87.3,0.00,Monclova Intl
26.967,108.667,61.0,0.20,Sansui
27.047,31.012,70.0,0.00,Asyut Intl
27.05,27.983,75.0,0.00,Farafra
27.05,118.317,68.0,2.32,Jian'Ou
27.07,-82.45,72.2,0.00,Venice  Fl
27.092,142.191,74.7,0.00,Chichi Jima Bonin Island
27.117,114.967,68.2,1.22,Ji'An
27.178,33.799,75.0,0.00,Hurghada Intl
27.183,111.45,64.5,0.39,Shaoyang
27.218,56.378,85.6,0.00,Bandar Abbas Intl
27.233,2.5,79.0,0.00,In-Salah
27.236,60.72,87.4,0.00,Iran Shahr
27.3,105.233,54.3,0.02,Bijie
27.3,112.7,55.9,0.63,Nanyue
27.333,62.333,76.6,0.00,Saravan
27.333,103.75,55.2,0.00,Zhaotong
27.333,117.467,68.6,1.69,Shaowu
27.333,120.2,67.7,0.83,Fuding
27.383,-82.55,75.1,0.00,Sarasota Bradenton
27.426,128.701,74.0,0.31,Okierabu
27.433,-99.583,85.4,0.00,Nuevo Laredo Intl
27.438,41.686,72.7,0.00,Hail
27.444,-99.57,85.3,0.00,Quetzalcoatl Intl / Nuevo Laredo
27.45,109.683,62.8,0.39,Zhijiang
27.45,112.2,65.8,0.24,Shuang-Feng
27.467,121.05,60.6,0.20,Nanji Shan
27.483,-109.917,82.4,0.00,Ciudad Obregon  Son
27.5,-97.817,77.1,0.00,Kingsville Nas
27.55,-99.467,81.6,0.00,Laredo Intl Airport
27.583,116.65,68.1,1.57,Nancheng
27.6,38.567,73.5,0.00,Tayma
27.653,-80.243,75.1,0.87,Vero Beach Muni
27.683,-97.283,75.4,0.00,Corpus Christi Nas
27.7,99.7,40.5,0.00,Zhongdian
27.7,106.883,61.3,0.04,Zunyi
27.733,89.083,30.7,0.00,Pagri
27.741,-98.025,78.9,0.00,Alice International Arpt
27.765,-82.628,78.7,0.00,Albert Whitted Airport
27.767,118.033,67.7,0.91,Wuyishan
27.774,-97.512,76.7,0.00,Corpus Christi International Airport
27.8,114.383,66.8,0.59,Yichun
27.83,-97.05,73.2,0.00,Port Aransas  Tx
27.833,66.633,78.0,0.00,Khuzdar
27.836,128.881,73.6,0.00,Tokunoshima
27.838,-0.186,74.8,0.00,Touat Cheikh Sidi Mohamed Belkebir
27.85,-82.517,80.1,1.97,Mac Dill Afb Airport
27.9,-82.683,74.0,0.04,St Petersburg Clear
27.9,102.267,71.9,0.00,Xichang
27.901,45.528,87.9,0.00,King Khaled Military City / King Saud Ab
27.917,118.533,68.0,0.91,Pucheng
27.932,-15.387,64.1,0.00,Gran Canaria
27.95,-110.767,74.7,0.00,Empalme  Son.
27.95,-81.783,80.0,0.00,Bartow Muni
27.95,108.25,66.1,0.00,Sinan
27.962,-82.54,73.5,1.28,Tampa International Airport
27.967,-110.95,75.9,0.00,Guaymas Intl Apt
27.969,-110.925,75.2,0.00,General Jose Maria Yanez Intl / Guaymas Intl
27.983,-82.017,77.8,0.00,Lakeland Linder Rgn
28.0,73.3,92.0,0.00,Bikaner
28.017,120.667,63.8,0.20,Wenzhou
28.044,-16.572,65.5,0.00,Tenerife Sur
28.05,115.533,67.5,0.75,Qingjiang/Zhangshuz
28.052,9.643,75.6,0.00,In Amenas
28.083,30.733,70.8,0.00,Minya
28.1,119.083,69.1,0.43,Longquan
28.101,-80.644,75.4,0.24,Melbourne Intl Ap
28.117,112.783,64.8,0.20,Changsha
28.133,121.217,60.6,0.24,Yu-Huan
28.15,100.933,59.6,0.00,Tu-Zha
28.15,111.633,62.1,0.47,Mei-Cheng-Zhen
28.233,-80.6,74.8,0.00,Patrick Afb Airport
28.267,109.683,64.1,0.04,Qian-Zhou-Zhen
28.3,126.0,72.9,0.00,Moored Buoy 22001
28.317,-16.5,47.4,0.00,Izana
28.335,46.125,86.1,0.00,Al Qaisumah Intl
28.365,36.619,69.3,0.00,Tabuk / Prince Sultan Bin Abdulaziz
28.394,129.553,73.1,3.03,Naze/Funchatoge
28.4,48.5,78.4,0.00,Al-Khafji
28.417,92.467,43.6,0.00,Lhunze
28.422,79.451,87.9,0.00,Bareilly
28.431,129.713,72.8,0.00,Amami
28.434,-81.325,72.9,0.16,Orlando International Airport
28.448,-11.161,63.3,0.00,Plage Blanche
28.45,-16.25,63.7,0.00,Sta. Cruz De Tenerife
28.45,98.883,36.8,0.12,Deqen
28.45,119.917,67.8,0.59,Lishui
28.45,121.883,58.2,0.20,Dachen Dao
28.453,-13.864,64.3,0.00,Fuerteventura
28.457,-99.218,81.8,0.00,Cotulla-La Salle Co Arpt
28.467,110.4,63.9,0.51,Yuanling
28.483,-16.342,55.5,0.00,Tenerife Norte
28.483,105.933,59.0,0.08,Ch'Ih-Shui Ho
28.483,117.983,68.1,0.83,Shangrao
28.517,-80.8,71.5,0.00,Space Coast Rgnl
28.519,-80.166,74.6,0.00,Canaveral 20 Nm East Of Cape Canaveral
28.545,-81.333,74.5,0.00,Executive Airport
28.585,77.206,83.2,0.00,Safdarjung
28.615,-80.694,74.3,0.04,Nasa Shuttle Landing
28.617,121.417,61.9,0.12,Hongjia
28.626,-17.756,63.6,0.00,La Palma
28.633,87.083,33.4,0.00,Tingri
28.683,118.25,67.6,0.35,Yushan
28.7,-105.983,74.9,0.00,Chihuahua
28.703,-105.965,76.3,0.00,General R Fierro Villalobos Intl / Chihuahua Intl
28.725,-96.254,75.1,0.00,Palacios Municipal Airport
28.75,113.617,64.8,0.16,Pingjiang
28.78,-81.244,77.0,0.00,Orlando Sanford Airport
28.8,104.6,65.0,0.04,Yibin
28.817,62.75,88.6,0.00,Nokkundi
28.817,120.917,56.4,0.16,Kuocang Shan
28.833,108.767,59.2,0.12,Youyang
28.85,112.383,66.2,0.39,Yuanjiang
28.861,-96.93,75.1,0.00,Victoria Regional Airport
28.865,115.9,66.1,0.39,Changbei Intl
28.883,105.433,62.4,0.02,Luzhou
28.892,53.723,76.2,3.19,Fasa
28.9,-89.43,71.9,0.00,Southwest Pass  La
28.9,-78.55,73.3,0.00,Canaveral East 120Nm East Of Cape Canave
28.945,-13.605,65.5,0.00,Lanzarote
28.945,50.835,78.3,0.00,Bushehr
28.95,-107.817,58.6,0.00,Temosachic  Chih.
28.967,118.867,65.5,0.47,Qu Xian
29.0,101.5,52.1,0.00,Jiulong
29.0,135.0,70.8,0.00,Moored Buoy 21004
29.033,21.567,78.4,0.00,Jalo
29.033,114.583,64.7,0.04,Xiushui
29.05,100.3,40.0,0.00,Daocheng
29.05,111.683,66.0,0.12,Changde
29.067,-110.983,72.6,0.00,Hermosillo
29.083,116.883,66.9,0.12,Gu-Xian-Du
29.084,58.45,80.8,0.00,Bam
29.096,-111.048,73.7,0.00,General Ignacio P Garcia Intl / Hermosillo Intl
29.117,15.95,79.9,0.00,Hon
29.167,-82.217,72.9,0.00,Ocala Intl J Taylor
29.179,75.755,86.8,0.00,Hisar
29.183,-81.048,74.5,0.00,Daytona Beach Intl
29.2,121.95,57.6,0.08,Shipu
29.227,47.969,84.1,0.00,Kuwait Intl
29.237,0.276,73.7,0.00,Timimoun
29.25,88.883,48.0,0.00,Xigaze
29.27,-89.96,74.1,0.00,Grand Isle  La
29.273,-94.859,75.9,0.00,Scholes Intl At Glston Apt
29.3,117.2,68.0,0.02,Jingdezhen
29.36,-99.174,74.7,0.00,Hondo Municipal Airport
29.367,-100.783,79.0,0.00,Laughlin Afb Airport
29.369,-10.18,63.2,0.00,Sidi Ifni
29.378,-100.927,81.0,0.00,Del Rio International Airport
29.383,-98.583,74.9,0.00,Lackland Air Force Base (Kelly Field Annex)
29.383,113.083,66.2,0.08,Yueyang
29.4,110.167,62.4,0.04,Sangzhi
29.433,112.183,65.8,0.01,Anxiang
29.467,55.717,72.9,0.00,Sirjan
29.476,60.907,78.8,0.00,Zahedan Intl
29.517,103.333,32.4,0.20,Emei Shan
29.533,-98.262,75.6,0.00,Randolph Afb Airport
29.533,109.383,62.2,0.04,Laifeng
29.539,52.589,73.7,0.00,Shiraz Shahid Dastghaib Intl
29.544,-98.484,76.5,0.00,San Antonio International Airport
29.561,34.96,75.9,0.00,Eilat
29.567,-90.66,76.0,0.00,Houma-Terrebonne
29.567,94.467,48.3,0.16,Nyingchi
29.583,105.05,64.5,0.00,Neijiang
29.583,115.983,54.4,0.01,Lu Shan
29.6,120.817,61.8,0.02,Shengxian
29.612,35.018,77.4,0.00,Aqaba King Hussein Intl
29.617,-95.167,74.1,0.31,Ellington Field Airport
29.626,43.491,78.5,0.00,Rafha
29.633,-83.105,74.4,0.00,Cross City Airport
29.638,-95.282,73.4,1.02,William P Hobby
29.667,91.133,52.2,0.00,Lhasa / Gonggar
29.67,-94.05,73.7,0.00,Sabine  Tx
29.67,-85.36,71.5,0.00,Cape San Blas  Fl
29.692,-82.276,71.6,0.00,Gainesville Rgnl
29.717,-91.333,72.9,0.00,Harry P Williams Mem
29.717,107.4,63.1,0.04,Fou-Ling
29.717,113.883,66.2,0.00,Puqi
29.717,118.267,65.7,0.00,Tunxi
29.719,106.642,62.7,0.04,Jiangbei
29.767,-92.117,76.6,0.00,Intracoastal City
29.785,40.1,74.6,0.00,Al Jouf
29.817,-90.017,74.8,0.00,New Orleans Nas
29.86,-81.26,72.4,0.00,St. Augustine  Fl
29.883,69.717,80.0,0.00,Bar Khan
29.9,-97.867,74.4,0.00,San Marcos (Awos)
29.917,121.467,59.8,0.08,Ningbo
29.94,34.936,63.0,0.00,Ovda
29.951,-94.021,76.0,0.00,Southeast Texas Regional Airport
29.98,-95.36,75.3,0.27,G Bush Intercontinental Ap/Houston Ap
29.983,103.0,61.6,0.00,Ya'An
29.997,-90.278,75.6,0.00,Louis Armstrong New Orleans Intl Ap
30.0,99.1,56.6,0.00,Batang
30.0,100.267,37.5,0.00,Litang
30.033,-91.883,75.2,0.00,New Iberia/Acadiana
30.033,122.117,57.9,0.08,Dinghai
30.049,-90.029,76.1,0.00,Lakefront Airport
30.05,101.967,42.0,0.04,Kangding
30.067,-95.55,76.9,0.00,Houston/D.W. Hooks
30.067,-85.583,71.3,0.00,Tyndall Afb Airport
30.067,115.333,65.1,0.00,Qizhou
30.09,-88.77,72.4,0.00,Biloxi 22 Nm South-Southeast Of Biloxi
30.122,31.406,67.3,0.00,Cairo Intl
30.125,-93.228,74.7,0.00,Lake Charles Regional Airport
30.133,-2.167,73.4,0.00,Beni-Abbes
30.133,118.15,51.7,0.12,Huang Shan
30.152,9.715,81.1,0.00,Ghadames East
30.167,-102.417,76.8,0.00,Sanderson  Tx.
30.167,35.783,55.2,0.00,Ma'An
30.183,-97.68,78.1,0.00,Bergstrom Afb/Austi
30.2,-85.683,75.1,0.00,Panama City Bay Co
30.2,110.667,58.7,0.00,Wu-Feng
30.203,71.419,85.5,0.00,Multan Intl
30.205,-91.988,74.1,0.00,Lafayette Regional Airport
30.21,-93.143,79.8,0.00,Chennault International Ap
30.217,-81.883,71.9,0.00,Cecil Fld
30.228,120.432,59.6,0.04,Xiaoshan
30.233,-81.667,74.6,0.00,Jacksonville Nas
30.25,-88.07,71.5,0.00,Dauphin Island  Al
30.251,66.938,70.9,0.00,Quetta
30.274,56.951,71.8,0.00,Kerman
30.283,109.467,59.3,0.08,Enshi
30.317,78.033,78.0,0.00,Dehradun
30.321,-97.76,75.0,0.00,Austin/Mueller Muni
30.325,-9.413,65.3,0.00,Al Massira
30.333,-81.517,70.9,0.00,Jacksonville/Craig
30.333,76.467,79.2,0.00,Patiala
30.333,112.183,66.9,0.00,Jiangling
30.338,50.828,77.3,0.00,Gachsaran
30.35,-87.317,74.0,0.00,Pensacola Nas
30.35,119.417,50.7,0.28,Tianmu Shan (Mtns)
30.367,-107.95,64.9,0.00,Nueva Casas Grandes   Chih.
30.371,-104.017,64.0,0.00,Marfa Municipal Airport
30.383,13.583,83.5,0.00,Gariat El-Sharghia
30.386,130.659,64.1,0.47,Yakushima
30.393,-84.353,74.8,0.00,Tallahassee Regional Airport
30.4,-89.067,76.0,0.00,Gulfport Biloxi Int
30.4,-81.417,75.1,0.00,Mayport Naf
30.417,-88.917,75.0,0.00,Keesler Air Force Base
30.417,-86.683,71.6,0.00,Hurlburt Field Airport
30.478,-87.187,71.5,0.00,Pensacola Regional Airport
30.483,-86.517,71.1,0.00,Valparaiso/Eglin Af
30.495,-81.694,70.9,0.00,Jacksonville International Airport
30.511,-99.766,77.0,0.00,Kimble County Airport
30.537,-91.147,74.0,0.67,Baton Rouge Metro R
30.547,130.95,63.5,0.00,Tanegashima
30.55,81.433,37.1,0.00,T'U-Ko-Erh-Ho-Kung
30.571,2.86,70.4,0.00,El Golea
30.579,103.947,63.0,0.16,Shuangliu
30.589,-96.365,74.6,0.00,Easterwood Fld
30.6,32.25,66.2,0.00,Ismailia
30.617,116.967,62.8,0.01,Anqing
30.617,121.083,57.7,0.08,Zha-Pu
30.626,-88.068,74.5,0.00,Mobile Downtown Airport
30.65,-86.517,77.1,0.00,Duke Fld
30.667,51.583,62.0,0.00,Yasoge
30.683,-97.683,73.5,0.00,Georgetown Muni
30.683,107.8,59.8,0.39,Liangping
30.688,-88.246,72.3,0.00,Mobile Regional Airport
30.717,-87.017,70.3,0.00,Whiting Field Naval Air Station North
30.717,20.167,72.2,0.00,Agedabia
30.717,130.983,64.0,0.47,Tanegashima
30.733,111.367,64.6,0.04,Yichang
30.733,122.45,56.5,0.24,Shengsi
30.75,106.133,62.4,0.08,Gaoping
30.75,115.667,63.7,0.00,Yingshan
30.783,-86.517,74.5,0.00,Bob Sikes Airport
30.783,-83.277,73.6,0.00,Valdosta Regional Airport
30.783,110.267,44.6,0.00,Lu-Cong-Po
30.784,114.208,66.7,0.00,Tianhe
30.907,41.138,75.7,0.00,Arar
30.939,-6.909,67.8,0.00,Ouarzazate
30.95,88.633,30.3,0.00,Xainza
30.967,-83.2,74.6,0.00,Moody Afb/Valdosta
30.983,101.117,48.8,0.08,Dawu
31.017,109.533,59.3,0.24,Fengjie
31.033,-114.85,61.5,0.00,San Felipe  Bcn
31.05,-93.183,73.3,0.79,Polk Army Airfield
31.067,-97.833,74.4,0.00,Robert Gray Aff Airport
31.073,33.836,63.7,0.00,El Arish Intl
31.083,-97.683,73.5,0.00,Killeen Muni (Awos)
31.098,61.544,84.9,0.00,Zabol
31.133,-97.717,74.8,0.00,Hood Aaf Airport
31.133,114.95,67.9,0.00,Macheng
31.15,-97.4,73.9,0.00,Draughon Miller Cen
31.15,97.167,42.3,0.08,Qamdo
31.15,118.583,60.7,0.04,Wuhuxian
31.152,-81.391,71.7,0.00,Malcolm Mc Kinnon Airport
31.167,112.633,65.1,0.00,Zhongxiang
31.183,-90.471,72.0,0.00,Mcom/Pike Co/J E Lws Fd Ap
31.183,52.667,63.1,0.00,Abadeh
31.184,29.949,64.9,0.00,Alexandria Intl
31.198,121.336,59.6,0.00,Hongqiao Intl
31.2,16.583,78.7,0.00,Sirte
31.2,107.5,60.2,0.39,Da Xian
31.236,-94.754,73.2,0.00,Angelina County Airport
31.25,-82.4,72.0,0.00,Waycross-Ware Co. Airport
31.25,-81.467,75.1,0.00,Brunswick Golden Is
31.267,-85.717,72.6,0.01,Cairns Army Airfield (Fort Rucker)
31.267,120.617,60.0,0.20,Suzhou
31.267,130.3,63.5,0.12,Makurazaki
31.283,32.233,66.2,0.00,Port Said/El Gamil
31.287,34.723,61.8,0.00,Teyman
31.309,-86.394,78.7,0.00,Andalusia Opp
31.317,-85.45,74.7,0.00,Dothan Rgnl
31.325,27.222,64.1,0.00,Mersa Matruh
31.337,48.762,85.7,0.00,Ahwaz
31.352,-100.495,79.3,0.00,San Angelo Regional/Maths Field Ap
31.358,69.464,71.8,0.00,Zhob
31.367,90.017,30.4,0.00,Baingoin
31.368,130.845,62.8,0.00,Kanoya
31.395,-92.291,76.2,0.67,Esler Regional Airport
31.399,-9.683,61.3,0.00,Essaouira / Mogador Intl
31.4,116.333,62.0,0.01,Huoshan
31.4,121.467,58.6,0.04,Shanghai
31.412,37.279,68.4,0.00,Guriat
31.417,95.6,33.2,0.16,Dengqen
31.42,-110.85,56.4,0.00,Nogales Automatic Meteorological
31.433,119.483,60.7,0.08,Liyang
31.45,104.733,65.5,1.46,Mianyang
31.458,-109.606,58.1,0.00,Bisbee Douglas Intl
31.467,-89.333,71.3,0.00,Hattiesburg Laurel
31.483,-97.317,73.9,0.00,Mc Gregor Executive
31.483,92.067,30.9,0.00,Nagqu
31.483,103.583,62.5,0.24,Wenchuan
31.514,10.598,68.0,0.00,Nalut
31.522,74.404,82.8,0.00,Allama Iqbal Intl
31.533,60.033,85.4,0.00,Nehbandan
31.536,-84.194,75.2,0.00,Sw Georgia Regional Arpt
31.536,-82.507,77.1,0.00,Alma/Bacon Co.
31.55,74.333,82.6,0.00,Lahore City
31.55,130.55,64.1,0.12,Kagoshima
31.578,-94.71,72.9,0.00,A L Mangham Jr Rgnl
31.583,105.967,62.7,0.20,Langzhong
31.583,131.4,63.6,0.28,Aburatsu
31.588,-110.344,57.1,0.00,Sierra Vista Municipal-Libby Aaf Airport
31.607,-8.036,66.8,0.00,Menara
31.617,-91.3,68.2,0.00,Natchez/Hardy(Awos)
31.617,100.0,39.6,0.12,Garze
31.619,-97.228,74.3,0.71,Waco Regional Airport
31.636,-106.429,67.4,0.00,Abraham Gonzalez Intl / Ciudad Juarez Intl
31.646,-2.27,66.6,0.00,Bechar / Boudghene Ben Ali Lotfi
31.673,6.14,72.3,0.00,Oued Irara / Krim Belkacem
31.693,38.731,64.5,0.00,Turaif
31.71,74.797,79.2,0.00,Amritsar
31.723,35.993,55.1,0.00,Queen Alia Intl
31.733,98.567,41.9,0.10,Dege
31.733,131.083,61.9,0.16,Miyakonojo
31.742,118.862,62.5,0.00,Lukou
31.767,119.95,61.1,0.08,Changzhou
31.78,-103.202,74.3,0.00,Winkler County Airport
31.78,117.298,64.5,0.01,Luogang / Xinqiao
31.803,130.719,61.2,0.00,Kagoshima
31.811,-106.376,67.0,0.01,El Paso International Airport
31.831,-104.809,61.1,0.00,Guadalupe Pass Amos
31.85,102.7,34.6,0.16,Ma-Tang
31.861,-86.012,79.2,0.00,Troy Municipal Airport
31.865,35.219,55.1,0.00,Jerusalem
31.867,35.217,54.8,0.00,Jerusalem Airport
31.877,131.449,64.1,0.00,Miyazaki
31.883,-81.567,76.4,0.00,Ft Stewart/Wright
31.883,93.783,33.3,0.00,Sog Xian
31.9,102.233,46.0,0.16,Barkam
31.9,106.7,61.3,0.16,Bazhong
31.905,54.277,80.3,0.00,Yazd Shahid Sadooghi
31.909,70.897,83.3,0.00,D I Khan
31.933,131.417,63.1,0.20,Miyazaki
31.948,-102.209,74.4,0.00,Midland International Airport
31.948,-4.398,65.1,0.00,Moulay Ali Cherif
31.973,35.992,56.2,0.00,Marka Intl
32.0,-75.083,69.6,0.00,S Hatteras - 250 Nm East Of Charleston
32.002,49.271,75.1,0.00,Shahid Asyaee
32.009,-81.146,72.3,0.00,Hunter Aaf
32.011,34.887,63.7,0.00,Ben Gurion
32.033,-81.667,36.9,0.12,Mprc-Ft Stewart
32.033,110.767,58.9,0.12,Fangxian
32.033,130.2,62.1,0.00,Akune
32.04,12.313,68.5,0.00,Yefren
32.05,72.667,82.5,0.00,Sargodha
32.067,108.033,60.4,0.20,Wanyuan
32.067,121.6,55.9,0.04,Lusi
32.084,131.451,62.0,0.00,Nyutabaru
32.097,20.269,68.7,0.00,Benina Airport
32.1,23.933,64.8,0.00,Tobruk
32.1,34.783,66.1,0.00,Sde-Dov (Tel-Aviv)
32.1,120.867,59.6,0.12,Nantong/Jinsha
32.131,-110.955,59.0,0.00,Tucson International Airport
32.131,-81.202,71.6,0.00,Savannah/Hilton Head Intl Airport
32.133,114.05,67.1,0.00,Xinyang
32.15,112.667,64.6,0.08,Zaoyang
32.167,-110.883,59.6,0.00,Davis-Monthan Afb Airport
32.167,115.617,66.7,0.00,Gushi
32.2,130.033,63.8,0.00,Ushibuka
32.217,130.75,62.5,0.00,Hitoyoshi
32.243,15.021,75.3,0.00,Misurata
32.25,-107.717,59.5,0.00,Deming Muni
32.267,91.667,26.7,0.00,P'A-Na
32.283,-106.917,62.4,0.00,Las Cruces Intl
32.283,-9.233,61.5,0.00,Safi
32.283,100.333,29.8,0.20,Sertar
32.297,50.842,59.6,0.00,Shahre Kord
32.3,-86.408,71.8,0.00,Montgomery Rgnl (Dannelly Fd) Ap
32.3,84.05,28.4,0.00,Lumaringbo
32.321,-90.078,72.4,0.20,Jackson International Airport
32.334,-104.258,72.5,0.00,Cavern City Air Trml Arpt
32.335,-88.744,71.6,0.00,Key Field Airport
32.35,-95.4,74.2,0.00,Tyler Pounds Rgnl
32.35,-85.0,68.9,0.00,Lawson Aaf Airport
32.356,36.259,57.3,0.00,King Hussein
32.367,-64.683,68.9,0.04,Naval Atlantic Meterology & Oceanography Facility
32.367,-6.4,62.7,0.00,Beni-Mellal
32.383,-106.483,60.8,0.00,White Sands  Nm.
32.383,-86.35,77.0,0.00,Maxwell Afb Airport
32.384,3.794,65.6,0.00,Noumerat Moufdi Zakaria
32.385,-94.712,75.9,0.00,East Texas Regional Arpt
32.401,14.143,75.3,0.00,El Khoms
32.411,-99.682,74.0,0.00,Abilene Regional Airport
32.417,104.517,60.8,1.06,Pingwu
32.433,-99.85,77.1,0.00,Abilene Dyess Afb
32.433,111.733,63.9,0.01,Laohekou
32.447,-93.824,72.5,0.08,Shreveport Regional Airport
32.483,-80.717,71.5,0.00,Beaufort Mcas
32.5,-93.667,71.1,0.02,Barksdale Air Force Base
32.5,80.083,29.4,0.00,Shiquanhe
32.516,-92.041,76.0,0.00,Monroe Regional Airport
32.516,-84.942,72.0,0.00,Columbus Metro Airport
32.533,-6.283,68.9,0.00,Kasba-Tadla
32.541,-116.97,56.1,0.00,General Abelardo L Rodriguez Intl / Tijuana Intl
32.55,-117.0,56.4,0.00,Tijuana
32.55,-88.567,68.6,0.00,Meridian Nas/Mc Cain Fd Ap
32.555,12.056,69.4,0.00,Zuara
32.567,-117.117,60.6,0.00,Naval Auxiliary Landing Fd
32.567,-116.967,56.9,0.00,Brown Fld Muni
32.583,116.783,65.4,0.00,Shouxian/Shouyang
32.583,131.65,63.0,0.00,Nobeoka
32.6,-85.5,69.1,0.00,Auburn Univ. (Amos)
32.6,36.1,60.0,0.00,Dara'A
32.616,-85.433,68.5,0.00,Auburn Opelika Robe
32.631,-115.242,64.2,0.00,General Rodolfo Sanchez Taboada Intl / Mexicali Intl
32.633,-115.267,63.9,0.00,Mexicali
32.633,-83.6,69.4,0.00,Robins Afb Airport
32.65,-114.617,61.3,0.00,Yuma Mcas
32.664,13.159,79.3,0.00,Tripoli Intl
32.666,128.833,64.0,0.00,Fukue
32.667,-114.6,61.2,0.00,Yuma Marine Corps Air Station/Yuma Intl Airport
32.667,103.6,42.0,0.28,Songpan
32.68,-79.89,71.1,0.00,Folly Island  Sc
32.683,-96.867,75.0,0.00,Dallas Executive
32.683,-16.767,60.3,0.00,Funchal/S.Catarina
32.683,-4.733,54.7,0.00,Midelt
32.685,-83.653,71.5,0.00,Middle Georgia Regional Airport
32.693,-103.213,68.6,1.10,Lea County Regional Airport
32.7,-117.2,57.7,0.12,North Island Nas
32.7,128.833,62.2,0.00,Fukue
32.717,109.033,62.3,0.04,Ankang
32.717,133.017,65.5,0.00,Shimizu
32.733,-96.967,73.2,0.00,Naval Air Station Operations
32.733,129.867,63.0,0.00,Nagasaki
32.733,130.267,59.0,0.00,Unzendake
32.734,-117.183,57.4,0.02,San Diego International Airport
32.751,51.862,75.3,0.00,Esfahan Shahid Beheshti Intl
32.767,-97.45,74.9,0.00,Fort Worth Naval Air Station Jrb/Carswell Field
32.767,-0.6,59.2,0.00,Ain-Sefra
32.767,110.117,62.8,0.00,Baihe
32.77,-117.23,59.5,0.00,Mission Beach
32.782,-98.06,75.2,0.00,Mineral Wells Airport
32.783,119.45,63.6,0.02,Gaoyou
32.8,21.883,61.4,0.00,Shahat
32.809,35.043,64.7,0.00,Haifa
32.816,-117.14,56.5,0.00,Montgomery Fld
32.817,-115.683,65.6,0.00,Naf
32.817,130.7,63.6,0.00,Kumamoto
32.819,-97.361,73.8,0.00,Fort Worth Meacham
32.833,-116.967,56.3,0.00,Gillespie Fld
32.834,-115.579,62.2,0.00,Imperial Co
32.837,130.855,62.0,0.00,Kumamoto
32.85,-109.633,54.9,0.00,Safford Rgnl
32.85,-106.1,63.5,0.00,Holloman Afb
32.85,117.3,66.3,0.00,Bengbu
32.85,120.283,59.4,0.01,Dongtai
32.852,-96.856,74.7,0.00,Dallas Love Fld
32.867,-117.133,55.5,0.04,San Diego/Miramar N
32.867,115.733,68.3,0.00,Fuyang
32.883,-112.717,63.2,0.00,Gila Bend Af Aux
32.883,131.067,54.8,0.00,Asosan
32.898,-97.019,73.9,0.00,Dallas/Ft Worth International Ap
32.898,59.266,74.0,0.00,Birjand
32.899,-80.041,70.4,0.00,Charleston Afb/International Airport
32.9,-87.25,70.3,0.00,Nws Meteorological Obsy
32.9,95.3,28.5,0.08,Zadoi
32.917,129.914,63.5,0.00,Nagasaki
32.917,132.7,64.4,0.00,Sukumo
32.933,73.717,87.4,0.00,Jhelum
32.933,113.917,68.1,0.00,Zhumadian
32.95,-111.767,54.8,0.00,Casa Grande Muni
32.967,-96.833,73.7,0.00,Addison
32.983,-97.317,73.5,0.00,Fort Worth Alliance
33.017,96.95,35.7,0.04,Yushu
33.017,129.183,61.9,0.00,Kamigoto
33.023,-118.588,56.1,0.00,Nalf/F. Sherman Fld Arpt
33.067,-96.067,73.0,0.00,Majors
33.067,107.033,61.0,0.01,Hanzhong
33.068,6.089,70.9,0.00,Sidi Mahdi / Nesrat Hachani
33.073,-16.35,59.2,0.00,Porto Santo
33.1,112.483,67.6,0.00,Nanyang
33.115,139.786,67.7,0.00,Hachijojima
33.117,139.783,65.4,0.00,Hachijojima
33.167,129.733,61.6,0.00,Sasebo
33.2,126.267,59.7,0.00,Mosulpo (Kor-Afb)
33.212,-87.616,69.2,0.00,Tuscaloosa Municipal Arpt
33.217,129.05,64.4,0.00,Ojika Island
33.221,-92.814,70.8,0.16,S. Ar Rgnl At Gdwin Fld Ap
33.233,131.617,59.4,0.00,Oita
33.233,132.55,61.3,0.00,Uwajima
33.237,-107.268,59.8,0.00,Trh Or Conseqces Muni Arpt
33.24,-119.458,58.8,0.00,San Nicolas Island Naval Outlying Field
33.25,126.567,60.9,0.00,Seogwipo
33.25,134.183,63.5,0.00,Murotomisaki
33.267,130.3,62.5,0.00,Saga
33.294,126.163,58.7,0.00,Gosan
33.3,-117.35,55.7,0.00,Marine Corps Air Station
33.308,-104.508,66.8,0.00,Roswell International Air Center Ap
33.317,130.417,69.4,0.00,Metabaru (Jasdf)
33.317,130.933,59.3,0.00,Hita
33.333,118.667,63.6,0.00,Hongze Hu (Lake)
33.364,-81.963,67.8,0.00,Augusta Regional At Bush Field Ap
33.367,-7.59,56.5,0.00,Mohammed V
33.367,129.55,59.1,0.00,Hirado
33.4,104.917,59.7,0.16,Wudu
33.412,36.516,59.7,0.00,Damascus Intl
33.417,109.15,58.7,0.00,Chen-An
33.428,-112.004,57.9,0.47,Phoenix Sky Harbor Intl Airport
33.433,48.283,61.2,0.00,Khorram Abad
33.45,-88.583,68.7,0.00,Golden Triangle Rgnl
33.45,108.25,53.3,0.00,Wen-Huang-Ping
33.45,135.75,65.9,0.00,Shionomisaki
33.456,-93.988,72.1,0.00,Texarkana Regional Airport-Webb Field
33.467,101.483,31.6,0.20,Jigzhi
33.479,131.737,57.5,0.00,Oita
33.483,-90.985,77.5,0.67,Mid Delta Rgnl
33.483,38.667,67.0,0.00,Jabal Ettanf
33.49,-77.59,69.8,0.00,Frying Pan Shoals  Nc
33.496,-90.087,73.0,0.00,Greenwood Leflore
33.511,6.777,72.8,0.00,Guemar
33.511,126.493,56.8,0.00,Jeju Intl
33.517,126.533,58.1,0.00,Jeju
33.546,133.669,65.6,0.00,Kochi
33.55,-112.367,58.2,0.05,Luke Afb Airport
33.557,-7.66,58.2,0.02,Anfa
33.566,-86.745,71.1,0.00,Birmingham International Airport
33.567,133.55,64.2,0.00,Kochi
33.583,102.967,33.4,0.12,Ruo'Ergai
33.583,130.383,60.4,0.00,Fukuoka
33.586,130.451,59.9,0.00,Fukuoka
33.587,-85.856,70.0,0.00,Anniston Metropolitan Arpt
33.6,-102.05,72.8,0.00,Reese Afb/Lubbock
33.6,119.033,64.0,0.00,Qingjiang
33.617,73.099,76.9,0.00,Chaklala
33.619,-114.714,62.9,0.00,Blythe Airport
33.623,-111.911,59.5,0.00,Scottsdale
33.627,-116.159,63.2,0.00,Desert Resorts Rgnl Arpt
33.63,-84.442,73.0,0.00,Hartsfield-Jackson Atlanta Intl Ap
33.633,-95.45,70.7,0.00,Cox Fld
33.65,-88.45,72.2,0.00,Columbus Afb Airport
33.65,130.7,58.7,0.00,Iizuka
33.662,135.364,66.4,0.00,Nanki Shirahama
33.666,-101.823,70.8,0.02,Lubbock International Airport
33.667,-117.733,55.6,0.16,El Toro Mcas
33.668,56.893,89.9,0.00,Tabas
33.68,-117.866,54.3,0.00,J. Wayne Apt-Orange Co Apt
33.683,-78.933,69.8,0.00,Myrtle Beach Intl Airport
33.685,131.04,60.2,0.00,Tsuiki
33.688,-112.083,60.2,0.00,Phoenix Deer Valley
33.7,-117.833,58.5,0.00,Fob Dwyer
33.717,1.083,47.3,0.00,El-Bayadh
33.72,-96.67,71.8,0.00,Sherman-Denison
33.749,129.785,62.0,0.00,Iki
33.75,-119.08,55.3,0.00,Santa Monica Basin - 33Nm West Southwest
33.75,99.65,29.2,0.16,Darlag
33.75,105.75,57.9,0.00,Cheng-Xian
33.75,120.3,59.8,0.00,Sheyang
33.767,-84.517,67.8,0.00,Fulton Co Arpt Brow
33.783,-118.05,58.0,0.00,Los Alamitos Aaf
33.783,55.083,85.8,0.00,Khor
33.783,114.517,66.6,0.02,Xihua
33.783,115.733,67.3,0.00,Boxian
33.8,97.133,23.3,0.35,Qingshui-He
33.802,-118.342,57.3,0.00,Torrance Airport
33.812,-118.146,57.2,0.00,Long Beach / Daugherty Field / Airport
33.816,-78.72,74.0,0.00,Grand Strand Airport
33.817,35.85,60.3,0.00,Houche-Al-Oumara
33.821,35.488,65.8,0.00,Rafic Hariri Intl
33.827,132.7,58.8,0.00,Matsuyama
33.833,-116.5,62.5,0.00,Palm Springs Intl
33.836,130.947,63.0,0.00,Kitakyushu
33.85,132.783,61.2,0.00,Matsuyama
33.867,-117.983,57.1,0.00,Fullerton Municipal
33.867,-84.3,73.5,0.00,Dekalb Peachtree
33.875,10.775,67.4,0.00,Zarzis / Djerba
33.877,10.103,68.0,2.76,Gabes / Matmata
33.879,-5.515,54.5,0.00,Bassatine
33.883,130.653,58.8,0.00,Ashiya
33.895,51.577,80.5,0.00,Kashan
33.9,-117.25,50.5,0.00,March Air Reserve Base
33.9,117.95,68.0,0.00,Suining
33.917,-84.517,68.5,0.00,Dobbins Air Reserve Base Airport
33.921,-80.801,77.9,0.00,Mc Entire Jngb
33.927,-4.978,54.4,0.00,Saiss
33.93,131.279,60.4,0.00,Yamaguchi Ube
33.933,-116.967,46.5,0.00,Beaumont
33.938,-118.389,55.3,0.00,Los Angeles International Airport
33.94,8.111,70.8,0.00,Nefta
33.942,-81.118,69.6,0.00,Columbia Metropolitan Airport
33.948,-83.328,68.6,0.00,Athens/Ben Epps Airport
33.95,130.933,60.6,0.00,Shimonoseki
33.967,-86.083,66.7,0.00,Gadsden Muni
33.967,-80.467,69.7,0.00,Shaw Air Force Base
33.979,-98.493,73.8,0.67,Sheppard Afb/Wichita Falls Muni Ap
34.0,134.633,64.8,0.00,Komatsujima (Jasdf)
34.017,-118.45,57.6,0.00,Santa Monica Muni
34.017,58.167,82.4,0.00,Ferdous
34.017,71.583,78.8,0.00,Peshawar
34.033,36.717,51.6,0.00,Nabk
34.035,131.549,61.3,0.00,Hofu
34.045,131.052,59.1,0.00,Ozuki
34.051,-6.752,56.5,0.12,Rabat Sale Intl
34.067,-117.65,52.4,0.00,Ontario
34.067,134.567,64.8,0.00,Tokushima
34.067,136.2,63.8,0.00,Owase
34.074,139.56,68.0,0.00,Miyakejima
34.083,74.833,64.1,0.00,Srinagar
34.083,111.067,60.6,0.00,Lushi
34.117,-119.117,57.7,0.00,Point Mugu
34.117,139.517,64.8,0.00,Miyakejima
34.133,95.783,24.7,0.16,Qumarleb
34.133,134.607,63.5,0.00,Tokushima
34.138,49.847,64.7,0.00,Arak
34.15,132.233,59.9,0.00,Iwakuni
34.167,131.467,60.0,0.00,Yamaguchi
34.18,-91.934,75.0,0.00,Grider Field Airport
34.188,-79.731,71.3,0.00,Florence Regional Airport
34.198,129.292,57.6,0.00,Izuhara
34.201,-119.207,56.1,0.00,Oxnard Airport
34.201,-118.358,53.9,0.00,Burbank-Glendale-Pasa Arpt
34.21,-118.489,55.3,0.00,Van Nuys Airport
34.214,134.016,64.3,0.00,Takamatsu
34.217,-119.1,53.0,0.00,Camarillo
34.217,-4.0,58.8,0.00,Taza
34.217,92.433,17.4,0.02,Tuotuohe
34.233,132.55,61.3,0.00,Kure
34.233,135.167,64.7,0.00,Wakayama
34.257,-111.339,44.4,0.24,Payson
34.262,-88.771,69.9,0.59,Tupelo Regional Airport
34.267,-110.0,41.6,0.47,Show Low Rgnl
34.268,-77.9,70.5,0.00,Wilmington Intl
34.283,117.15,67.4,0.00,Xuzhou
34.283,133.75,61.1,0.00,Tadotsu
34.285,129.331,64.0,0.00,Tsushima
34.3,-116.167,55.4,0.00,Twenty Nine Palms
34.3,-97.017,72.1,0.00,Ardmore Municipal
34.317,134.05,62.8,0.00,Takamatsu
34.333,134.9,62.3,0.00,Sumoto
34.346,47.158,64.6,0.00,Shahid Ashrafi Esfahani
34.348,-85.161,66.3,0.00,Richard B Russell Airport
34.35,107.133,59.6,0.00,Baoji
34.383,-103.317,62.1,0.00,Cannon Afb Airport
34.4,-119.7,56.7,0.00,Santa Barbara Harbor
34.4,126.7,60.7,0.00,Wando
34.4,132.467,63.7,0.00,Hiroshima
34.417,40.917,72.7,0.00,Abukmal
34.417,116.333,69.6,0.00,Tang-Shan
34.417,131.4,57.9,0.00,Hagi
34.422,8.823,67.5,0.00,Gafsa
34.426,-119.843,54.3,0.20,Santa Barbara Municipal Airport
34.427,-100.283,75.3,0.00,Childress Municipal
34.433,-103.083,61.3,0.00,Clovis Muni
34.436,132.919,62.9,0.00,Hiroshima
34.447,108.752,60.4,0.00,Xianyang
34.45,133.25,60.5,0.00,Fukuyama
34.467,-93.083,72.4,0.02,Memorial Fld
34.483,110.083,46.2,0.00,Hua Shan
34.498,-82.71,67.7,0.00,Anderson Rgnl
34.52,113.841,68.4,0.00,Xinzheng
34.533,136.683,68.5,0.00,Akeno (Jasdf)
34.557,38.317,71.1,0.00,Palmyra
34.58,-120.65,52.9,0.00,Point Arguello  Ca
34.583,105.75,56.6,0.24,Tianshui
34.59,32.988,63.6,0.00,Akrotiri
34.596,135.603,68.8,0.00,Yao
34.6,-91.567,73.8,0.00,Stuttgart Muni
34.6,138.217,62.8,0.00,Omaezaki
34.6,138.85,62.4,0.00,Irozaki
34.62,-76.52,68.3,0.00,Cape Lookout  Nc
34.629,-118.084,52.4,0.00,Pdle Prodn Flt/Tst Af Plt
34.633,137.1,62.4,0.00,Irako
34.644,-86.787,69.7,0.00,Huntsville Intl/C.T.Jones Field Airport
34.65,-99.267,73.6,0.16,Altus Afb Airport
34.65,-98.4,69.1,0.43,Henry Post Aaf Airport
34.652,-112.421,40.4,0.33,Ernest A. Love Field Arpt
34.667,-120.467,52.2,0.00,Lompoc
34.683,-77.033,75.7,0.00,Bogue Field Marine Corps Auxiliary Field
34.683,3.25,50.3,0.00,Djelfa/Tletsi
