lat,lon,temp,precip,name
-90.0,0.0,-76.7,0.00,Univ. Wi Id 8987 (Clean Air)
-89.0,-1.017,-82.2,0.00,Henry
-89.0,89.667,-79.4,0.00,Nico
-83.133,174.167,-29.6,0.00,Elaine
-82.517,-174.45,-58.5,0.00,Lettau
-80.033,-178.633,-66.7,0.00,Gill
-80.0,-119.4,-20.3,0.00,Byrd Station
-79.95,165.117,-32.7,0.00,Marilyn
-78.55,166.65,-43.3,0.00,Minna Bluff
-78.45,106.867,-95.8,0.00,Vostok
-77.9,170.817,-53.6,0.00,Ferrell
-77.867,-34.617,-9.7,0.00,Base Belgrano Ii
-77.85,166.667,-32.4,0.00,Mcmurdo
-77.433,163.75,-25.4,0.00,Marble Point
-76.717,162.967,-23.4,0.00,Cape Ross
-75.61,-26.272,-17.6,0.00,Halley
-75.117,123.367,-88.3,0.00,Dome C Ii
-75.017,-62.533,-17.6,0.00,Navy Operated(Amos)
-74.95,163.683,-28.4,0.00,Manuela
-74.7,164.1,-14.5,0.00,Base Baia Terra Nova
-74.483,160.483,-54.9,0.00,Sandra
-74.233,160.283,-56.7,0.00,Lynn
-74.133,109.833,-82.5,0.00,Casey (Gc 46 Aws)
-73.833,55.667,-59.4,0.00,Mawson (Lgb 20 Aws)
-73.517,169.75,-21.2,0.00,Cape Phillips
-73.2,-127.05,10.9,0.00,Mount Siple
-73.05,-13.383,-7.9,0.00,Nordenskiold Base
-72.2,-60.167,-16.8,0.00,Univ. Wi Id 8902 (Butler Island)
-72.017,2.533,1.8,0.00,Troll In Antarktis
-71.883,171.2,-15.5,0.00,Possession Is
-71.6,111.267,-58.6,0.00,Casey (Traverse Gc41)
-71.433,-68.933,12.0,0.00,Univ. Wi Id 8920 (Uranus)
-70.667,-8.25,-28.6,0.00,Neumayer
-69.367,76.367,-8.5,0.00,Zhongshan
-69.0,39.583,21.0,0.00,Syowa
-68.583,77.967,-7.6,0.00,Davis
-68.117,-67.133,28.4,0.20,Base San Martin
-67.667,45.85,16.9,0.00,Molodeznaja
-67.6,62.867,0.2,0.00,Mawson
-67.017,-61.467,-8.7,0.00,Univ. Wi Id 8926 (Larsen Ice Shelf)
-66.733,112.833,-6.6,0.00,Law Dome Summit
-66.717,139.833,7.2,0.00,D-10
-66.667,140.017,10.0,0.00,Dumont D'Urville
-66.55,93.017,-4.9,0.00,Mirnyj
-66.283,110.533,8.1,0.00,Casey
-66.283,110.783,1.8,0.00,Casey Airstrip(Aws)
-66.017,111.083,7.5,0.00,Casey Balaena Islan
-64.233,-56.717,21.9,0.00,Base Marambio (Centro Met. Antartico)
-63.4,-56.983,32.3,0.04,Base Esperanza
-63.317,-56.683,30.6,0.00,Base Bernardo O'Higgins
-62.5,-59.683,32.9,0.39,Base Arturo Prat
-62.233,-58.633,34.1,0.04,Base Carlini
-62.217,-58.967,33.2,0.06,Great Wall
-62.183,-58.983,33.1,0.04,Centro Met. Antartico Pdte. Eduardo Frei
-62.183,-58.883,32.3,0.08,Bellingshausen Aws
-62.183,-58.85,32.4,0.00,Dinamet-Uruguay
-60.733,-44.733,31.7,0.00,Base Orcadas
-59.45,-27.317,30.1,0.00,South Thule Is.
-56.283,-27.583,36.3,0.00,Zavodovski Is.
-54.843,-68.296,45.6,0.03,Ushuaia Malvinas Argentinas
-54.7,-67.25,41.8,0.00,Tolhuin
-54.499,158.937,42.1,0.12,Macquarie Island
-54.433,3.283,30.8,0.00,Bouvet Island
-54.283,-36.5,39.2,0.00,Grytviken
-53.778,-67.749,44.0,0.00,Rio Grande
-53.003,-70.855,42.7,0.08,Carlos Ibanez Del Campo Intl
-52.55,169.167,48.0,0.00,Cambell Island Aws
-52.433,-59.083,44.6,0.00,Sea Lion Island
-52.4,-75.1,45.6,0.83,Islotes Evangelistas
-51.9,-60.917,46.2,0.00,Weddell Island
-51.823,-58.447,46.1,0.00,Mount Pleasant
-51.609,-69.313,48.9,0.00,Rio Gallegos
-51.317,-59.6,46.6,0.00,Pebble Island
-50.483,166.3,50.0,0.00,Enderby Island Aws
-50.333,-72.3,49.6,0.00,Lago Argentino Arpt
-49.307,-67.803,49.1,0.00,San Julian
-48.783,-70.167,51.8,0.00,Gobernador Gregores
-48.167,-52.933,38.1,0.00,Grates Cove(Auto)
-46.875,37.86,45.5,0.02,Marion Island
-46.517,-71.017,43.7,0.00,Perito Moreno Arpt
-46.433,51.85,47.1,0.35,Alfred Faure (Iles Crozet)
-46.412,168.313,54.4,0.00,Invercargill
-46.15,166.6,53.7,0.20,Puysegur Point Aws
-45.916,-71.689,42.3,0.00,Balmaceda
-45.785,-67.466,53.5,0.00,Comodoro Rivadavia
-45.767,170.733,53.7,0.00,Taiaroa Head
-45.217,166.883,57.6,0.41,Secretary Island Aws
-44.4,171.25,56.1,0.04,Timaru Harbour
-43.95,-176.567,52.9,0.00,Chatham Islands Aws
-43.867,169.0,57.8,0.59,Haast Aws
-43.817,-68.883,51.9,0.00,Paso De Indios
-43.65,146.267,50.0,0.12,Maatsuyker Island Lighthouse
-43.5,147.15,50.5,0.08,Cape Bruny Lighthouse
-43.489,172.532,56.9,0.00,Christchurch Intl
-43.483,172.517,56.8,0.00,Christchurch Aero Aws
-43.211,-65.27,53.2,0.00,Almirante Zar
-43.167,147.833,50.7,0.04,Port Arthur /Palmer
-42.983,145.5,52.2,0.00,Low Rocky Point (Aws)
-42.908,-71.139,43.0,0.00,Esquel
-42.9,147.233,33.9,0.02,Mt Wellington
-42.883,147.333,53.7,0.00,Hobart (Ellerslie Road)
-42.836,147.51,54.0,0.00,Hobart
-42.717,170.983,58.6,0.59,Hokitika Aerodrome Aws
-42.199,145.17,53.6,0.00,Cape Sorell
-42.15,145.283,52.0,0.16,Strahan Aerodrome
-41.943,-71.532,46.1,0.00,El Bolson
-41.733,171.567,59.5,0.56,Westport Aerodrome
-41.717,174.267,58.4,0.47,Cape Campbell Aws
-41.617,147.733,45.3,0.00,Storys Creek Aws
-41.545,147.214,52.2,0.00,Launceston
-41.439,-73.094,47.9,0.00,El Tepual Intl
-41.327,174.805,63.0,0.00,Wellington Intl
-41.3,173.2,62.9,0.67,Nelson Aerodrome Aws
-41.25,-68.733,50.4,0.00,Maquinchao
-41.167,146.417,54.6,0.00,Devonport Airport
-41.151,-71.158,40.5,0.00,San Carlos De Bariloche
-41.05,146.8,55.9,0.00,Low Head (Lgt-H)
-41.0,145.733,51.8,0.00,Wynyard Airport
-41.0,148.35,55.7,0.02,Larapuna (Eddystone Point)
-40.917,144.7,53.7,0.08,Marrawah
-40.905,174.989,64.3,0.00,Paraparaumu
-40.869,-63.0,52.4,0.00,Gobernador Castello
-40.783,-65.1,55.2,0.00,San Antonio Oeste Aero
-40.733,148.117,57.7,0.00,Swan Island Lightho
-40.667,144.683,53.5,0.04,Cape Grim Baps
-40.55,173.0,62.6,0.67,Farewell Spit Aws
-40.35,-9.883,51.7,0.00,Gough Island
-40.317,175.6,62.5,0.00,Palmerston North Aws
-40.1,148.0,57.1,0.28,Flinders Island Airport
-39.933,143.85,55.9,0.04,King Island Currie
-39.65,-73.086,52.4,0.00,Pichoy
-39.467,175.683,56.6,0.00,Waiouru Aws
-39.467,176.867,62.7,0.12,Napier Aerodrome Aws
-39.117,146.417,51.6,0.63,Wilsons Promontory Lighthouse
-39.017,174.183,64.6,0.28,New Plymouth Aws
-38.949,-68.156,50.5,0.00,Presidente Peron
-38.85,143.517,54.9,0.43,Cape Otway Lighthouse
-38.767,-72.637,53.1,0.00,Maquehue
-38.725,-62.169,56.1,0.00,Comandante Espora
-38.663,177.978,62.9,0.02,Gisborne
-38.6,145.583,56.2,0.28,Wonthaggi
-38.45,144.1,56.8,0.02,Aireys Inlet
-38.45,145.3,57.0,0.12,Rhyll (Aws)
-38.4,142.233,57.8,0.08,Port Fairy Aws
-38.387,-60.33,55.0,0.00,Tres Arroyos
-38.35,145.167,57.9,0.04,Cerberus Aws
-38.317,141.467,56.2,0.20,Portland Cashmore Airport
-38.283,142.433,56.0,0.16,Warrnambool Airport
-38.217,146.467,58.2,0.00,Latrobe Valley Airport
-38.167,144.367,57.9,0.08,Geelong Racecourse
-38.15,145.117,58.2,0.00,Frankston Aws
-38.1,144.533,57.9,0.00,Point Wilson
-38.099,147.149,58.0,0.00,East Sale
-38.067,142.767,55.6,0.04,Mortlake Racecourse
-37.976,145.102,57.7,0.00,Melbourne Moorabbin
-37.934,-57.573,55.7,0.00,Mar Del Plata
-37.9,144.117,55.0,0.04,Sheoaks Aws
-37.867,144.75,58.4,0.00,Laverton Raaf
-37.867,148.0,56.8,0.00,Lakes Entrance
-37.817,144.967,59.9,0.00,Melbourne Regional Office
-37.8,149.267,59.1,0.00,Point Hicks (Lighthouse)
-37.75,147.133,54.6,0.00,Mt Moornapa
-37.733,140.783,56.1,0.08,Mount Gambier Aero
-37.683,148.45,56.8,0.00,Orbost (Comparison)
-37.673,144.843,58.2,0.00,Melbourne Intl
-37.672,176.196,65.8,0.24,Tauranga
-37.6,149.733,55.2,0.00,Mallacoota
-37.567,149.9,57.6,0.00,Gabo Island Lighthouse
-37.55,178.3,65.0,0.04,Hicks Bay Aws
-37.517,143.783,52.7,0.00,Ballarat Aerodrome
-37.383,144.967,53.3,0.00,Kilmore Gap
-37.333,149.017,53.6,0.00,Combienbar
-37.283,142.983,55.0,0.04,Ararat Prison
-37.25,150.05,58.6,0.00,Green Cape Aws
-37.237,-59.228,58.1,0.00,Tandil
-37.233,143.2,46.3,0.04,Ben Nevis
-37.217,148.267,48.6,0.00,Gelantipy
-37.15,146.433,39.5,0.00,Mount Buller Aws
-37.017,144.533,57.1,0.00,Redesdale
-37.008,174.792,66.1,0.00,Auckland Intl
-37.0,149.233,45.8,0.00,Bombala Aws
-37.0,174.8,66.2,0.67,Auckland Aero Aws
-36.967,139.717,57.8,0.08,The Limestone
-36.967,147.133,37.8,0.00,Mount Hotham
-36.95,140.733,58.3,0.04,Naracoorte
-36.883,-60.217,64.1,0.00,Olavarria Aero
-36.883,145.183,55.6,0.00,Mangalore Airport
-36.867,147.267,40.1,0.00,Falls Creek Aws
-36.773,-73.063,56.5,0.00,Carriel Sur Intl
-36.733,144.317,55.0,0.00,Bendigo Airport Aws
-36.667,149.817,51.9,0.00,Bega Aws
-36.588,-64.276,61.0,0.00,Santa Rosa
-36.55,145.967,55.9,0.00,Benalla (Shadforth Street)
-36.35,-57.733,60.8,0.00,Dolores Airport
-36.3,148.967,43.1,0.00,Cooma Airport Aws
-36.2,-61.067,61.5,0.00,Bolivar Aero
-36.2,147.883,52.2,0.00,Corryong (Parish Lane)
-36.1,140.35,58.5,0.04,Keith
-36.067,-59.1,62.1,0.00,Las Flores
-36.067,146.95,55.3,0.00,Albury Aeroport
-35.917,150.15,57.1,0.00,Moruya Heads Pilot Station
-35.9,175.1,67.0,0.43,Mokohinau Aws
-35.845,-61.858,64.1,0.00,Comodoro P Zanni
-35.75,136.583,58.6,0.31,Cape Borda
-35.696,-63.758,66.3,0.00,General Pico
-35.667,145.617,52.3,0.00,Frankston (Ballam Park)
-35.55,144.933,56.4,0.00,Deniliquin Post Off
-35.494,-69.574,55.6,0.00,Malargue
-35.433,149.783,47.1,0.00,Braidwood Racecourse Aws
-35.383,143.533,57.1,0.00,Swan Hill Aerodrome
-35.35,150.483,57.2,0.00,Ulladulla Aws
-35.333,136.117,61.1,0.04,Neptune Island
-35.333,140.517,59.1,0.00,Lameroo Comparison
-35.307,149.195,48.8,0.00,Canberra
-35.165,147.466,53.2,0.00,Wagga Wagga
-35.133,173.267,65.8,0.12,Kaitaia Observatory
-35.117,137.733,58.7,0.04,Edithburgh Aws
-35.117,139.267,62.0,0.00,Murray Bridge
-35.083,150.8,59.9,0.00,Jervis Bay
-34.983,137.4,57.6,0.00,Warooka
-34.972,-57.895,68.3,0.00,La Plata
-34.967,-71.217,55.7,0.00,Curico/Gen Freire
-34.967,138.7,49.2,0.00,Mount Lofty
-34.949,150.537,56.4,0.00,Nowra
-34.945,138.531,60.8,0.02,Adelaide Intl
-34.941,117.802,59.1,0.00,Albany Airport
-34.917,138.617,60.6,0.04,Kent Town
-34.914,-54.921,64.4,0.00,El Jaguel Intl
-34.855,-55.094,68.2,0.00,Capitan Corbeta C A Curbelo Intl
-34.85,-56.2,59.0,0.00,Prado
-34.838,-56.031,59.1,0.00,Carrasco Intl
-34.833,20.017,57.8,0.02,Cape Agulhas
-34.822,-58.536,61.7,0.00,Ministro Pistarini
-34.817,149.733,46.9,0.00,Goulburn Airport Aws
-34.793,138.633,59.4,0.02,Adelaide Parafield
-34.789,-56.265,67.9,0.00,Angel S Adami
-34.75,137.517,65.3,0.00,Minlaton Aero
-34.703,138.621,59.4,0.02,Edinburgh
-34.633,148.033,55.2,0.00,Cootamundra Airport
-34.605,135.88,58.9,0.00,Port Lincoln
-34.6,135.883,58.5,0.00,Port Lincoln Aero
-34.588,-68.403,61.4,0.00,San Rafael
-34.583,-58.483,63.7,0.00,Buenos Aires (Obs)
-34.559,-58.416,61.8,0.00,Aeroparque Jorge Newbery
-34.546,-60.931,60.5,0.00,Junin
-34.533,144.867,53.4,0.00,Hay Aws
-34.517,144.85,54.6,0.00,Hay (Miller Street)
-34.483,-54.3,59.5,0.00,Rocha
-34.483,150.4,55.1,0.00,Bowral (Parry Drive)
-34.456,-57.771,64.1,0.00,Laguna De Los Patos Intl
-34.433,172.683,64.0,0.24,Cape Reinga Aws
-34.383,135.367,58.4,0.08,Coles Point
-34.383,137.667,59.0,0.04,Maitland
-34.367,115.133,65.0,0.00,Cape Leeuwin
-34.35,18.5,54.6,0.01,Cape Point
-34.317,146.067,51.5,0.00,Griffith Aws
-34.25,148.25,49.6,0.00,Young Airport
-34.183,139.083,55.5,0.00,Eudunda
-34.167,140.75,56.8,0.00,Renmark
-34.083,-56.233,58.6,0.00,Florida
-34.006,22.379,55.4,0.00,George
-34.0,137.533,66.5,0.00,Warburto Point
-33.985,25.617,59.3,0.00,Port Elizabeth Intl / Chief Dawid Stuurman Intl
-33.965,18.602,54.7,0.08,Cape Town Intl
-33.95,116.133,65.3,0.00,Bridgetown Post Office
-33.946,151.177,60.6,0.00,Sydney Intl
-33.924,150.988,58.1,0.00,Sydney Bankstown
-33.883,119.1,59.5,0.00,Jacup
-33.85,148.65,57.1,0.00,Cowra Airport Comparison
-33.85,151.2,61.3,0.00,Sydney (Observatory Hill)
-33.833,121.893,59.2,0.00,Esperance
-33.817,138.6,52.0,0.00,Clare High School
-33.73,-65.387,65.0,0.00,Villa Reynolds
-33.717,150.283,51.9,0.00,Katoomba (Narrow Neck Rd)
-33.683,117.55,63.6,0.00,Katanning Comparison
-33.683,121.833,59.3,0.00,Esperance Aero
-33.65,134.883,56.5,0.08,Elliston
-33.633,-78.833,60.4,0.28,Juan Fernandez
-33.617,150.267,50.7,0.00,Mount Boyce
-33.417,149.65,51.9,0.00,Bathurst Airport Aws
-33.393,-70.786,58.9,0.00,Arturo Merino Benitez Intl
-33.383,149.117,51.6,0.00,Orange Airport Comparison
-33.359,-56.499,64.8,0.00,Santa Bernardina Intl
-33.283,151.567,65.9,0.00,Norah Head Lighthou
-33.273,-66.356,66.9,0.00,San Luis
-33.267,151.567,63.2,0.00,Norah Head Lighthouse
-33.25,-58.067,59.2,0.00,Mercedes/Ricardo De
-33.217,-54.383,56.3,0.00,Treinta Y Tres
-33.133,135.55,58.4,0.00,Kyancutta
-33.133,148.167,50.0,0.00,Parkes (Macarthur Street)
-33.117,118.467,63.1,0.00,Lake Grace Comparison
-33.085,-64.261,65.9,0.00,Rio Cuarto Area De Material
-33.083,-68.417,60.0,0.00,San Martin
-33.067,147.217,51.5,0.00,Condobolin Airport
-33.059,137.514,55.7,0.00,Whyalla
-33.036,27.826,61.0,0.00,East London / King Phalo
-33.017,137.517,56.9,0.00,Whyalla
-33.01,-58.613,62.2,0.00,Gualeguaychu
-32.917,151.783,65.9,0.00,Newcastle Nobbys Signal Station
-32.904,-60.785,60.7,0.00,Rosario
-32.9,144.283,49.6,0.00,Ivanhoe Post Office
-32.833,17.85,56.2,0.00,Cape Columbine
-32.832,-68.793,62.9,0.00,El Plumerillo
-32.8,-56.517,58.0,0.00,Paso De Los Toros
-32.795,151.834,59.2,0.00,Williamtown
-32.733,150.233,51.8,0.00,Nullo Mountain Aws
-32.684,-62.158,61.6,0.00,Marcos Juarez
-32.683,-57.633,58.7,0.00,Young
-32.567,149.617,56.8,0.00,Mudgee Airport Aws
-32.517,115.717,64.9,0.00,Mandurah
-32.45,123.867,59.1,0.00,Balladonia
-32.433,136.067,60.5,0.04,Mount Ive
-32.365,-58.061,62.6,0.00,Tydeo Larre Borges Intl
-32.338,-54.217,56.9,0.00,Cerro Largo
-32.333,117.867,60.5,0.00,Corrigin
-32.217,148.575,59.7,0.00,Dubbo
-32.2,121.783,62.8,0.00,Norseman
-32.133,133.7,56.5,0.00,Ceduna Amo
-32.1,115.883,62.0,0.00,Jandakot Aero
-32.033,150.833,58.4,0.00,Scone Airport
-32.017,115.5,68.5,0.00,Rottnest Island
-32.0,141.467,56.1,0.00,Broken Hill Airport Aws
-31.95,115.767,66.1,0.00,Swanbourne
-31.95,116.05,67.8,0.00,Goosebery Hill
-31.94,115.967,66.5,0.00,Perth Intl
-31.917,115.867,64.2,0.00,Perth Metro
-31.795,-60.48,62.8,0.00,General Urquiza
-31.768,150.842,59.7,0.00,Murrurundi (Haydon Street)
-31.749,-55.926,59.7,0.00,Tacuarembo
-31.712,-60.812,63.3,0.00,Sauce Viejo
-31.68,128.879,60.3,0.00,Eucla
-31.667,-63.883,63.5,0.00,Pilar Observatorio
-31.571,-68.418,61.4,0.00,San Juan
-31.567,143.367,64.2,0.00,Wilcannia (Reid St)
-31.55,147.183,60.3,0.00,Nyngan Airport
-31.542,159.079,66.5,0.02,Lord Howe Island Aero
-31.533,145.8,53.3,0.00,Cobar Airport Aws
-31.5,19.726,49.5,0.00,Calvinia
-31.483,145.833,57.2,0.00,Cobar Mo
-31.45,130.9,56.8,0.00,Nullarbor
-31.433,-57.983,60.3,0.00,Nueva Hesperides Intl
-31.324,-64.208,65.7,0.00,Ambrosio L V Taravella
-31.297,-57.997,62.9,0.00,Comodoro Pierrestegui
-31.267,149.267,55.5,0.00,Coonabarabran (Namoi Street)
-31.233,119.333,64.4,0.00,Southern Cross
-31.144,136.817,61.4,0.00,Woomera
-31.083,125.65,60.2,0.00,Balgair
-31.067,150.833,64.6,0.00,Tamworth Airport Aws
-31.017,115.317,68.6,0.00,Lancelin
-30.975,-55.476,62.0,0.00,Presidente General Don Oscar D Gestido
-30.917,153.083,67.6,0.00,Smoky Cape Lighthouse
-30.9,116.717,66.1,0.00,Wongan Hills
-30.85,143.083,59.0,0.00,White Cliffs
-30.833,128.117,60.4,0.00,Forrest
-30.789,121.462,60.2,0.00,Kalgoorlie Boulder
-30.667,24.017,54.4,0.00,Deaar(Ua)
-30.617,130.4,63.9,0.00,Cook
-30.533,151.667,61.4,0.00,Armidale (Tree Group Nursery)
-30.401,-56.508,55.9,0.00,Artigas Intl
-30.367,-66.283,72.3,0.00,Chamical Aero
-30.345,-66.294,64.0,0.00,Chamical
-30.321,153.116,66.3,0.16,Coffs Harbour
-30.3,115.033,71.1,0.00,Jurien Bay
-30.283,116.667,63.8,0.00,Dalwallinu Comparison
-30.272,-57.64,63.1,0.00,Monte Caseros
-30.267,-57.583,59.5,0.00,Bella Union
-29.994,-51.171,60.2,0.00,Salgado Filho
-29.97,30.951,69.0,0.00,Durban Intl
-29.916,-71.2,57.0,0.00,La Florida
-29.883,-61.95,67.5,0.00,Ceres
-29.782,-57.038,70.8,0.00,Rubem Berta
-29.771,-57.979,64.8,0.00,Curuzu Cuatia
-29.733,151.733,61.1,0.00,Glen Innes Post Office
-29.689,-57.152,61.9,0.00,Paso De Los Libres
-29.689,17.94,50.8,0.00,Springbok
-29.65,138.067,60.4,0.00,Marree Comparison
-29.433,142.0,61.3,0.00,Tibooburra Post Office
-29.433,153.367,65.3,0.59,Yamba Pilot Station
-29.382,-66.796,68.7,0.00,La Rioja
-29.267,117.683,64.4,0.00,Paynes Find
-29.25,-177.933,68.4,0.24,Raoul Island Aws
-29.183,-59.7,64.2,0.00,Reconquista Aero
-29.093,26.302,53.1,0.00,Bloemfontein Intl / Bram Fischer Intl
-29.042,167.939,67.9,0.43,Norfolk Island Intl
-28.883,121.333,61.4,0.00,Leonora
-28.803,24.765,54.8,0.00,Kimberley
-28.796,114.708,71.5,0.00,Geraldton
-28.705,121.891,55.8,0.00,Murrin Murrin
-28.667,151.933,62.7,0.00,Stanthorpe Leslie Parade
-28.617,122.417,60.8,0.00,Laverton Aero
-28.596,-65.752,73.0,0.00,Catamarca
-28.517,150.317,69.0,0.00,Goondiwindi Airport
-28.5,32.4,70.8,0.00,Cape St. Lucia
-28.399,21.26,57.5,0.00,Upington
-28.3,113.6,75.2,0.00,North Island
-28.248,28.336,50.4,0.00,Bethlehem
-28.164,153.505,69.0,0.71,Gold Coast
-28.1,140.2,62.2,0.00,Moomba (Private)
-28.067,145.683,67.0,0.00,Cunnamulla Post Office
-28.05,117.833,65.6,0.00,Mount Magnet
-28.033,148.583,66.4,0.00,Saint George
-28.0,143.817,69.8,0.00,Thargomindah Post O
-27.933,153.433,69.7,1.06,Gold Coast Seaway
-27.766,-64.31,71.1,0.00,Santiago Del Estero
-27.717,114.167,75.8,0.00,Kalbarri
-27.67,-48.547,63.3,0.00,Hercilio Luz
-27.617,-144.333,69.1,0.28,Rapa
-27.583,151.933,63.6,0.00,Toowoomba
-27.57,153.008,70.4,0.35,Brisbane Archerfield
-27.45,-59.056,63.4,0.00,Resistencia
-27.446,-58.762,69.8,0.00,Corrientes
-27.417,153.067,70.8,0.12,Brisbane Airport
-27.411,151.735,67.8,0.00,Oakey
-27.386,-55.971,65.4,0.00,Posadas
-27.317,-55.833,60.6,0.00,Encarnacion
-27.3,133.617,64.0,0.00,Marla Police Station
-27.165,-109.422,76.1,0.00,Mataveri Intl
-27.15,151.267,66.3,0.00,Dalby Airport
-27.033,153.467,71.3,0.43,Cape Moreton Lighthouse Aws
-26.841,-65.105,66.5,0.00,Teniente Benjamin Matienzo
-26.757,-60.493,67.9,0.00,Presidencia Roque Saenz Pena / Termal
-26.683,15.25,55.2,0.00,Luderitz (Diaz Point)
-26.667,-57.15,68.9,0.00,San Juan Bautista
-26.617,144.25,67.5,0.00,Quilpie Airport
-26.614,118.537,65.1,0.00,Meekatharra Airport
-26.6,153.1,70.3,0.67,Sunshine Coast Airport
-26.567,151.833,68.5,0.00,Kingaroy Airport
-26.55,148.783,71.1,0.00,Roma Airport
-26.54,18.111,68.9,0.00,Keetmanshoop
-26.413,146.263,70.2,0.00,Charleville
-26.333,-70.607,62.3,0.00,Chanaral
-26.3,32.18,77.1,0.04,Changalane_Auto
-26.213,-58.228,67.7,0.00,Formosa
-26.139,28.246,62.9,0.00,Johannesburg Intl
-26.05,22.45,64.6,0.00,Tsabong
-25.921,32.573,74.8,0.16,Maputo
-25.917,113.517,75.7,0.00,Denham
-25.911,28.21,61.1,0.00,Pretoria/Irene
-25.9,139.35,67.9,0.00,Birdsville Police S
-25.9,153.083,73.3,0.00,Rainbow Beach
-25.89,28.171,64.8,0.00,Pretoria(Met)
-25.85,133.3,61.1,0.00,Kulgera
-25.767,-56.433,69.3,0.00,Villarrica
-25.737,-54.473,64.4,0.00,Cataratas Del Iguazu
-25.633,151.617,70.4,0.00,Gayndah Post Office
-25.596,-54.487,64.5,0.00,Cataratas Intl
-25.528,-49.176,60.2,0.00,Afonso Pena
-25.517,152.717,70.5,0.00,Maryborough
-25.417,142.65,72.1,0.00,Windorah Post Office
-25.24,-57.519,68.9,0.00,Silvio Pettirossi Intl
-25.2,130.983,68.3,0.00,Yulara Aero
-25.05,33.633,77.8,0.16,Xai Xai
-25.038,46.956,80.1,0.00,Tolagnaro
-25.033,128.3,71.4,0.00,Giles Meteorological Office
-24.9,151.1,65.5,0.00,Monto Airport
-24.9,152.317,72.2,0.00,Bundaberg Aero
-24.888,113.67,76.5,0.00,Carnarvon Airport
-24.856,-65.486,55.9,0.00,Salta
-24.721,-60.549,68.8,0.00,Alferez Armando Rodriguez
-24.667,25.917,73.0,0.00,Gaborone
-24.602,24.691,76.0,0.00,Jwaneng
-24.555,25.918,74.4,0.00,Sir Seretse Khama Intl
-24.483,150.567,72.1,0.00,Thangool Airport
-24.417,145.467,76.2,0.00,Blackall
-24.393,-65.098,61.4,0.00,Jujuy
-24.15,151.883,72.8,0.00,Seventeen Seventy
-24.117,152.717,76.6,0.00,Lady Elliot Island
-24.033,-54.35,63.9,0.00,Saltos Del Guaira
-24.017,21.883,74.5,0.00,Tshane
-23.925,-46.288,71.1,0.00,Base Aerea De Santos
-23.867,29.45,69.3,0.26,Polokwane
-23.867,151.217,74.1,0.00,Gladstone Airport
-23.85,151.267,74.5,0.16,Gladstone Radar
-23.807,133.902,63.2,0.00,Alice Springs
-23.627,-46.655,63.7,0.00,Congonhas Deputado Freitas Nobre
-23.567,148.183,75.6,0.00,Emerald Airport
-23.45,151.917,76.7,0.00,Heron Island Res Stn
-23.444,-70.445,61.8,0.00,Cerro Moreno Intl / Andres Sabella Intl
-23.442,-57.427,71.6,0.00,Teniente Col Carmelo Peralta
-23.433,-46.467,68.9,0.00,Guarulhos
-23.433,144.283,76.0,0.00,Longreach Aero
-23.383,43.728,78.1,0.00,Toliara
-23.382,150.475,73.5,0.00,Rockhampton
-23.365,-149.524,73.7,0.12,Tubuai Mataura
-23.35,119.717,70.0,0.00,Newman
-23.334,-51.13,69.3,0.00,Londrina / Governador Jose Richa
-23.25,155.533,75.9,0.00,Cato Island
-23.229,-45.862,69.2,0.00,Professor Urbano Ernesto Stumpf
-23.2,131.917,77.0,0.00,Papunya
-23.133,-134.967,79.7,0.00,Mangareva
-23.133,150.75,73.8,0.00,Yeppoon The Esplanade
-23.083,26.8,79.9,0.00,Mahalapye
-23.033,115.033,79.2,0.55,Emu Creek Station
-23.007,-47.135,70.7,0.00,Viracopos
-22.983,14.65,61.5,0.00,Rooikop (Saaf/Civ)
-22.95,136.15,66.5,0.00,Jervois
-22.932,-43.719,74.8,0.00,Santa Cruz / Campo Nero Moura
-22.917,139.9,69.1,0.00,Boulia Airport
-22.91,-43.163,77.4,0.00,Santos Dumont
-22.883,14.433,57.7,0.00,Walvis Bay (Pelican Point)
-22.875,-43.385,79.3,0.00,Campo Delio Jardim De Mattos
-22.817,147.633,74.3,0.00,Clermont Post Office
-22.809,-43.244,75.9,0.00,Galeao Antonio Carlos Jobim
-22.805,47.821,77.5,0.00,Farafangana
-22.792,-45.205,75.4,0.00,Guaratingueta / Campo Edu Chaves
-22.62,-63.794,67.8,0.00,General Enrique Mosconi Tartagal
-22.567,17.1,61.0,0.00,Windhoek/Eros(Saaf)
-22.55,-61.55,78.4,0.00,Pelayo Prat Gill
-22.55,45.4,76.2,0.00,Ranohira
-22.48,17.471,72.5,0.26,Hosea Kutako Intl
-22.383,143.033,77.4,0.00,Winton Post Office
-22.35,149.533,74.5,0.00,St Lawrence Post Office
-22.345,-49.054,67.0,0.00,Bauru
-22.333,-41.767,76.0,0.00,Macae
-22.333,40.333,81.3,0.00,Ile Europa
-22.333,171.333,78.4,0.49,Matthew (Ilot)
-22.267,166.45,75.9,0.00,Noumea
-22.25,118.333,75.2,0.00,Wittenoom
-22.25,131.8,76.5,0.00,Yuendumu
-22.236,114.089,77.9,0.00,Learmonth
-22.217,30.0,83.1,0.00,Beitbridge
-22.175,-51.425,66.8,0.00,Presidente Prudente
-22.151,-65.578,46.7,0.00,La Quiaca / Dr Guillermo Eugenio Snopek
-22.045,-60.622,77.6,0.00,Dr Luis Maria Argana Intl
-22.018,35.313,82.6,0.00,Vilankulo
-22.015,166.213,75.9,0.04,Noumea La Tontouta
-21.985,-47.335,71.8,0.00,Campo Fontenelle
-21.967,152.467,76.9,0.00,Gannet Cay
-21.961,-63.652,73.2,0.00,Yacuiba
-21.917,-157.95,74.4,0.00,Mangaia Island
-21.817,-138.8,81.1,0.00,Muroroa Atoll (Mil)
-21.754,43.376,80.9,0.00,Morombe
-21.7,21.65,79.7,0.00,Ghanzi
-21.633,115.117,78.1,0.00,Onslow
-21.6,138.3,71.3,0.00,Urandangi
-21.556,-64.701,68.1,0.00,Capitan Av Oriel Lea Plaza Intl
-21.45,115.017,80.7,0.00,Thevenard Island
-21.442,47.112,68.4,0.00,Fianarantsoa
-21.417,25.6,82.2,0.00,Letlhakane
-21.255,-63.406,80.0,0.00,Tcnl Rafael Pabon
-21.241,-175.15,76.6,0.00,Fua Amotu Intl
-21.203,-159.806,74.9,0.00,Rarotonga Intl
-21.202,48.358,79.4,0.01,Mananjary
-21.183,115.967,84.5,0.00,Mardie
-21.159,27.468,84.7,0.00,P.G. Matante International Airport
-21.133,-47.767,67.5,0.00,Leite Lopes
-21.117,149.217,74.6,0.00,Mackay Mo
-21.05,29.367,87.2,0.00,West Nicholson
-21.008,31.579,82.5,0.00,Buffalo Range
-21.0,134.4,73.6,0.00,Ali Curung
-20.933,154.4,77.9,0.00,Frederick Reef
-20.933,165.317,79.4,0.28,Poindimie (Nlle-Caledonie)
-20.917,28.45,81.9,0.00,Kezi
-20.887,55.51,77.2,0.00,St Denis Gillot / La Reunion Roland Garros
-20.817,115.383,80.8,0.00,Barrow Il (Private)
-20.817,144.233,81.4,0.00,Hughenden Airport
-20.783,117.15,83.4,0.00,Roebourne
-20.775,167.24,79.7,0.00,Lifou Ouanaham
-20.733,143.133,77.3,0.00,Richmond Post Office
-20.717,116.767,81.3,0.00,Karratha Aero
-20.667,-178.717,79.0,0.00,Ono-I-Lau Aws
-20.667,141.733,78.2,0.00,Julia Creek
-20.664,139.489,75.2,0.00,Mount Isa
-20.553,26.116,85.8,0.00,Sua Pan
-20.55,147.833,71.8,0.00,Collinsville Post Office
-20.546,164.256,79.2,0.00,Koumac
-20.535,-70.181,62.2,0.00,Diego Aracena Intl
-20.533,150.383,78.0,0.00,Creal Reef
-20.469,-54.673,79.2,0.00,Campo Grande
-20.43,57.684,76.6,0.02,Sir Seewoosagur Ramgoolam Intl
-20.378,118.626,82.1,0.00,Port Hedland Intl
-20.367,116.85,81.7,0.00,Legendre Island
-20.35,148.95,79.0,0.00,Hamilton Island Airport
-20.317,30.067,86.9,0.00,Zvishavane
-20.3,57.467,73.7,0.00,Vacoas (Mauritius)
-20.285,44.318,79.0,0.00,Morondava
-20.258,-40.286,75.9,1.42,Goiabeiras / Eurico De Aguiar Salles Intl
-20.233,169.767,79.3,0.04,Aneityum
-20.2,32.617,78.6,0.00,Chipinge
-20.133,-157.35,75.9,0.00,Mauke Island
-20.133,127.983,81.5,0.00,Balgo Hills Asa
-20.055,30.859,75.7,0.00,Masvingo Intl
-20.05,-63.567,75.8,0.00,Camiri
-20.033,146.267,73.0,0.00,Charters Towers Airport
-20.021,28.627,79.3,0.00,J M Nkomo Intl / Bulawayo
-20.02,148.21,78.2,0.00,Bowen Airport Aws
-19.973,23.431,88.3,0.00,Maun
-19.967,158.483,78.1,0.00,Ile Loop (Chesterfield)
-19.917,138.117,76.5,0.00,Camooweal Township
-19.9,-144.949,80.3,0.05,Hereheretue
-19.851,-43.951,72.7,0.31,Pampulha Carlos Drummond De Andrade
-19.833,48.8,77.6,0.31,Mahanoro
-19.817,47.067,66.1,0.00,Antsirabe
-19.796,34.908,84.0,0.00,Beira
-19.777,-174.341,78.7,0.00,Haapai
-19.765,-47.965,75.9,0.00,Uberaba / Mario De Almeida Franco
-19.758,63.361,78.3,0.08,Plaine Corail
-19.634,-43.969,71.4,0.04,Tancredo Neves Intl
-19.633,134.183,74.7,0.00,Tennant Creek Airport
-19.602,18.123,77.9,0.00,Grootfontein
-19.583,119.1,82.9,0.00,Bedout Island
-19.543,-65.724,56.1,0.00,Capitan Nicolas Rojas
-19.533,-59.367,77.8,0.00,Adrian Jara
-19.455,169.224,79.0,0.04,Tanna
-19.436,29.862,76.3,0.00,Gweru Thornhill
-19.253,146.765,77.4,0.00,Townsville
-19.151,33.429,82.3,0.00,Chimoio
-19.133,179.75,80.5,0.00,Matuku Aws
-19.083,152.383,78.6,0.00,Marion Reef
-19.067,-169.917,74.2,0.00,Alofi
-19.05,178.167,79.9,0.00,Vunisea
-19.007,-65.289,63.3,0.00,Juana Azurduy De Padilla
-18.975,-57.821,80.6,0.00,Tte De Av Salvador Ogaya G
-18.933,29.833,83.9,0.00,Kwekwe
-18.831,-159.764,77.0,0.00,Aitutaki
-18.797,47.479,66.7,0.00,Ivato
-18.65,135.95,72.7,0.00,Brunette Downs
-18.63,27.021,78.3,0.00,Hwange National Park
-18.583,-173.967,78.9,0.24,Lupepau'U
-18.533,32.133,71.9,0.00,Rusape
-18.517,146.383,79.5,0.00,Lucinda Point Aws
-18.483,163.083,81.3,0.00,Ile Surprise
-18.467,-64.1,66.0,0.00,Vallegrande
-18.367,21.85,86.0,0.00,Shakawe
-18.349,-70.339,64.8,0.00,Chacalluta
-18.317,-59.75,80.7,0.00,Robore (Civ/Mil)
-18.317,29.883,82.8,0.00,Kadoma
-18.3,143.55,77.4,0.00,Georgetown Post Office
-18.3,146.033,74.0,0.00,Cardwell Stoney Creek
-18.233,-178.8,80.4,0.00,Lakemba Island
-18.233,127.667,83.2,0.00,Halls Creek Airport
-18.217,28.933,77.5,0.00,Gokwe
-18.11,49.393,77.6,0.08,Toamasina
-18.096,25.839,82.5,0.00,Victoria Falls Intl
-18.075,-140.946,84.2,0.00,Hao
-18.067,-163.183,79.0,0.00,Palmerston *
-18.053,-70.276,63.1,0.00,Coronel Carlos Ciriani Santa Rosa Intl
-18.05,44.033,81.5,0.00,Maintirano
-18.043,178.559,79.5,0.16,Nausori Intl
-17.963,-67.076,52.5,0.00,Juan Mendoza
-17.956,19.719,76.6,0.00,Rundu
-17.945,122.232,83.5,0.00,Broome Intl
-17.93,31.094,75.2,0.00,Robert Gabriel Mugabe Intl / Harare
-17.833,-60.75,87.4,0.00,San Jose
-17.833,25.162,86.7,0.00,Kasane
-17.812,-63.171,77.6,0.00,El Trompillo
-17.8,25.817,81.3,0.00,Harry Mwaanga Nkumbula Intl
-17.755,177.443,79.2,14.37,Nadi Intl
-17.75,139.55,76.2,0.00,Burketown Post Office
-17.699,168.32,78.9,0.35,Port Vila Bauerfield
-17.667,141.083,81.7,0.00,Normanton
-17.652,-39.253,79.8,0.24,Caravelas
-17.645,-63.135,73.2,0.00,Viru Viru Intl
-17.617,27.333,90.6,0.00,Binga
-17.583,123.817,80.6,0.00,Curtin Aero
-17.554,-149.607,79.3,0.83,Tahiti Faa A
-17.533,118.95,85.3,0.00,Rowley Shoals
-17.517,146.033,72.4,0.00,Innisfail
-17.432,32.185,75.7,0.00,Mutoko
-17.421,-66.177,63.6,0.00,Jorge Wilstermann Intl
-17.383,131.117,74.0,0.00,Wave Hill
-17.233,-178.95,79.6,0.02,Vanua Balavu Aws
-17.2,137.933,79.5,0.00,Wollogorang
-17.15,176.9,82.5,0.00,Viwa Aws
-17.067,145.417,70.6,0.00,Mareeba Airport
-17.05,42.717,83.0,0.00,Ile Juan De Nova
-17.017,128.217,78.4,0.00,Warmun
-17.0,178.7,80.7,0.01,Nabouwalu
-16.95,46.833,86.4,0.00,Maevatanana
-16.886,145.755,76.3,0.00,Cairns Intl
-16.833,27.067,78.9,0.00,Choma
-16.833,29.617,75.9,0.00,Karoi
-16.783,31.583,78.9,0.00,Mount Darwin
-16.767,145.967,78.6,0.00,Green Island
-16.7,177.583,81.3,0.00,Yasawa
-16.667,139.167,76.2,0.00,Mornington Island
-16.633,128.45,82.7,0.00,Argyle Aerodrome
-16.632,-49.221,78.9,0.20,Santa Genoveva
-16.52,28.885,84.7,0.00,Kariba Intl
-16.513,-68.192,44.9,0.00,El Alto Intl
-16.467,147.867,79.5,0.00,Holmes Reef
-16.45,59.617,81.1,0.08,St. Brandon (St. Raphael)
-16.45,123.0,82.2,0.00,Cygnet Bay
-16.444,-151.751,77.8,1.69,Bora Bora Motu Mute
-16.417,167.8,81.7,0.43,Lamap/Malekoula Isl
-16.401,-61.045,80.9,0.00,San Ignacio De Velasco Airport
-16.4,131.017,78.7,0.00,Victoria River Downs
-16.383,145.567,80.4,0.00,Low Isles Lighthouse
-16.341,-71.583,59.3,0.00,Rodriguez Ballon
-16.333,-58.383,85.9,0.00,San Matias
-16.288,149.965,79.5,0.00,Willis Island
-16.267,-62.467,78.5,0.00,San Javier
-16.25,-62.1,77.8,0.00,Concepcion
-16.229,-48.964,67.0,0.00,Base Aerea / Campo Marechal Marcio De Souza E Mello
-16.133,-179.983,77.5,2.09,Udu Point Aws
-15.933,-5.667,68.7,0.20,St. Helena Is.
-15.883,54.517,81.7,0.04,Serge-Frolow (Ile Tromelin)
-15.863,-47.913,71.7,0.04,Presidente Juscelino Kubitschek
-15.861,-52.389,82.8,0.00,Barra Do Garcas
-15.778,128.708,80.5,0.00,Kununurra
-15.767,27.917,79.0,0.00,Kafue Polder
-15.75,136.8,81.6,0.00,Centre Island
-15.717,-63.1,81.2,0.00,Ascencion Guarayos
-15.679,34.974,80.1,0.00,Chileka Intl
-15.667,46.352,81.6,0.00,Philibert Tsiranana
-15.653,-56.117,84.5,0.00,Marechal Rondon
-15.567,-175.617,79.4,0.12,Niuafoou
-15.517,123.15,81.6,0.00,Adele Island
-15.501,167.223,80.8,0.00,Santo Pekoa Intl
-15.5,147.117,80.2,0.00,Bougainville Reef
-15.483,128.117,85.1,0.00,Wyndham
-15.467,-70.158,51.4,0.00,Juliaca / Inca Manco Capac Intl
-15.433,145.183,77.7,0.00,Cooktown Mission
-15.414,28.331,84.4,0.00,Lusaka City
-15.383,-75.167,67.4,0.00,San Juan De Marcona
-15.333,28.45,76.2,0.00,Lusaka Intl
-15.255,23.162,78.3,0.00,Mongu
-14.999,50.32,75.3,2.83,Antsirabato
-14.967,-65.633,82.5,0.00,San Ignacio De Moxo
-14.867,-66.75,81.8,0.00,San Borja/Capt Germ
-14.819,-64.918,81.4,0.00,Tte Av Jorge Henrich Arauz
-14.817,36.533,79.8,0.00,Cuamba
-14.816,-39.033,80.9,0.28,Ilheus / Jorge Amado
-14.8,24.8,73.9,0.00,Kaoma
-14.733,-68.417,77.3,0.00,Apolo
-14.521,132.378,78.3,0.00,Tindal
-14.483,-145.033,85.8,0.04,Takaroa
-14.483,-67.483,81.6,0.00,Rurrenabaque
-14.467,132.267,80.2,0.00,Katherine Country Club
-14.45,28.467,78.0,0.00,Kabwe/Milliken
-14.333,-170.833,87.9,0.00,Cape Taputapu Aws  American Samoa *
-14.331,-170.714,82.4,0.28,Tafuna/Pago Pago International Ap
-14.317,-178.117,77.7,2.09,Maopoopo / Futuna Pointe Vele
-14.317,-170.567,80.3,0.00,Cape Matatula Aws  American Samoa *
-14.3,-67.367,81.9,0.00,Reyes
-14.25,31.283,81.2,0.00,Petauke
-14.183,-169.5,80.8,0.00,Ta'U Aws  American Samoa *
-14.117,123.533,86.1,0.00,Browse Island Aws
-14.05,-171.45,80.7,0.00,Cape Tapaga
-13.85,136.417,80.3,0.00,Alyangula Police
-13.85,167.55,80.4,0.00,Sola/Vanua Lava Isl
-13.817,-171.983,74.6,0.00,Faleolo Arpt
-13.8,-171.783,78.8,1.46,Apia/Upolu Island
-13.789,33.781,73.5,0.00,Lilongwe Intl
-13.762,-65.435,83.4,0.00,Santa Ana Del Yacuma
-13.75,126.15,84.8,0.00,Troughton Island
-13.75,143.117,79.3,0.00,Coen Airport
-13.733,130.683,76.8,0.00,Mango Farm
-13.706,-73.35,50.8,0.00,Andahuaylas
-13.65,136.933,83.9,0.00,North East Island
-13.633,29.433,74.7,0.00,Mkushi
-13.6,-172.217,78.9,0.00,Avavo
-13.55,32.583,79.8,0.00,Chipata
-13.536,-71.939,55.0,0.00,Teniente Alejandro Velasco Astete Intl
-13.533,23.117,75.5,0.00,Zambezi
-13.533,25.85,69.3,0.00,Kasempa
-13.483,-172.767,80.9,0.00,Avata
-13.333,-64.15,84.2,0.00,Magdalena
-13.312,48.315,83.1,0.00,Fascene
-13.3,-64.7,85.1,0.00,San Ramon
-13.238,-176.199,79.8,1.85,Wallis Hihifo
-13.155,-74.204,65.3,0.00,Coronel Fap Alfredo Mendivil Duarte
-13.133,39.033,79.4,0.00,Montepuez
-13.067,-64.667,82.2,0.00,San Joaquin
-13.05,131.017,77.0,0.00,Batchelor Aero
-13.017,33.467,72.3,0.00,Kasungu
-12.987,40.522,77.8,0.00,Pemba
-12.983,28.65,70.3,0.00,Ndola Simon Mwansa Kawepewe Intl
-12.911,-38.331,86.4,0.00,Deputado Luis Eduardo Magalhaes
-12.805,45.281,82.3,0.00,Dzaoudzi Pamandzi
-12.783,143.3,75.6,0.00,Lockhart River Airport
-12.694,-60.098,74.4,0.00,Vilhena
-12.683,141.917,78.3,0.00,Weipa Aero
-12.667,132.9,82.7,0.00,Jabiru Airport
-12.617,131.05,84.1,0.00,Noonamah Airstrip
-12.614,-69.229,75.8,0.00,Padre Aldamiz
-12.5,177.05,81.9,0.16,Rotuma Island
-12.415,130.877,82.2,0.00,Darwin Intl
-12.349,49.292,78.9,0.02,Arrachart
-12.283,33.2,77.0,0.00,Lundazi
-12.283,136.817,80.8,0.00,Gove Airport
-12.233,131.033,79.2,0.00,Gunpoint
-12.233,131.883,79.9,0.00,Point Stuart
-12.188,96.834,81.7,0.00,Cocos Keeling Islands
-12.167,26.367,72.2,0.00,Solwezi
-12.117,134.9,80.4,0.00,Milingimbi Aws
-12.05,134.217,81.9,0.00,Maningrida
-12.022,-77.114,65.7,0.00,Jorge Chavez Intl
-11.783,130.017,79.6,0.00,Cape Fourcroy
-11.583,47.283,83.7,0.00,Iles Glorieuses
-11.445,34.012,72.7,0.00,Mzuzu
-11.4,130.417,80.1,0.00,Pirlangimpi
-11.317,131.767,82.6,0.00,Cape Don Aws
-11.15,132.133,82.4,0.00,Black Point (Port Essington)
-11.05,132.983,84.5,0.00,Mccluer Island Aws
-11.04,-68.783,81.9,0.00,Heroes Del Acre / Cap Av Civ Anibal Arab Fadul Intl
-11.017,-66.117,83.0,0.00,Riberalta / Cap Av Selin Zeitun Lopez
-11.017,136.75,83.6,0.00,Cape Wessel Aws
-10.984,-37.07,83.8,0.24,Santa Maria
-10.951,142.459,71.0,0.00,Bamaga Injinoo
-10.915,-165.839,84.0,0.00,Pukapuka Arpt
-10.817,-65.35,83.9,0.00,Guayaramerin
-10.733,123.067,81.1,0.00,Rote/Baa/Lekunik
-10.719,-48.4,80.9,0.20,Porto Nacional
-10.7,165.8,81.5,0.00,Santa Cruz Island
-10.683,35.583,77.6,0.00,Songea
-10.451,105.69,80.1,0.08,Christmas Island
-10.433,56.6,84.2,0.08,Agalega
-10.417,161.917,77.7,0.08,Kira Kira
-10.217,31.133,74.3,0.00,Kasama
-10.172,123.671,82.1,0.00,El Tari
-10.117,32.633,74.3,0.00,Isoka
-10.1,31.25,73.7,0.00,Misamfu
-10.05,-161.1,83.7,0.04,Rakahanga Atoll
-10.05,143.067,82.0,0.00,Coconut Island
-9.879,-76.205,70.5,0.00,Alferez Fap D F Fernandini
-9.869,-67.894,79.6,0.00,Presidente Medici / Placido De Castro Intl
-9.866,-56.106,80.5,0.00,Alta Floresta / Piloto Osvaldo Marques Dias
-9.8,-139.033,82.2,0.00,Hiva-Oa
-9.669,120.302,78.8,0.00,Mau Hau
-9.511,-35.792,81.5,0.00,Zumbi Dos Palmares
-9.428,160.055,80.0,0.00,Honiara Intl
-9.417,159.967,81.8,0.00,Honiara
-9.362,-40.569,83.4,0.00,Senador Nilo Coelho
-9.347,-77.598,64.4,0.00,Comandante Fap German Arias Graziani
-9.2,-171.917,88.1,0.04,Nukunono
-9.15,-78.524,67.2,0.00,Teniente Jaime A De Montreuil Morales
-9.133,-75.95,79.5,0.00,Tingo Maria
-9.017,-158.067,83.2,0.16,Penrhyn Island
-8.933,33.467,63.1,0.00,Mbeya
-8.85,31.333,73.0,0.20,Mbala
-8.783,160.733,81.6,0.08,Auki
-8.75,116.267,80.0,0.00,Mataram-Lombok Intl Airport / Zainuddin Abdul Madjid
-8.749,115.167,82.9,0.00,Denpasar Ngurah Rai
-8.641,122.237,84.1,0.00,Wai Oti
-8.55,126.567,81.7,0.00,Dilli/Comoro
-8.547,125.525,83.9,0.00,Presidente Nicolau Lobato Intl
-8.54,118.687,85.0,0.00,Muhammad Salahuddin
-8.52,140.418,82.7,0.08,Mopah
-8.517,179.217,86.3,0.04,Funafuti Intl Arpt
-8.517,179.233,84.7,0.00,Funafuti
-8.489,117.412,82.2,0.00,Sumbawa Besar
-8.378,-74.574,81.6,0.00,Cap Fap David Abensur Rengifo Intl
-8.328,157.263,81.8,0.00,Munda
-8.267,122.967,84.8,0.00,Larantuka/Gewayenta
-8.217,114.383,82.2,0.00,Banyuwangi
-8.217,124.567,81.4,0.00,Alor/Mali/Kalabahi
-8.126,-34.924,84.8,0.00,Guararapes Gilberto Freyre Intl
-8.081,-79.109,66.6,0.00,Capitan Fap Carlos Martinez De Pinillos
-7.983,131.3,83.9,0.00,Saumlaki
-7.97,-14.394,81.0,0.08,Ascension Aux Af
-7.926,112.714,76.3,0.00,Abdul Rachman Saleh
-7.733,109.017,83.8,0.00,Cilacap
-7.38,112.787,84.3,0.00,Surabaya Juanda
-7.346,108.247,81.1,0.00,Cibeureum
-7.3,72.4,83.1,0.04,Diego Garcia Naval Air Station
-7.267,-35.883,79.7,0.00,Campinagrande
-7.217,112.717,84.4,0.00,Surabaya/Perak
-7.217,113.717,86.9,0.00,Surabaya/Gedangan
-7.169,-76.729,83.3,0.00,Juanjui
-7.139,-78.489,60.4,0.00,Gen Fap Armando Revoredo Iglesias
-7.1,-34.867,77.2,0.00,Joao Pessoa
-7.05,113.967,83.3,0.00,Kalianget (Madura Is)
-6.983,110.383,84.2,0.00,Jenderal Ahmad Yani
-6.967,110.417,86.1,0.00,Semarang
-6.883,107.6,76.0,0.28,Bandung
-6.878,39.203,79.3,0.00,Mwalimu Julius K Nyerere Intl
-6.85,109.15,82.3,0.16,Tegal
-6.833,37.65,78.6,0.00,Morogoro (Met)
-6.787,-79.828,68.6,0.00,Cap Fap Jose A Quinones Gonzales Intl
-6.75,108.267,83.5,0.00,Cirebon/Jatiwangi
-6.7,106.933,72.2,0.00,Bogor/Citeko
-6.7,156.383,83.8,0.00,Taro Island
-6.509,-76.373,86.0,0.00,Cadete Guillermo Del Castillo Paredes
-6.3,106.567,83.8,0.00,Tangerang/Budiarto Arpt
-6.267,106.891,84.3,0.00,Halim Perdanakusuma Intl
-6.222,39.225,79.6,0.00,Zanzibar / Abeid Amani Karume Intl
-6.202,-77.856,61.1,0.00,Chachapoyas
-6.183,106.833,85.1,0.00,Jakarta/Observatory
-6.126,106.656,81.0,0.00,Soekarno Hatta Intl
-6.117,106.133,81.3,0.00,Serang
-6.1,140.3,84.1,0.00,Tanah Merah
-6.068,-77.16,78.9,0.00,Juan Simons Vela / Rioja
-5.911,-35.248,82.1,0.00,Campo Augusto Severo
-5.894,-76.118,84.7,0.00,Moises Benzaquen Rengifo / Yurimaguas
-5.85,112.633,84.9,0.00,Sangkapura (Bawean Is.)
-5.683,132.75,83.1,0.00,Tual/Dumatubun
-5.533,-47.5,80.9,0.00,Imperatriz
-5.467,122.617,81.4,0.00,Bau-Bau/Beto Ambiri
-5.257,39.811,82.8,0.00,Pemba
-5.242,105.179,78.7,0.00,Radin Inten Ii
-5.206,-80.616,77.2,0.00,Capitan Fap Guillermo Concha Iberico
-5.092,39.071,80.2,2.44,Tanga
-5.067,119.55,85.5,0.00,Ujang Pandang/Paotere
-5.062,119.554,81.8,0.00,Sultan Hasanuddin Intl
-5.06,-42.823,82.7,0.00,Senador Petronio Portella
-4.883,29.633,68.7,0.00,Kigoma
-4.816,11.887,80.3,0.00,Pointe Noire / Antonio Agostinho Neto
-4.674,55.522,84.2,0.16,Seychelles Intl
-4.577,-81.254,73.5,0.00,Capitan Fap Victor Montes Intl
-4.533,129.9,82.3,0.00,Neira
-4.386,15.445,82.5,0.00,Ndjili Intl
-4.252,15.253,81.5,0.08,Maya Maya
-4.242,-56.001,82.0,1.93,Itaituba
-4.2,12.7,78.3,0.00,Dolisie
-4.193,-69.943,81.8,0.08,Alfredo Vasquez Cobo
-4.103,138.957,72.3,0.00,Wamena
-4.083,37.717,71.0,0.00,Same
-4.035,39.594,79.2,0.04,Mombasa Moi Intl
-3.983,13.917,77.3,0.00,Mouyondzi
-3.917,136.367,67.7,0.16,Enarotali
-3.864,102.339,82.0,0.00,Fatmawati Soekarno
-3.855,-32.423,76.7,2.36,Fernando De Noronha
-3.8,130.833,83.5,0.02,Geser
-3.785,-73.309,79.1,0.00,Coronel Francisco Secada Vignetta Intl
-3.776,-38.533,79.5,0.00,Pinto Martins Intl
-3.71,128.089,80.4,0.00,Pattimura
-3.683,13.35,81.1,0.00,Sibiti
-3.645,133.696,83.7,0.00,Kaimana / Utarom
-3.553,-80.381,79.8,0.00,Cap Fap Pedro Canga Rodriguez
-3.442,114.763,80.4,0.00,Syamsudin Noor
-3.417,10.65,81.4,0.75,Mayumba
-3.4,38.567,75.0,0.00,Voi
-3.368,36.633,68.6,0.00,Arusha
-3.368,135.496,83.2,0.91,Nabire / Douw Aturure
-3.35,128.883,81.0,0.00,Amahai
-3.324,29.319,76.1,0.04,Bujumbura Intl
-3.25,127.083,83.6,0.00,Namlea/Buru Island
-3.229,40.102,79.9,0.55,Malindi
-3.146,-59.986,81.3,0.00,Campo Ponta Pelada
-3.039,-60.05,81.9,0.00,Eduardo Gomes Intl
-2.898,104.701,80.8,0.00,Sultan Mahmud Badaruddin Ii
-2.883,132.25,81.8,0.00,Fak-Fak / Torea / Siboru
-2.85,11.017,82.3,0.55,Tchibanga
-2.746,107.755,82.1,0.00,H As Hanandjoeddin
-2.705,111.673,83.1,0.00,Iskandar
-2.617,16.217,81.1,0.00,M'Pouya
-2.585,-44.234,79.5,0.02,Marechal Cunha Machado Intl
-2.577,140.516,85.2,0.00,Sentani
-2.55,120.367,82.0,0.28,Masamba/Andi Jemma
-2.5,119.0,83.5,0.00,Majene
-2.422,-54.793,80.5,0.00,Santarem / Maestro Wilson Fonseca
-2.283,37.833,71.9,0.00,Makindu
-2.225,113.943,85.1,0.02,Palangka Raya/Tjilik Riwut
-2.17,106.13,82.7,0.00,Pangkalpinang / Depati Amir
-2.157,-79.884,82.2,0.00,Simon Bolivar Intl / Jose Joaquin De Olmedo Intl
-2.083,126.0,83.0,0.00,Sanana / Namniwel
-1.969,30.139,66.2,0.02,Kigali Intl
-1.867,136.233,80.2,0.00,Serui / Yendosa / Stevanus Rumbewas
-1.845,11.057,80.1,0.55,Mouilla Ville / Raphael Boubala
-1.817,109.963,85.3,0.00,Rahadi Oesman
-1.617,124.55,83.5,0.00,Labuha/Taliabu
-1.533,13.267,81.0,0.00,Moanda Bangombe
-1.5,33.8,77.4,0.31,Musoma
-1.417,120.658,78.7,0.00,Kasiguncu / Imip
-1.379,-48.476,79.1,19.45,Val De Cans Julio Cezar Ribeiro Intl
-1.333,31.817,70.0,0.20,Bukoba
-1.322,36.815,73.9,0.00,Nairobi Wilson
-1.319,36.928,68.4,0.00,Jkia / Nairobi Jomo Kenyatta Intl
-1.3,36.75,65.5,0.00,Nairobi/Dagoretti
-1.268,116.894,82.4,0.00,Sultan Aji Muhammad Sulaiman Sepinggan
-1.25,29.983,60.4,0.00,Kabale
-1.19,136.108,81.0,0.00,Frans Kaisiepo
-1.133,35.833,67.1,0.00,Narok
-1.039,122.772,81.0,0.00,Bubung
-0.95,-80.683,78.4,0.00,Eloy Alfaro Intl
-0.95,114.9,85.0,0.00,Muaratewe/Beringin
-0.712,8.754,82.5,0.00,Port Gentil
-0.704,10.246,81.8,0.00,Lambarene
-0.693,73.156,84.0,0.00,Gan Island
-0.683,119.733,80.5,0.00,Palu/Mutiara
-0.667,34.783,67.3,0.00,Kisii
-0.617,30.65,63.4,0.00,Mbarara
-0.5,36.967,67.6,0.01,Nyeri
-0.5,37.45,69.0,0.55,Embu
-0.485,117.157,82.9,0.00,Temindung
-0.479,104.579,81.2,0.00,Dabo
-0.464,39.648,86.7,0.08,Garissa
-0.367,35.35,63.7,1.22,Kericho
-0.35,111.783,87.5,0.00,Nangapinoh
-0.267,36.1,66.5,0.02,Nakuru
-0.151,109.404,82.0,0.00,Supadio
-0.141,-78.488,58.4,0.00,Mariscal Sucre Intl
-0.086,34.729,74.0,0.67,Kisumu
-0.017,15.65,79.2,0.00,Makoua
0.05,-51.067,78.9,0.59,Macapa-Aeroporto
0.051,-51.072,79.3,0.00,Macapa / Alberto Alcolumbre
0.064,111.473,84.5,0.00,Susilo / Tebelian
0.083,37.65,66.4,0.16,Meru
0.183,30.1,69.9,0.31,Kasese
0.271,34.787,68.5,0.91,Kakamega
0.45,33.183,73.6,3.46,Jinja
0.459,9.412,82.3,0.00,Leon M Ba
0.483,35.3,64.3,0.16,Eldoret
0.579,12.891,79.9,0.04,Makokou
0.637,122.85,79.3,0.00,Jalaluddin / Djalaluddin
0.831,127.381,82.1,0.12,Babullah
0.923,104.532,82.2,0.00,Kijang
0.972,34.959,63.9,0.59,Kitale
1.017,120.8,77.9,0.12,Toli-Toli/Lalos / Bolaang Mongondow
1.35,103.994,81.7,2.91,Singapore Changi Intl
1.382,173.147,85.5,0.00,Bonriki Intl
1.433,125.183,79.1,0.51,Bitung
1.485,110.347,81.1,0.28,Kuching Intl
1.549,124.926,75.7,0.43,Sam Ratulangi
1.616,16.038,77.7,0.00,Ouesso
1.733,40.092,86.4,0.00,Wajir
1.767,109.3,85.5,0.00,Paloh
1.817,127.833,78.3,0.00,Galela/Gamarmalamu
2.076,11.493,79.1,0.08,Bitam
2.262,111.985,79.7,0.02,Sibu
2.263,102.252,80.5,0.00,Malacca
2.3,37.9,70.8,0.16,Marsabit
2.846,-60.69,83.2,0.00,Boa Vista / Atlas Brasil Cantanhede
2.85,117.333,82.6,0.00,Tanjung Selor
2.95,9.9,84.7,0.00,Kribi
3.05,30.917,73.2,0.67,Arua
3.122,35.609,82.4,0.04,Lodwar
3.124,113.02,79.8,0.00,Bintulu
3.131,101.549,78.9,0.67,Sultan Abdul Aziz Shah Intl
3.2,106.25,83.5,0.00,Tarempa
3.333,117.567,81.9,0.01,Tarakan/Juwata
3.533,39.05,74.0,0.00,Moyale Lower (Oda)
3.543,-76.382,71.8,0.02,Alfonso Bonilla Aragon Intl
3.633,-54.033,78.3,0.03,Maripasoula
3.683,125.528,80.8,0.00,Naha
3.775,103.209,82.9,0.04,Kuantan
3.883,-51.8,80.9,0.87,Saint Georges
3.933,41.867,82.0,0.00,Mandera
4.006,9.719,81.6,0.00,Douala
4.192,73.529,85.6,0.00,Male Intl / Velana Intl
4.217,100.7,80.8,0.02,Sitiawan
4.222,15.786,74.7,0.00,Berberati
4.313,118.122,81.3,0.01,Tawau
4.317,21.183,80.0,0.00,Mobaye
4.322,113.987,82.3,0.04,Miri
4.398,18.519,80.9,0.00,Bangui M Poko
4.417,-7.367,80.2,0.24,Tabou
4.702,-74.147,57.6,0.00,El Dorado Intl
4.733,22.833,85.3,0.00,Bangassou
4.747,-6.661,80.8,1.10,San Pedro
4.813,-75.74,69.3,0.04,Matecana
4.82,-52.36,80.0,0.39,Rochambeau / Cayenne Felix Eboue
4.944,114.928,82.1,1.65,Brunei Intl
4.95,-6.083,80.1,1.97,Sassandra/Drewin
5.05,21.2,78.1,0.00,Alindao
5.261,-3.926,82.4,0.47,Abidjan Felix Houphouet Boigny Intl
5.283,39.75,70.2,0.59,Neghelli (Mil)
5.297,100.277,83.4,1.57,Penang Intl
5.3,-3.3,84.4,0.00,Adiake
5.301,115.25,82.8,0.83,Labuan
5.333,153.733,83.8,0.00,Satawan Atoll Aws  Caroline Islands
5.35,162.95,81.8,0.00,Kosrae Atoll Aws  Caroline Is.
5.357,162.958,83.8,0.63,Kosrae
5.4,26.5,76.8,0.00,Obo
5.45,-55.183,80.8,0.00,Johan A Pengel Intl
5.453,-55.188,80.9,0.24,Johan A Pengel Intl
5.5,-54.033,80.3,0.98,St Laurent Du Maron
5.62,-67.606,79.1,0.16,Cacique Aramare
5.85,20.65,83.3,0.00,Bambari
5.901,118.059,82.6,0.00,Sandakan
5.935,43.579,81.0,0.00,Gode
5.937,116.051,82.1,1.02,Kota Kinabalu Intl
5.95,-57.03,78.9,0.00,Nickerie
5.967,15.633,76.9,0.00,Bouar
6.05,125.1,84.8,0.00,Gen. Santos
6.1,171.4,80.4,0.00,Mili Atoll Aws  Marshall Is.
6.117,81.133,82.9,0.00,Hambantota
6.133,-5.95,81.3,0.08,Gagnoa
6.165,-75.423,63.2,0.08,Jose Maria Cordova
6.166,1.255,83.2,0.00,Gnassingbe Eyadema Intl
6.167,102.293,84.0,0.12,Sultan Ismail Petra
6.217,160.7,81.5,0.00,Pingelap Atoll Aws  Caroline Is.
6.357,2.384,85.1,0.00,Card Bernardin Gadin De Cadjehoun Intl
6.483,17.433,82.9,0.00,Bossangoa
6.5,23.267,79.5,0.00,Yalinga
6.52,101.743,83.0,0.00,Narathiwat
6.533,21.983,82.8,0.00,Bria
6.583,1.5,82.3,0.02,Tabligbo
6.65,-4.7,82.6,0.00,Dimbokro City
6.661,100.08,83.6,0.00,Khoun Khan
6.783,11.817,74.9,0.08,Banyo
6.785,101.154,83.8,0.00,Pattani
6.793,-6.473,78.3,0.00,Daloa
6.903,-5.366,85.1,0.00,Yamoussoukro
6.922,122.06,83.2,0.00,Zamboanga Intl
6.933,100.393,85.0,0.00,Hat Yai Intl
7.024,-73.807,81.7,1.14,Yariguies
7.067,38.05,68.8,0.02,Awassa (Lake) / Hawassa
7.126,125.646,83.5,0.00,Francisco Bangoy Intl
7.127,-73.185,72.0,0.08,Palonegro
7.133,40.0,63.1,0.00,Robe/Bale
7.167,2.067,85.7,0.00,Bohicon
7.181,79.866,84.2,0.00,Bandaranaike Intl Colombo
7.187,100.608,85.4,0.00,Songkhla
7.211,-70.756,78.9,0.00,Guasdualito
7.267,168.833,79.5,3.27,Ailinglapalap Atoll  Marshall Is.
7.272,-7.587,80.0,0.00,Man
7.333,134.483,82.4,0.00,Babelthuap/Koror Air
7.357,13.559,76.7,0.24,Ngaoundere
7.467,151.85,82.9,0.12,Chuuk International Airport
7.509,99.617,86.0,0.12,Trang
7.533,99.05,87.4,0.00,Ko Lanta
7.565,-72.035,73.3,0.00,Mayor Buenaventura Vivas
7.583,1.117,80.3,0.04,Atakpame/Akpaka
7.633,155.167,82.2,0.00,Oroluk Atoll Aws  Caroline Islands
7.666,36.817,66.9,0.91,Jimma Aba Jifar
7.739,-5.074,81.6,0.00,Bouake
7.841,-72.44,81.9,0.00,San Antonio Del Tachira / General Cipriano Castro Intl
7.883,-67.444,81.3,0.00,San Fernando De Apure / Las Flecheras
7.883,98.4,86.5,0.00,Phuket
7.928,-72.512,84.5,0.12,Camilo Daza
8.033,2.467,87.3,0.00,Save
8.05,-2.783,84.6,0.00,Bondoukou/Soko
8.086,-80.945,87.5,0.00,Ruben Cantu
8.1,98.983,86.6,0.00,Krabi
8.113,98.317,83.6,0.00,Phuket Intl
8.122,-63.537,86.5,0.00,Ciudad Bolivar
8.15,125.133,75.5,0.00,Malaybalay
8.301,80.428,84.1,0.67,Anuradhapura
8.367,126.333,80.8,0.51,Hinatuan
8.391,-82.435,82.5,0.00,Enrique Malek Intl
8.4,20.65,87.5,0.00,N'Dele
8.417,124.617,81.5,0.00,Lumbia Airport
8.471,99.956,82.9,0.00,Cha Ian
8.483,124.65,84.2,0.00,Cagayan De Oro
8.539,81.182,84.3,0.00,China Bay
8.582,-71.161,70.6,0.79,Alberto Carnevalli
8.583,149.65,82.8,0.00,Ului Atoll (Amos)
8.601,123.334,82.9,0.00,Dipolog
8.62,-70.221,77.9,0.00,Barinas
8.65,111.917,85.4,0.00,Truong Sa
8.683,98.25,84.9,0.04,Takua Pa
8.683,106.6,84.8,0.00,Con Son
8.733,167.733,81.1,0.30,Bucholz Aaf Kwajalein Kmr Atol Ap
8.867,39.9,79.0,0.39,Metehara
8.917,-79.6,83.4,0.00,Howard
8.925,-67.417,82.0,0.00,Calabozo
8.95,125.483,82.9,0.00,Butuan
8.978,38.799,64.5,0.20,Bole Intl
8.983,-79.517,84.7,0.00,Marcos A. Gelabert
8.983,1.15,80.9,0.00,Sokode
9.027,-69.755,78.1,0.16,Guanare
9.071,-79.383,81.8,0.00,Tocumen Intl
9.083,36.45,66.8,0.55,Lekemte
9.133,99.136,83.4,0.00,Surat Thani
9.183,105.15,84.3,0.00,Ca Mau
9.25,99.867,89.8,0.00,Khanom
9.334,123.3,84.6,0.00,Dumaguete
9.336,13.37,87.8,0.00,Garoua
9.34,-70.584,78.9,0.12,Dr Antonio Nicolas Briceno
9.35,2.617,86.9,0.00,Parakou
9.387,-5.557,84.4,0.00,Korhogo
9.467,100.05,85.5,0.00,Ko Samui
9.483,138.083,82.3,0.07,Yap International Airport
9.5,-7.567,84.3,0.04,Odienne
9.55,1.167,85.9,0.00,Kara
9.553,-69.238,77.7,1.85,Oswaldo Guevara Mujica / Batalla De Araure
9.577,-13.612,83.5,0.00,Conakry / Ahmed Sekou Toure Intl
9.664,123.853,83.1,0.00,Tagbilaran
9.742,118.759,86.0,0.00,Puerto Princesa
9.749,-63.153,82.9,0.00,Maturin / Jose Tadeo Monagas Intl
9.767,1.091,83.4,0.00,Niamtougou International
9.778,98.585,86.4,0.51,Ranong
9.783,125.483,81.4,0.16,Surigao
9.817,-70.933,85.5,0.00,Mene Grande
9.907,-67.38,81.3,0.00,San Juan De Los Morros
9.946,76.272,86.4,0.00,Cochin
9.95,-84.133,77.3,0.00,Tobias Bolanos Intl
9.958,-83.022,80.6,0.09,Limon Intl
9.984,-84.772,89.1,0.00,Chacarita
9.994,-84.209,74.1,0.06,Juan Santamaria Intl
10.035,-10.77,85.0,0.00,Faranah
10.043,-69.359,74.3,0.00,Barquisimeto Intl
10.05,-12.867,83.2,0.00,Kindia
10.133,124.867,79.1,0.00,Maasin
10.15,-67.928,80.6,0.00,Arturo Michelena Intl
10.217,103.967,83.7,0.00,Phu Quoc
10.25,-67.649,81.7,0.00,Mariscal Sucre
10.3,-68.233,72.3,0.28,Palmichal
10.308,123.979,82.6,0.00,Mactan Cebu Intl
10.317,1.383,88.3,0.00,Natitingou
10.333,-3.183,86.8,0.00,Gaoua
10.367,0.467,92.0,0.00,Mango/Sansanne
10.383,-9.3,85.6,3.90,Kankan
10.442,-75.513,81.7,0.00,Rafael Nunez
10.45,-64.13,81.8,0.00,Antonio Jose De Sucre
10.451,14.257,95.9,0.00,Salak
10.485,-66.844,78.0,0.00,Generalisimo Francisco De Miranda Ab
10.517,-71.65,88.7,0.00,La Canada
10.558,-71.728,86.2,0.00,La Chinita Intl
10.574,-62.313,83.7,0.00,Guiria / Almirante Cristobal Colon
10.593,-85.544,85.8,0.00,Daniel Oduber Quiros Intl
10.595,-61.337,83.6,0.00,Piarco
10.603,-66.991,80.0,0.00,Simon Bolivar Intl
10.711,99.362,86.2,0.00,Chumphon
10.713,122.541,83.3,0.00,Iloilo
10.765,78.71,92.6,0.00,Tiruchirappalli
10.819,106.652,84.3,0.00,Tan Son Nhat Intl
10.85,121.0,86.4,0.00,Cuyo
10.867,0.25,89.3,0.00,Dapaon
10.89,-74.781,81.4,0.00,Ernesto Cortissoz
10.913,-63.967,84.4,0.00,Del Caribe Intl Gen Santiago Marino
10.917,-63.967,82.9,0.00,Porlamar (Aeropuerto Int Del Caribe)
10.933,-14.317,87.2,0.00,Boke/Baralande
10.933,108.1,84.9,0.20,Phan Thiet
11.031,77.044,87.3,0.00,Coimbatore
11.036,125.742,81.2,0.31,Guiuan
11.083,39.717,68.5,0.16,Combolcha/Dessie
11.12,-74.231,86.6,0.00,Simon Bolivar
11.133,2.933,90.6,0.00,Kandi
11.15,-60.833,82.9,0.00,Crown Point Airport   Tobago
11.15,-1.15,89.3,0.00,Po
11.16,-4.331,85.7,0.00,Bobo Dioulasso
11.228,125.028,81.0,0.00,Daniel Z Romualdez
11.326,-12.287,81.2,0.00,Labe
11.35,-5.683,88.2,0.28,Sikasso
11.367,162.35,81.1,0.00,Eniwetak Atoll Aws  Marshall Is.
11.415,-69.681,85.6,0.00,Jose Leonardo Chirinos
11.417,-7.5,88.9,0.00,Bougouni
11.433,-9.167,92.1,0.00,Siguiri
11.55,43.15,87.9,0.00,Djibouti
11.598,122.752,82.2,0.00,Roxas
11.608,37.322,77.1,0.00,Bahir Dar Ginbot Haya Intl
11.75,-2.933,94.7,0.00,Boromo
11.767,79.767,88.1,0.00,Cuddalore
11.767,102.883,87.4,1.34,Khlong Yai
11.783,124.883,80.8,0.67,Catbalogan
11.786,34.337,90.2,0.00,Damazin
11.788,99.805,85.9,0.00,Prachuap
11.883,3.45,91.5,0.00,Gaya
11.895,-15.654,88.2,0.00,Bissau Oswaldo Vieira Intl
12.004,-61.786,82.7,0.26,Point Salines Intl
12.033,0.367,89.5,0.00,Fada N'Gourma
12.131,-68.269,85.6,0.02,Flamingo
12.134,15.034,95.9,0.00,Ndjamena Hassan Djamous
12.189,-68.96,84.1,0.00,Hato
12.217,120.2,86.6,0.00,Coron
12.25,109.2,82.7,0.24,Nha Trang
12.353,-1.512,91.0,0.00,Ouagadougou
12.362,121.047,87.3,0.00,San Jose
12.369,123.629,81.1,0.00,Masbate
12.383,-5.467,89.1,0.00,Koutiala
12.41,-16.746,74.7,0.00,Cap Skirring
12.467,-3.483,92.0,0.00,Dedougou
12.501,-70.015,83.6,0.00,Reina Beatrix Intl
12.502,124.636,81.7,0.04,Catarman
12.534,-7.95,90.6,0.00,Senou / President Modibo Keita
12.556,-16.282,79.0,0.00,Ziguinchor
12.567,-13.517,95.3,0.00,Koundara
12.572,-12.22,92.6,0.00,Kedougou
12.584,-81.711,83.5,0.00,Gustavo Rojas Pinilla
12.6,102.117,85.8,0.12,Chanthaburi
12.633,101.35,87.0,0.00,Rayong
12.636,99.952,86.3,0.00,Hua Hin
12.683,100.983,87.1,0.00,Sattahip
12.883,-14.967,92.4,0.00,Kolda
12.917,100.867,86.8,0.00,Phatthaya
12.961,74.89,84.8,0.08,Mangalore
12.967,77.583,84.7,0.00,Bangalore
12.983,8.933,93.1,0.00,Magaria
12.994,80.181,88.5,0.00,Chennai Intl
12.999,100.067,87.0,0.00,Phetchaburi
13.075,-59.492,80.3,0.29,Grantley Adams Intl
13.083,100.883,89.2,0.00,Laem Chabang
13.144,-61.211,81.2,0.05,E T Joshua
13.157,123.746,80.2,0.43,Legazpi
13.167,100.8,87.3,0.00,Ko Sichang
13.233,11.983,95.2,0.00,Maine-Soroa
13.283,-87.667,86.8,0.00,Amapala/Los Pelonas
13.338,-16.652,76.0,0.00,Banjul Intl
13.367,100.983,90.2,0.00,Chon Buri/Sattahip / Suvarnabhumi Intl
13.373,12.627,96.0,0.00,Diffa
13.4,-6.15,89.8,0.00,Segou
13.417,121.183,84.2,0.00,Calapan/Mindoro Isl
13.441,-89.056,88.0,0.00,El Salvador Intl / San Oscar A Romero And Galdamez Intl
13.467,39.533,69.3,0.00,Mekele
13.482,2.184,92.5,0.00,Diori Hamani
13.483,144.8,80.4,0.33,Guam International Airport
13.503,7.127,92.1,0.00,Maradi
13.567,-89.833,86.3,0.00,Acajutla/Sonsonate
13.567,-2.417,93.7,0.08,Ouahigouya
13.567,144.917,79.2,0.47,Andersen Afb
13.576,124.206,78.6,0.47,Virac
13.615,25.325,88.5,0.00,El Fashir
13.654,124.341,78.1,1.02,Catanduanes Radar
13.699,-89.12,81.8,0.00,Ilopango Intl
13.7,100.567,90.2,0.00,Bangkok Port
13.7,102.504,91.3,0.00,Aranyaprathet
13.733,-60.953,81.8,0.03,Hewanorra Intl
13.733,100.567,88.9,0.00,Bangkok Metropolis
13.737,-13.653,91.4,0.00,Tambacounda
13.767,109.217,82.8,0.00,Quy Nhon
13.779,8.984,94.7,0.00,Zinder
13.8,5.25,93.1,0.00,Birni-N'Konni
13.913,100.607,88.0,0.00,Bangkok Intl / Don Mueang Intl
13.983,10.3,98.0,0.00,Goure
14.017,99.533,90.8,0.00,Kanchana Buri
14.017,121.6,78.9,0.12,Tayabas
14.033,-0.033,93.8,0.00,Dori
14.033,35.4,90.7,0.00,Gedaref/Azaza
14.061,-87.217,79.3,0.00,Toncontin Intl
14.078,101.38,88.7,0.35,Khao E To
14.083,121.05,84.5,0.00,Ambulong
14.1,98.217,88.8,0.00,Dawei
14.1,122.017,80.5,0.00,Alabat
14.129,122.98,81.2,0.20,Daet
14.147,-16.051,85.7,0.00,Kaolack
14.167,145.25,80.2,0.00,Rota Intl/Rota Isl
14.2,1.45,95.5,0.00,Tillabery
14.233,76.433,88.9,0.00,Chitradurga
14.333,-88.167,72.2,0.00,La Esperanza
14.433,-89.2,82.4,0.00,Nueva Ocotepeque
14.45,79.983,89.8,0.00,Nellore
14.467,100.133,90.6,0.00,Suphan Buri
14.482,-11.44,95.5,0.00,Kayes/Dag-Dag
14.5,120.9,84.9,0.00,Sangley Point
14.509,121.02,83.8,0.00,Ninoy Aquino Intl
14.513,-4.08,90.3,0.00,Ambodedjo
14.583,120.983,86.8,0.00,Manila
14.591,-61.003,80.7,0.02,Le Lamentin
14.65,-16.233,86.0,0.00,Diourbel
14.65,121.05,83.3,0.08,Science Garden
14.74,-17.49,70.4,0.00,Leopold Sedar Senghor Intl
14.75,98.633,92.6,0.00,Thong Phaphum
14.75,121.65,80.8,0.08,Infanta
14.783,-88.783,73.6,0.00,Santa Rosa De Copan
14.794,-92.37,84.2,0.00,Tapachula Intl
14.8,100.617,91.5,0.00,Lop Buri
14.8,120.267,91.4,0.00,Subic Bay Weather
14.876,5.265,94.3,0.00,Tahoua
14.883,103.5,86.3,0.00,Surin
14.917,-92.25,80.1,0.37,Tapachula  Chis
14.935,102.079,89.0,0.00,Khorat
15.0,145.617,83.8,0.00,West Tinian
15.117,145.733,81.9,0.00,Saipan/Isley (Cgs)
15.167,-7.283,91.1,0.00,Nara/Keibane
15.233,-9.35,92.4,0.00,Nioro Du Sahel
15.251,104.87,89.9,0.00,Ubon Ratchathani
15.261,-83.781,85.1,0.00,Puerto Lempira
15.267,101.2,91.6,0.00,Bua Chum
15.317,103.683,89.3,0.00,Tha Tum
15.333,-1.683,96.3,0.00,Hombori
15.333,119.967,85.2,0.00,Iba/Luzon Island
15.337,-61.392,85.7,0.00,Canefield
15.383,-15.117,87.5,0.00,Linguere
15.417,75.633,85.8,0.00,Gadag
15.453,-87.924,84.6,0.00,La Mesa Intl / Ramon Villeda Morales Intl
15.476,44.22,68.8,0.00,Sanaa Intl
15.483,73.817,85.7,0.00,Goa/Panjim
15.547,-61.3,83.4,0.00,Melville Hall
15.589,32.553,92.8,0.00,Khartoum
15.65,-13.25,92.2,0.00,Matam/Ouro Sogui
15.657,101.105,87.0,0.00,Wichian Buri
15.673,100.137,88.4,0.00,Nakhon Sawan
15.73,121.5,76.9,0.28,Baler
15.733,120.933,82.5,0.00,Munoz
15.742,-86.853,85.8,0.00,Goloson Intl
15.775,-96.263,87.1,0.00,Bahias De Huatulco Intl
15.776,-87.476,86.8,0.00,Tela
15.8,78.067,97.6,0.00,Kurnool
15.8,102.033,90.2,0.00,Chaiyaphum
15.859,74.618,85.8,0.00,Belgaum
15.877,-97.089,82.9,0.00,Puerto Escondido Intl
16.044,108.199,81.2,0.00,Danang Intl
16.051,-16.463,73.2,0.00,Saint Louis Ousmane Masseck Ndiaye
16.07,103.646,87.6,0.00,Rob Muang
16.083,120.35,86.5,0.00,Dagupan
16.1,-88.25,82.2,0.00,Hunting Caye
16.2,81.15,88.2,0.00,Machilipatnam/Franchpet
16.248,-0.005,87.8,0.20,Gao
16.25,-92.133,66.6,0.78,Comitan  Chis.
16.265,-61.532,81.4,0.00,Le Raizet
16.267,122.133,78.1,0.28,Casiguran
16.317,-86.523,85.1,0.00,Juan Manuel Galvez Intl
16.375,120.62,70.8,0.08,Baguio
16.402,107.703,82.3,0.00,Phubai
16.467,102.784,87.0,0.00,Khon Kaen
16.483,99.533,87.7,0.00,Kamphaeng Phet
16.5,-15.817,86.9,0.00,Rosso
16.533,104.717,87.7,0.00,Mukdahan
16.533,111.617,84.2,0.00,Sanhu Dao
16.59,-11.406,94.8,0.00,Kiffa
16.622,-7.317,101.0,0.00,Nema
16.65,-14.967,88.0,0.00,Podor
16.676,101.195,81.6,1.50,Phetchabun
16.7,98.545,88.1,0.00,Mae Sot
16.733,-169.533,77.1,0.00,Johnston Atoll Airport
16.741,-22.949,72.2,0.00,Amilcar Cabral Intl
16.75,-99.75,83.4,0.00,Acapulco  Gro
16.75,-93.133,69.6,0.08,Francisco Sarabia / Tuxtla Gutierrez Intl
16.75,-62.167,82.8,0.00,Blackburne/Plymouth
16.757,-99.754,80.4,0.00,General Juan N Alvarez Intl / Acapulco Intl
16.783,100.279,89.1,0.00,Phitsanulok
16.833,112.333,84.9,0.00,Xisha Dao
16.896,99.253,90.4,0.00,Tak
16.901,42.586,88.0,0.00,King Abdullah Bin Abdulaziz
16.907,96.133,86.8,0.00,Yangon Intl
16.95,82.233,90.1,0.00,Kakinada
16.967,7.967,96.2,0.00,Agadez / Mano Dayak
16.983,73.333,83.6,0.00,Ratnagiri
17.0,-96.733,73.0,0.00,Xoxocotlan Intl / Oaxaca Intl
17.039,54.091,84.7,0.00,Salalah
17.05,-96.717,69.4,5.17,Oaxaca  Oax.
17.137,-61.793,80.9,0.00,V C Bird Intl
17.14,-157.79,76.7,0.00,Sw Hawaii 215 Nm South Southwest Of Hilo
17.15,104.133,84.6,0.00,Sakon Nakhon
17.183,-87.5,82.7,0.00,Half Moon Caye
17.233,99.05,86.6,0.00,Bhumibol Dam
17.311,-62.719,81.6,0.00,Robert L Bradshaw
17.386,102.788,87.1,0.08,Udon Thani
17.4,-83.933,83.6,0.00,Islas Del Cisne
17.417,104.783,86.8,0.00,Nakhon Phanom
17.439,101.722,84.8,0.08,Loei
17.452,78.461,94.4,0.00,Begumpet Airport / Hyderabad Intl
17.467,47.121,87.4,0.24,Sharurah
17.483,106.6,79.3,0.00,Dong Hoi
17.496,-62.979,85.2,0.00,F D Roosevelt
17.52,-152.48,76.6,0.00,Se Hawaii 185 Nm Southeast Of Hilo  Hi
17.533,-14.683,90.2,0.00,Boutilimit
17.55,-99.5,75.3,0.00,Chilpancingo  Ro.
17.555,120.356,86.1,0.00,Vigan
17.602,-101.461,81.6,0.00,Ixtapa Zihuatanejo Intl
17.611,44.419,81.7,0.00,Nejran
17.617,100.1,87.3,0.00,Uttaradit
17.628,75.935,94.5,0.00,Solapur
17.638,121.731,86.1,0.00,Tuguegarao
17.666,54.025,83.0,0.00,Thumrait
17.7,-64.813,83.0,0.00,Christiansted/Alex.
17.7,83.3,85.7,0.00,Cwc Vishakhapatnam/Waltair
17.867,102.75,86.3,0.24,Nong Khai
17.9,-62.85,83.2,0.00,Gustavia/St.Barthel
17.936,-76.788,84.1,0.00,Norman Manley Intl
17.983,-92.933,74.7,0.76,Villahermosa  Tab.
17.983,-92.817,75.1,0.00,C P A Carlos Rovirosa Intl / Villahermosa Intl
18.008,-66.563,81.8,0.00,Mercedita
18.041,-63.109,81.3,0.00,Princess Juliana Intl
18.098,-15.948,77.2,0.00,Nouakchott
18.103,-94.581,75.7,0.00,Minatitlan
18.132,100.165,85.5,0.02,Phrae
18.133,55.183,83.8,0.00,Marmul
18.167,97.933,90.8,0.00,Mae Sariang
18.178,120.532,84.9,0.00,Laoag Intl
18.183,-94.5,75.0,0.00,Coatzacoalcos  Ver
18.217,109.583,83.2,0.00,Sanya
18.24,42.657,62.6,0.00,Abha
18.25,-67.15,80.2,0.00,Eugenio Maria De Ho
18.255,-65.641,80.9,0.00,Naval Station Roosevelt Roads Ceiba
18.271,99.504,87.4,0.00,Lampang
18.297,42.804,65.6,0.00,King Khaled Ab
18.336,-64.98,86.2,0.00,Cyril E King Airport
18.367,121.633,86.8,0.00,Aparri
18.417,-66.0,81.0,0.00,San Juan Intl Arpt
18.433,-66.011,81.0,0.00,San Juan L M Marin Intl Ap
18.5,-67.133,80.5,0.00,Aquadilla/Borinquen
18.5,110.0,82.4,0.00,Ling-Shui
18.504,-77.913,83.3,0.00,Sangster Intl
18.505,-88.327,83.3,0.00,Chetumal Intl
18.533,73.85,86.5,0.00,Pune
18.567,99.033,86.7,0.00,Lamphun
18.57,-11.424,84.2,0.00,Tidjikja
18.58,-72.293,85.5,0.00,Toussaint Louverture Intl / Port Au Prince Intl
18.654,-91.799,81.5,0.00,Ciudad Del Carmen Intl
18.683,12.917,91.5,0.00,Bilma
18.717,-110.95,76.3,0.00,Isla Socorro  Col.
18.737,105.671,79.0,0.00,Vinh
18.767,79.433,96.7,0.00,Ramgundam
18.767,98.963,85.8,0.04,Chiang Mai Intl
18.808,100.783,83.9,0.00,Nan
18.835,-99.262,77.2,0.00,General Mariano Matamoros / Cuernavaca Intl
18.9,145.6,80.6,0.00,Pagan Island Aws  Mariana Is.
19.0,-155.667,69.9,0.00,South Point  Hawaii
19.05,-104.317,74.8,0.00,Manzanillo  Col.
19.083,82.033,91.4,0.09,Jagdalpur
19.089,72.868,87.1,0.00,Chhatrapati Shivaji Maharaj Intl
19.1,108.617,83.0,0.00,Dongfang
19.117,100.8,86.4,0.04,Tha Wang Pha
19.145,-104.559,74.5,0.00,Playa De Oro Intl / Manzanillo Intl
19.146,-96.187,74.5,0.00,General Heriberto Jara Intl / Veracruz Intl
19.15,-96.117,74.8,0.00,Hacienda Ylang Ylang Veracruz  Ver.
19.158,-98.371,68.0,2.01,Hermanos Serdan Intl / Puebla Intl
19.16,-160.74,74.9,0.00,W Hawaii 205 Nm Southwest Of Honolulu  H
19.193,99.9,83.6,0.00,Phayao
19.233,110.467,81.9,0.00,Qionghai
19.267,121.467,86.9,0.00,Calayan
19.277,-103.577,82.6,0.00,Colima
19.283,-99.683,61.3,0.00,Toluca  Mex.
19.283,166.65,78.7,0.03,Wake Island Airfld
19.3,-81.367,83.0,0.00,Owen Roberts Airport
19.301,97.976,93.1,0.00,Mae Hong Son
19.317,-98.25,64.1,0.00,Tlaxcala  Tlax.
19.337,-99.566,54.7,0.00,Licenciado Adolfo Lopez Mateos Intl / Toluca Intl
19.397,-102.039,69.4,0.00,Licenciado Y Gen Ignacio Lopez Rayon / Uruapan
19.4,-99.183,69.6,0.00,Mexico (Central)   D.F.
19.436,-99.072,69.0,0.00,Licenciado Benito Juarez Intl / Mexico City Intl
19.517,109.583,82.8,0.00,Danxian
19.55,-96.917,58.2,0.00,Jalapa  Ver.
19.567,-88.05,85.2,0.00,Felipe Carrillo Puerto  Q Roo
19.7,-101.183,72.0,0.00,Morelia  Mich.
19.717,-103.467,69.6,0.00,Ciudad Guzman  Jal.
19.719,-155.053,71.8,0.68,Hilo International Airport
19.733,-156.033,72.8,0.00,Kona Intl At Keahol
19.75,-155.55,55.4,0.20,Bradshaw Aaf
19.75,105.783,79.6,0.00,Thanh Hoa
19.817,-90.5,83.8,2.99,Ingeniero Alberto Acuna Ongay Intl / Campeche Intl
19.85,-101.026,75.8,0.00,General Francisco J Mujica Intl / Morelia Intl
19.85,-77.233,83.0,0.10,Cabo Cruz  Granma
19.863,75.398,91.3,0.00,Aurangabad
19.885,99.827,80.7,0.00,Chiang Rai
19.9,-75.15,82.7,0.00,Guantanamo Bay Naval Air Station
19.97,-75.835,81.1,0.00,Antonio Maceo Intl
19.983,-102.317,74.8,0.00,Zamora  Mich.
19.984,42.621,82.7,0.00,Bisha
20.0,110.25,83.1,0.00,Haikou
20.083,-98.367,59.9,0.47,Tulancingo  Hgo.
20.133,-98.75,62.8,0.28,Pachuca  Hgo.
20.133,-75.233,80.3,0.00,Guantanamo   Guantanamo
20.133,107.717,77.8,0.00,Bach Long Vi
20.244,85.818,88.7,0.00,Bhubaneshwar / Biju Patnaik Intl
20.25,-74.15,81.9,0.00,Punta De Maisi   Guantanamo
20.296,41.634,73.3,0.00,Al Baha / King Saud Bin Abdulaziz
20.365,-74.506,81.1,0.00,Gustavo Rizo
20.367,110.167,83.9,0.00,Xuwen
20.433,106.15,79.9,0.00,Nam Dinh
20.451,121.98,84.0,0.00,Basco
20.504,45.2,86.7,0.00,Wadi Al Dawasir
20.507,-13.043,80.9,0.00,Atar
20.517,-86.917,85.0,0.00,Cozumel Intl
20.522,-103.311,73.8,0.00,Don Miguel Hidalgo Y Costilla Intl / Guadalajara Intl
20.617,-100.186,70.7,0.00,Queretaro Intercontinental
20.667,116.717,80.6,0.00,Dongsha Dao
20.675,58.89,84.0,0.00,Masirah
20.68,-105.254,72.3,0.00,Licenciado Gustavo Diaz Ordaz Intl / Puerto Vallarta Intl
20.783,-156.95,70.2,0.00,Lanai
20.8,106.633,77.5,0.04,Phu Lien
20.8,121.85,81.0,0.00,Itbayat
20.9,-156.429,70.4,0.16,Kahului Airport
20.9,70.367,80.7,0.00,Veraval
20.933,-17.03,65.6,0.00,Nouadhibou
20.937,-89.658,82.9,0.00,Licenciado Manuel Crescencio Rejon Int / Merida Intl
20.95,-156.667,70.8,0.08,Kapalua
20.983,-101.483,74.5,0.00,Guanajuato Intl / Leon Intl
21.0,-101.283,72.7,0.00,Guanajuato  Gto.
21.033,-86.867,80.3,0.00,Cancun Intl
21.033,109.117,74.6,0.00,Wei-Zhou Island
21.092,79.047,90.2,0.00,Dr Baba Saheb Ambedkar Intl
21.15,-157.1,67.9,0.00,Molokai (Amos)
21.2,-76.617,80.3,0.00,Puerto Padre   Las Tunas
21.2,72.833,89.3,0.00,Surat
21.217,110.4,80.6,0.00,Zhanjiang
21.221,105.807,78.8,0.08,Noibai Intl
21.3,-89.65,81.5,0.00,Progreso  Yuc.
21.317,-158.067,71.0,0.43,Kalaeloa Arpt
21.317,-98.817,71.0,0.00,Matlapa  S.L.P.
21.324,-157.929,72.6,0.44,Honolulu International Airport
21.4,-77.85,77.7,0.14,Camaguey  Camaguey
21.419,-104.843,73.3,0.00,Tepic
21.42,-77.848,77.7,0.00,Ignacio Agramonte Intl
21.433,39.767,84.8,0.00,Makkah
21.45,-157.768,67.8,2.40,Kaneohe Mcas
21.452,91.964,84.7,0.00,Coxs Bazar
21.483,40.544,71.9,0.00,Taif
21.483,109.1,74.0,0.00,Beihai
21.487,-158.028,68.2,0.08,Wheeler Army Airfield
21.5,101.583,74.3,0.75,Mengla
21.517,86.933,88.4,0.00,Balasore
21.517,111.3,80.6,0.00,Tian-Cheng
21.55,107.967,75.7,0.28,Dong-Xing
21.68,39.157,77.7,0.00,King Abdulaziz Intl
21.705,-102.318,75.8,0.00,Jesus Teran Intl / Aguascalientes Intl
21.733,-82.767,77.9,0.00,La Fe  Isla De La Juventud
21.733,112.767,78.1,0.00,Shangchuan Dao
21.833,106.767,71.4,0.04,Lang Son
21.835,-82.784,79.9,0.00,Rafael Cabrera
21.867,-84.95,79.5,0.00,Cabo San Antonio   Pinar Del Rio
21.867,111.967,79.5,0.00,Yangjiang
21.9,-159.6,70.6,0.00,Port Allen Arpt
21.914,84.05,92.3,0.00,Jharsuguda / Veer Surendra Sai
21.933,-99.983,70.5,0.00,Rio Verde  S.L.P.
21.933,-79.45,77.7,0.00,Sancti Spiritus   Sancti Spiritus
21.95,108.617,68.3,0.02,Qinzhou
21.984,-159.341,70.9,0.04,Lihue Airport
22.0,100.783,77.0,0.04,Jinghong
22.0,120.75,83.4,0.00,Hengchun
22.027,-78.79,81.2,0.00,Maximo Gomez
22.029,121.534,78.6,0.00,Lanyu
22.033,-159.783,75.5,0.00,Barking Sands Pacific Missile Range Fac Arpt
22.033,121.55,78.1,0.00,Lan Yu
22.041,120.73,84.9,0.00,Hengchun
22.067,-81.033,81.3,0.00,Playa Giron  Matanzas
22.1,-103.267,73.3,0.00,Colotlan  Jal.
22.15,113.592,76.7,0.00,Macau Intl
22.2,-97.85,71.9,0.00,Tampico  Tamps
22.217,-159.45,68.3,0.00,Princeville  Kauai  Hawaii
22.25,91.813,86.0,0.00,Shah Amanat Intl
22.25,109.967,65.5,0.08,Bobai
22.254,-100.931,62.1,0.00,Ponciano Arriaga Intl / San Luis Potosi Intl
22.267,112.783,80.2,0.00,Tai-Shan
22.296,-97.866,72.8,0.00,General Francisco Javier Mina Intl / Tampico Intl
22.309,70.78,87.3,0.00,Rajkot
22.309,113.915,77.9,0.00,Hong Kong Intl
22.312,114.173,77.8,0.00,Kowloon
22.35,56.483,84.4,0.00,Fahud (Aut)
22.35,110.933,77.0,0.00,Xinyi
22.35,120.9,83.9,0.00,Dawu
22.367,106.75,70.9,0.31,Longzhou
22.417,-83.683,79.3,0.13,Pinar Del Rio
22.417,120.55,85.6,0.00,Chia Tung
22.5,103.967,79.8,0.04,Lao Cai
22.533,59.483,82.2,0.55,Sur
22.567,99.933,74.0,0.00,Lancang
22.577,120.35,82.7,0.00,Kaohsiung Intl
22.608,108.172,66.9,0.00,Wuxu
22.617,101.817,68.1,0.28,Jiangcheng
22.633,120.283,82.1,0.00,Kaohsiung
22.639,113.811,79.2,0.00,Baoan Intl
22.655,88.447,91.4,0.00,Netaji Subhash Chandra Bose Intl
22.667,106.25,70.5,0.00,Cao Bang
22.672,120.462,82.6,0.00,Pingtung South
22.683,121.5,78.5,0.00,Lu-Tao
22.7,120.482,82.8,0.00,Pingtung North
22.717,111.55,75.9,0.12,Luoding
22.75,-12.483,70.1,0.00,Zouerate
22.75,121.15,81.3,0.00,Taidong (=595620)
22.755,121.102,81.4,0.00,Taitung / Fongnian
22.767,-81.533,80.4,0.00,Union De Reyes   Matanzas
22.767,100.983,71.2,0.16,Simao
22.783,-102.567,59.2,0.00,Zacatecas  Zac. (La Bufa  Zac.)
22.783,115.367,76.3,0.00,Shanwei
22.783,120.262,81.7,0.00,Gangshan
22.793,121.182,82.1,0.00,Jhihhang
22.8,5.433,68.9,0.00,Tamanrasset
22.8,5.45,70.0,0.00,Tamanrasset
22.813,86.169,92.9,0.00,Jamshedpur
22.817,-80.083,77.6,0.00,Sagua La Grande   Villa Clara
22.897,-102.687,65.1,0.00,General Leobardo C Ruiz Intl / Zacatecas Intl
22.917,-83.167,79.6,0.07,Bahia Honda  Pinar Del Rio
22.95,120.206,82.4,0.00,Tainan
22.989,-82.409,78.5,0.00,Jose Marti Intl
23.0,120.217,82.8,0.00,Tainan
23.034,-81.435,80.0,0.00,Juan Gualberto Gomez Intl
23.05,112.467,75.6,1.02,Gaoyao
23.067,57.633,63.4,0.00,Saiq
23.077,72.635,91.4,0.00,Ahmedabad / Sardar Vallabhbhai Patel Intl
23.083,114.417,78.4,0.02,Hui-Yang
23.083,116.3,76.5,0.00,Huilai
23.1,121.367,82.7,0.00,Cheng-Kung
23.133,106.417,65.3,0.47,Xinjing
23.133,107.65,67.8,0.00,Long'An
23.152,-109.721,81.2,0.00,Los Cabos Intl / San Jose Del Cabo Intl
23.161,-106.266,67.9,0.00,General Rafael Buelna Intl / Mazatlan Intl
23.167,-82.35,80.1,0.01,Casa Blanca   La Habana
23.184,89.161,90.8,0.00,Jessore / Jashore
23.2,-106.417,70.3,0.00,Colonia Juan Carrasco Mazatlan  Sin.
23.267,119.667,81.9,0.00,Dongshi
23.288,69.67,87.1,0.00,Bhuj
23.3,105.95,63.4,0.39,Napo
23.392,113.299,75.7,0.04,Baiyun Intl
23.4,110.083,65.5,1.18,Guiping
23.4,116.683,74.5,0.00,Shantou / Chaoshan
23.43,-162.21,69.2,0.00,Nw Hawaii 170 Nm West Northwest Of Kauai
23.45,103.333,70.2,0.12,Mengzi
23.462,120.393,79.8,0.00,Chiayi
23.483,111.3,64.3,0.55,Wuzhou
23.483,120.95,54.9,0.00,Mount Morrison
23.5,119.5,79.0,0.00,Penghu Islands
23.5,120.45,80.1,0.00,Chiayi
23.517,120.8,59.9,0.00,Mount Alisan
23.55,99.4,74.5,0.02,Gengma
23.569,119.628,77.4,0.00,Magong / Penghu
23.583,103.867,63.9,0.83,Dehoujie
23.593,58.284,79.1,0.16,Seeb Intl / Muscat Intl
23.6,101.983,78.5,0.55,Yuanjiang
23.633,-103.65,68.7,0.00,Sombrerete  Zac.
23.7,-15.867,66.4,0.00,Villa Cisneros(Mil)
23.704,-98.957,73.3,0.00,General Pedro Jose Mendez Intl / Ciudad Victoria Intl
23.742,-99.17,68.1,0.00,Ciudad Victoria   Tamps.
23.767,-98.2,71.9,0.00,Soto La Marina   Tamps.
23.779,90.383,87.7,0.00,Tejgaon
23.8,114.733,75.9,0.35,Heyuan
23.85,109.417,64.0,0.01,Da-Wan
23.883,113.517,72.1,1.06,Fogang
23.883,120.85,72.5,0.00,Joyutang
23.887,91.24,86.6,0.00,Agartala
23.9,106.6,68.3,0.02,Baise
23.95,100.217,67.7,0.08,Lincang
23.95,112.2,72.1,1.14,Huaiji
23.964,32.82,85.5,0.00,Aswan Intl
23.967,115.967,78.4,0.04,Song-Lin-Ba
23.983,121.6,80.0,0.00,Hua-Lien City
24.0,97.85,78.7,0.00,Ruili
24.023,121.618,79.6,0.00,Hualien
24.067,105.067,57.8,0.08,Guangnan
24.073,-110.362,80.5,0.00,General Manuel Marquez De Leon Intl / La Paz Intl
24.124,-104.528,72.4,0.00,Durango Intl
24.144,38.063,77.4,0.00,Yenbo / Prince Abdulmohsin Bin Abdulaziz
24.15,120.683,79.9,0.00,Taichung (=591580)
24.153,89.049,92.7,0.00,Ishurdi
24.167,-110.3,74.8,0.00,La Paz  Bcs
24.186,120.654,80.3,0.00,Taichung
24.2,110.517,61.2,1.81,Mengshan
24.233,55.783,74.0,0.24,Buraimi (Aut)
24.25,120.517,78.1,0.00,Wu-Chi Observatory
24.262,55.609,75.2,0.00,Al Ain Intl
24.265,120.621,75.0,0.00,Taichung Intl / Ching Chuang Kang Ab
24.283,116.067,76.9,0.02,Mei Xian
24.29,153.979,77.2,0.00,Minami Torishima
24.293,9.452,76.3,0.00,Tiska
24.345,124.187,79.2,0.00,New Ishigaki
24.35,109.4,64.0,0.00,Liuzhou
24.367,114.483,73.1,0.47,Lianping
24.428,54.458,77.0,0.00,Al Bateen Executive
24.428,118.359,69.1,0.00,Shang Yi / Kinmen
24.433,54.651,76.5,0.00,Abu Dhabi Intl / Zayed Intl
24.46,-81.88,79.2,0.00,Sand Key  Fl
24.467,56.65,77.6,0.00,Sohar Majis
24.467,111.567,58.8,1.93,Hexian/Babu
24.467,122.978,82.4,0.00,Yonaguni
24.467,123.017,77.8,0.00,Yonagunijima
24.533,103.767,56.8,0.16,Luxi
24.544,118.128,72.2,0.00,Gaoqi
24.553,39.705,83.6,0.00,Prince Mohammad Bin Abdulaziz
24.557,-81.755,81.7,0.00,Key West International Airport
24.583,-81.683,81.0,0.00,Key West Nas
24.6,121.85,75.5,0.01,Suao Met Station
24.63,-81.11,79.9,0.00,Sombrero Key  Fl
24.633,117.65,76.0,0.00,Zhangzhou
24.654,124.675,83.5,0.00,Tarama
24.667,113.6,63.5,0.91,Shaoguan
24.7,108.05,64.8,0.01,Hechi
24.722,46.725,78.2,0.00,King Salman Ab
24.733,-81.05,83.0,0.00,Florida Keys Maratho
24.744,84.951,94.0,0.00,Gaya
24.75,121.767,78.7,0.00,Ilan
24.75,121.783,76.4,0.00,Ilan City
24.765,-107.475,75.1,0.00,Culiacan Intl
24.783,125.295,78.2,0.00,Miyako
24.784,141.323,76.9,0.00,Iwoto
24.8,112.367,59.3,1.81,Lianzhou
24.8,118.583,66.7,0.00,Jin-Jiang
24.818,120.939,75.7,0.00,Hsinchu
24.827,125.145,79.4,0.00,Shimojishima
24.833,120.0,76.0,0.00,Hsinchu City
24.85,89.367,88.2,0.00,Bogra
24.907,67.161,84.2,0.00,Jinnah Intl
24.933,121.3,80.2,0.00,Pa Kuei/Bakuai
24.95,115.65,69.4,0.39,Xunwu
24.958,46.699,78.2,0.00,King Khaled Intl
24.983,98.5,67.2,0.00,Tengchong
24.992,102.744,62.6,0.08,Wujiaba / Changshui
25.0,-111.633,68.9,0.00,Ciudad Constitucion  Bcs
25.01,-80.38,79.4,0.00,Molasses Reef  Fl
25.017,101.517,66.1,0.12,Chuxiong
25.033,121.517,76.3,0.00,Taibei
25.039,-77.466,79.4,0.00,Nassau Intl / Lynden Pindling Intl
25.056,121.243,75.1,0.00,Taoyuan
25.067,109.25,62.0,0.00,Rong-Shui
25.067,116.35,72.7,0.24,Shanghang
25.069,121.552,78.0,0.00,Songshan
25.078,121.233,77.0,0.00,Chiang Kai Shek Intl / Taoyuan Intl
25.083,107.2,62.9,0.08,Tian'E/Liupai
25.117,99.183,66.4,0.00,Baoshan
25.146,10.143,79.1,0.00,Ghat
25.15,51.333,77.9,0.00,Al Udeid Ab / Test
25.15,121.8,72.8,0.08,Chilung
25.17,-94.42,69.4,0.00,W Gulf 240 Nm South-Southeast Of Sabine
25.218,110.039,60.6,0.04,Liangjiang
25.233,86.95,92.8,0.00,Bhagalpur
25.237,-11.589,72.0,0.00,Bir Moghrein
25.255,55.364,76.2,0.00,Dubai Intl
25.261,51.565,77.4,0.00,Doha Intl
25.283,60.617,81.0,0.00,Chahbahar
25.285,49.485,78.2,0.00,Al Ahsa
25.3,117.4,76.2,0.02,Zhang Ping
25.329,55.517,74.8,0.00,Sharjah Intl
25.35,-105.75,63.1,0.00,Tepehuanes  Dgo.
25.367,-101.017,55.2,0.00,Plan De Guadalupe Intl / Saltillo Intl
25.383,68.417,86.7,0.00,Hyderabad Airport
25.4,114.933,63.4,1.06,Xin-Feng
25.433,105.183,56.7,0.01,Xingren
25.433,106.767,66.1,0.00,Luodian
25.45,30.533,84.2,0.00,Kharga
25.483,-80.383,81.7,0.00,Homestead Afb Airport
25.5,28.967,78.2,0.00,Dakhla
25.517,119.783,64.9,0.01,Pingtan
25.568,-103.411,71.3,0.00,Torreon Intl
25.583,103.833,59.2,0.02,Zhanyi
25.59,-80.1,43.5,0.00,Fowey Rocks  Fl
25.591,85.088,93.5,0.00,Jai Prakash Narayan Intl Patna
25.613,55.939,76.8,0.00,Ras Al Khaimah Intl
25.617,111.6,57.1,1.14,Daoxian
25.633,122.067,71.3,0.00,Pengjia Yu(=589740)
25.65,-80.433,78.8,0.00,Kendall Tamiami Exec
25.671,32.707,81.4,0.00,Luxor Intl
25.685,-109.081,76.0,0.00,Valle Del Fuerte Intl / Los Mochis Intl
25.7,100.183,64.0,0.01,Dali
25.717,118.1,60.8,0.35,Jiuxian Shan
25.733,-100.3,64.4,0.00,Monterrey  N.L.
25.733,101.867,80.4,0.01,Yuanmou
25.733,112.967,55.1,1.93,Chenzhou
25.77,-97.525,69.9,0.00,General Servando Canales Intl / Matamoros Intl
25.778,-100.107,65.4,0.00,General Mariano Escobedo Intl / Monterrey Intl
25.788,-80.317,80.5,0.00,Miami International Airport
25.833,107.55,56.3,0.01,Dushan
25.84,-89.66,71.1,0.00,Mid Gulf 180 Nm South Of Southwest Pass
25.847,131.263,77.7,0.00,Minami Daito
25.85,114.95,60.7,0.87,Ganzhou
25.85,116.367,65.0,0.35,Changting
25.866,-100.237,68.7,0.00,Del Norte Intl
25.914,-97.423,66.4,0.00,Brownsville/S Padre Island Intl Ap
25.945,131.327,81.0,0.00,Kitadaito
25.967,108.533,60.1,0.08,Rongjiang
25.967,117.35,71.6,0.39,Yong'An
25.989,-111.348,78.9,0.00,Loreto Intl
26.009,-98.229,69.7,0.00,General Lucio Blanco Intl / Reynosa Intl
26.01,-85.91,73.2,0.00,E Gulf 260 Nm South Of Panama City  Fl
26.072,-80.154,79.8,0.00,Fort Lauderdale Hol
26.083,119.283,67.1,0.55,Fuzhou
26.106,91.586,80.5,0.00,Guwahati Intl / Lokpriya Gopinath Bordoloi Intl
26.133,34.25,75.4,0.00,Kosseir
26.153,-81.775,76.5,0.00,Naples Muni
26.16,119.958,61.0,0.00,Nangan
26.167,109.783,57.8,0.04,Tongdao
26.167,119.933,61.1,0.00,Mazu
26.183,117.617,59.4,0.16,Sanming
26.184,-98.254,66.2,0.00,Mc Allen Miller Intl Arpt
26.196,127.646,76.6,0.00,Naha
26.199,36.476,74.4,0.00,Wejh
26.2,127.683,77.0,0.00,Naha
26.217,56.25,77.8,0.00,Khasab Port
26.228,-97.654,67.2,0.00,Valley International Arpt
26.233,111.617,58.1,0.04,Lingling
26.251,73.049,89.7,0.00,Jodhpur
26.265,50.152,78.0,0.00,King Abdulaziz Ab
26.267,127.75,77.3,0.00,Okinawa Marine Corps Air Station
26.271,50.634,78.2,0.00,Bahrain Intl
26.293,78.228,93.7,0.00,Gwalior
26.3,43.767,79.2,0.00,Gassim
26.356,127.768,78.0,0.00,Kadena Ab
26.364,126.714,76.0,0.00,Kumejima
26.4,103.25,58.7,0.00,Huize
26.517,119.533,63.5,0.63,Luoyuan
26.533,-81.75,73.4,0.00,Southwest Florida I
26.539,106.801,57.5,0.00,Longdongbao
26.559,-78.696,80.1,0.00,Grand Bahama Intl
26.585,-81.861,74.0,0.00,Page Field Airport
26.6,127.233,78.1,0.00,Aguni Island
26.61,-80.03,75.8,0.00,Lake Worth  Fl
26.617,92.783,78.6,0.96,Tezpur
26.633,118.15,69.4,0.35,Nanping
26.65,102.25,65.4,0.00,Huili
26.685,-80.099,76.3,0.03,Palm Beach International Airport
26.7,-79.0,78.6,0.00,Settlement Point  Gbi
26.724,8.623,74.8,0.00,Illizi Takhamalt / Ibrahim Ghouma
26.733,-108.283,78.8,0.00,Choix  Sin.
26.733,110.633,58.6,0.04,Wugang
26.74,83.45,93.7,0.00,Gorakhpur
26.761,80.889,94.9,0.00,Lucknow / Chaudhary Charan Singh Intl
26.8,113.533,56.3,0.67,Chaling
26.824,75.812,90.5,0.00,Jaipur
26.833,100.217,56.9,0.01,Lijing
26.85,116.333,58.7,0.31,Guangchang
26.867,104.283,47.2,0.00,Weining
26.9,70.917,89.0,0.00,Jaisalmer
26.933,-105.667,64.6,0.00,Hidalgo Del Parral   Chih.
26.933,112.583,56.9,0.00,Hengyang
26.95,-96.7,67.7,0.00,Corpus Christi  Tx. 50Nm Southeast Of Co
26.956,-101.47,67.3,0.00,Monclova Intl
26.967,108.667,59.1,0.00,Sansui
27.044,128.402,75.9,0.00,Yoron
27.047,31.012,77.6,0.00,Asyut Intl
27.05,118.317,65.9,0.39,Jian'Ou
27.07,-82.45,68.9,0.00,Venice  Fl
27.092,142.191,77.3,0.00,Chichi Jima Bonin Island
27.117,114.967,58.5,0.75,Ji'An
27.178,33.799,76.5,0.00,Hurghada Intl
27.183,111.45,58.2,0.00,Shaoyang
27.218,56.378,76.2,0.00,Bandar Abbas Intl
27.233,2.5,75.4,0.00,In-Salah
27.236,60.72,78.4,0.00,Iran Shahr
27.3,105.233,50.0,0.00,Bijie
27.3,112.7,47.5,0.02,Nanyue
27.333,62.333,69.0,0.02,Saravan
27.333,103.75,49.0,0.00,Zhaotong
27.333,117.467,61.0,0.24,Shaowu
27.333,120.2,63.6,1.54,Fuding
27.383,-82.55,69.0,0.00,Sarasota Bradenton
27.393,-109.833,81.7,0.00,Santa Rosalia  Bcs
27.426,128.701,72.3,0.20,Okierabu
27.438,41.686,73.1,0.00,Hail
27.444,-99.57,71.3,0.00,Quetzalcoatl Intl / Nuevo Laredo
27.45,109.683,60.3,0.00,Zhijiang
27.45,112.2,57.8,0.08,Shuang-Feng
27.484,95.017,73.5,0.12,Dibrugarh
27.5,-97.817,62.9,0.00,Kingsville Nas
27.506,83.416,94.7,0.00,Bhairahawa / Gautam Buddha
27.55,-99.467,65.9,0.00,Laredo Intl Airport
27.583,116.65,57.7,0.71,Nancheng
27.653,-80.243,72.5,0.00,Vero Beach Muni
27.683,-97.283,65.3,0.00,Corpus Christi Nas
27.697,85.359,74.4,0.00,Tribhuvan Intl
27.7,106.883,59.8,0.00,Zunyi
27.733,89.083,35.9,0.12,Pagri
27.741,-98.025,65.1,0.00,Alice International Arpt
27.765,-82.628,69.2,0.00,Albert Whitted Airport
27.767,118.033,61.8,1.22,Wuyishan
27.774,-97.512,64.8,0.00,Corpus Christi International Airport
27.8,114.383,55.9,0.59,Yichun
27.83,-97.05,65.8,0.00,Port Aransas  Tx
27.836,128.881,74.8,0.00,Tokunoshima
27.838,-0.186,73.5,0.00,Touat Cheikh Sidi Mohamed Belkebir
27.85,-82.517,65.9,0.12,Mac Dill Afb Airport
27.9,-82.683,67.8,0.00,St Petersburg Clear
27.9,102.267,67.3,0.00,Xichang
27.901,45.528,79.1,0.00,King Khaled Military City / King Saud Ab
27.917,118.533,59.8,0.87,Pucheng
27.932,-15.387,65.1,0.00,Gran Canaria
27.95,-110.767,78.4,0.00,Empalme  Son.
27.95,-81.783,66.1,0.00,Bartow Muni
27.95,108.25,65.2,0.00,Sinan
27.962,-82.54,68.9,0.01,Tampa International Airport
27.969,-110.925,82.8,0.00,General Jose Maria Yanez Intl / Guaymas Intl
27.983,-82.017,67.7,0.00,Lakeland Linder Rgn
28.0,73.3,90.6,0.00,Bikaner
28.017,120.667,61.1,0.79,Wenzhou
28.044,-16.572,64.5,0.00,Tenerife Sur
28.05,115.533,58.6,1.06,Qingjiang/Zhangshuz
28.052,9.643,72.1,0.00,In Amenas
28.083,30.733,73.7,0.00,Minya
28.1,119.083,61.6,0.63,Longquan
28.101,-80.644,70.8,0.00,Melbourne Intl Ap
28.117,112.783,57.3,0.39,Changsha
28.133,121.217,57.3,0.75,Yu-Huan
28.209,33.646,73.6,0.00,El Tor
28.233,-80.6,68.2,0.22,Patrick Afb Airport
28.267,109.683,63.3,0.00,Qian-Zhou-Zhen
28.284,68.45,87.8,0.00,Shahbaz Ab
28.3,-91.98,67.5,0.00,South Marsh Island
28.3,126.0,63.1,0.00,Moored Buoy 22001
28.321,129.928,74.4,0.00,Kikai
28.335,46.125,76.4,0.00,Al Qaisumah Intl
28.365,36.619,70.4,0.00,Tabuk / Prince Sultan Bin Abdulaziz
28.394,129.553,72.5,0.31,Naze/Funchatoge
28.417,92.467,46.6,0.00,Lhunze
28.422,79.451,92.1,0.00,Bareilly
28.431,129.713,74.6,0.00,Amami
28.434,-81.325,68.2,0.00,Orlando International Airport
28.45,-16.25,66.9,0.00,Sta. Cruz De Tenerife
28.45,98.883,40.1,0.12,Deqen
28.45,119.917,60.6,0.43,Lishui
28.45,121.883,55.2,0.67,Dachen Dao
28.453,-13.864,64.5,0.00,Fuerteventura
28.457,-99.218,68.1,0.00,Cotulla-La Salle Co Arpt
28.467,110.4,62.7,0.02,Yuanling
28.483,-16.342,57.4,0.00,Tenerife Norte
28.483,117.983,58.2,1.14,Shangrao
28.517,-80.8,67.1,0.00,Space Coast Rgnl
28.519,-80.166,71.4,0.00,Canaveral 20 Nm East Of Cape Canaveral
28.533,-90.583,67.7,0.00,South Timbalier
28.545,-81.333,69.2,0.00,Executive Airport
28.585,77.206,90.4,0.00,Safdarjung
28.6,81.617,88.0,0.00,Surkhet
28.615,-80.694,70.1,0.00,Nasa Shuttle Landing
28.617,121.417,58.1,0.35,Hongjia
28.633,-106.083,66.6,0.00,Chihuahua  Chih.
28.633,87.083,41.7,0.00,Tingri
28.683,118.25,59.5,0.35,Yushan
28.703,-105.965,75.2,0.00,General R Fierro Villalobos Intl / Chihuahua Intl
28.725,-96.254,62.0,0.00,Palacios Municipal Airport
28.75,113.617,59.4,0.47,Pingjiang
28.78,-81.244,66.3,0.00,Orlando Sanford Airport
28.8,104.6,65.9,0.00,Yibin
28.833,108.767,64.1,0.00,Youyang
28.85,112.383,61.4,0.16,Yuanjiang
28.85,121.133,57.6,0.12,Linhai (Replaced By 58652 - Xianju)
28.861,-96.93,62.8,0.00,Victoria Regional Airport
28.865,115.9,59.1,0.43,Changbei Intl
28.883,105.433,66.3,0.00,Luzhou
28.892,53.723,57.8,0.00,Fasa
28.9,-89.43,65.4,0.00,Southwest Pass  La
28.9,-78.55,72.9,0.00,Canaveral East 120Nm East Of Cape Canave
28.945,-13.605,65.1,0.00,Lanzarote
28.95,-107.817,61.3,0.00,Temosachic  Chih.
28.967,118.867,59.9,0.24,Qu Xian
29.0,101.5,47.9,0.01,Jiulong
29.0,135.0,70.6,0.00,Moored Buoy 21004
29.033,114.583,58.4,0.35,Xiushui
29.05,100.3,42.9,0.00,Daocheng
29.05,111.683,62.6,0.04,Changde
29.067,87.683,54.5,0.00,Lhaze
29.096,-111.048,84.5,0.00,General Ignacio P Garcia Intl / Hermosillo Intl
29.15,119.633,59.0,0.16,Jinhua
29.167,-82.217,62.7,0.00,Ocala Intl J Taylor
29.179,75.755,90.1,0.00,Hisar
29.183,-81.048,65.5,0.08,Daytona Beach Intl
29.2,25.483,81.9,0.00,Siwa
29.2,121.95,55.9,0.08,Shipu
29.227,47.969,77.3,0.00,Kuwait Intl
29.237,0.276,67.2,0.00,Timimoun
29.25,-89.967,65.9,0.00,Grand Isle (Sawrs)
29.25,88.883,54.2,0.00,Xigaze
29.27,-89.96,64.4,0.00,Grand Isle  La
29.273,-94.859,67.1,0.00,Scholes Intl At Glston Apt
29.3,117.2,57.4,0.24,Jingdezhen
29.367,-100.783,67.7,0.00,Laughlin Afb Airport
29.369,-10.18,60.6,0.00,Sidi Ifni
29.378,-100.927,66.9,0.00,Del Rio International Airport
29.383,-98.583,63.5,0.00,Lackland Air Force Base (Kelly Field Annex)
29.383,113.083,59.8,0.04,Yueyang
29.4,110.167,63.9,0.01,Sangzhi
29.433,112.183,61.7,0.02,Anxiang
29.476,60.907,67.2,0.00,Zahedan Intl
29.517,103.333,30.6,0.00,Emei Shan
29.533,-98.262,60.5,0.00,Randolph Afb Airport
29.533,109.383,64.8,0.00,Laifeng
29.539,52.589,56.6,0.00,Shiraz Shahid Dastghaib Intl
29.544,-98.484,62.2,0.00,San Antonio International Airport
29.56,-91.533,63.7,0.00,Salt Point
29.561,34.96,80.3,0.00,Eilat
29.567,-90.66,64.3,0.00,Houma-Terrebonne
29.567,94.467,54.2,0.00,Nyingchi
29.583,105.05,65.9,0.00,Neijiang
29.583,111.3,63.7,0.00,Shi-Men
29.583,115.983,48.3,0.20,Lu Shan
29.6,120.817,57.2,0.24,Shengxian
29.612,35.018,75.9,0.00,Aqaba King Hussein Intl
29.626,43.491,73.8,0.00,Rafha
29.633,-83.105,57.8,0.00,Cross City Airport
29.638,-95.282,63.0,0.00,William P Hobby
29.667,91.133,57.4,0.00,Lhasa / Gonggar
29.67,-94.05,62.5,0.00,Sabine  Tx
29.67,-85.36,61.9,0.00,Cape San Blas  Fl
29.692,-82.276,59.5,0.00,Gainesville Rgnl
29.717,113.883,60.8,0.02,Puqi
29.717,118.267,58.5,0.24,Tunxi
29.719,106.642,65.6,0.00,Jiangbei
29.785,40.1,73.4,0.00,Al Jouf
29.817,-90.017,61.4,0.00,New Orleans Nas
29.86,-81.26,60.9,0.00,St. Augustine  Fl
29.883,69.717,72.8,0.00,Bar Khan
29.9,-97.867,58.7,0.00,San Marcos (Awos)
29.917,121.467,58.0,0.01,Ningbo
29.94,34.936,68.6,0.00,Ovda
29.951,-94.021,61.3,0.00,Southeast Texas Regional Airport
29.98,-95.36,61.3,0.00,G Bush Intercontinental Ap/Houston Ap
29.983,103.0,64.3,0.00,Ya'An
29.997,-90.278,64.4,0.00,Louis Armstrong New Orleans Intl Ap
30.0,99.1,61.9,0.04,Batang
30.0,100.267,42.7,0.01,Litang
30.033,-91.883,63.0,0.00,New Iberia/Acadiana
30.033,122.117,56.3,0.04,Dinghai
30.049,-90.029,65.4,0.00,Lakefront Airport
30.05,101.967,39.1,0.08,Kangding
30.067,-95.55,65.5,0.00,Houston/D.W. Hooks
30.067,-85.583,62.2,0.00,Tyndall Afb Airport
30.067,115.333,60.7,0.00,Qizhou
30.09,-88.77,63.8,0.00,Biloxi 22 Nm South-Southeast Of Biloxi
30.122,31.406,71.9,0.00,Cairo Intl
30.125,-93.228,61.3,0.00,Lake Charles Regional Airport
30.133,-2.167,67.0,0.00,Beni-Abbes
30.133,118.15,41.4,0.12,Huang Shan
30.152,9.715,66.5,0.00,Ghadames East
30.167,-102.417,63.5,0.00,Sanderson  Tx.
30.167,35.783,60.9,0.00,Ma'An
30.183,-97.68,64.8,0.00,Bergstrom Afb/Austi
30.2,-85.683,65.0,0.00,Panama City Bay Co
30.203,71.419,79.3,0.00,Multan Intl
30.205,-91.988,60.9,0.00,Lafayette Regional Airport
30.21,-93.143,67.6,0.00,Chennault International Ap
30.217,-81.883,58.8,0.35,Cecil Fld
30.228,120.432,57.9,0.04,Xiaoshan
30.233,-81.667,61.6,0.02,Jacksonville Nas
30.25,-88.07,63.6,0.00,Dauphin Island  Al
30.274,56.951,57.1,0.00,Kerman
30.283,109.467,63.2,0.00,Enshi
30.317,78.033,81.2,0.01,Dehradun
30.321,-97.76,61.0,0.00,Austin/Mueller Muni
30.325,-9.413,62.2,0.00,Al Massira
30.333,-81.517,58.5,0.00,Jacksonville/Craig
30.333,76.467,86.4,0.00,Patiala
30.333,112.183,63.8,0.00,Jiangling
30.35,-87.317,59.4,0.00,Pensacola Nas
30.35,119.417,42.9,0.04,Tianmu Shan (Mtns)
30.367,-107.95,67.7,0.00,Nueva Casas Grandes   Chih.
30.371,-104.017,56.5,0.00,Marfa Municipal Airport
30.371,48.228,80.6,0.00,Abadan
30.383,13.583,69.6,0.00,Gariat El-Sharghia
30.386,130.659,64.7,0.94,Yakushima
30.393,-84.353,59.5,0.00,Tallahassee Regional Airport
30.4,-89.067,63.9,0.00,Gulfport Biloxi Int
30.4,-81.417,61.3,0.00,Mayport Naf
30.417,-88.917,61.3,0.00,Keesler Air Force Base
30.417,-86.683,60.6,0.04,Hurlburt Field Airport
30.478,-87.187,60.7,0.00,Pensacola Regional Airport
30.483,-86.517,59.3,0.00,Valparaiso/Eglin Af
30.495,-81.694,57.2,0.05,Jacksonville International Airport
30.511,-99.766,62.5,0.00,Kimble County Airport
30.537,-91.147,60.4,0.00,Baton Rouge Metro R
30.547,130.95,69.6,0.00,Tanegashima
30.55,81.433,41.4,0.00,T'U-Ko-Erh-Ho-Kung
30.571,2.86,62.7,0.00,El Golea
30.579,103.947,63.6,0.00,Shuangliu
30.589,-96.365,61.2,0.00,Easterwood Fld
30.6,32.25,68.5,0.00,Ismailia
30.617,116.967,59.6,0.00,Anqing
30.617,121.083,57.3,0.02,Zha-Pu
30.626,-88.068,64.5,0.00,Mobile Downtown Airport
30.65,-86.517,65.1,0.00,Duke Fld
30.667,51.583,53.7,0.00,Yasoge
30.683,-97.683,56.9,0.00,Georgetown Muni
30.683,107.8,59.8,0.00,Liangping
30.688,-88.246,59.4,0.00,Mobile Regional Airport
30.717,-111.833,71.7,0.00,Altar  Son.
30.717,-87.017,60.4,0.00,Whiting Field Naval Air Station North
30.717,20.167,77.5,0.00,Agedabia
30.717,130.983,65.9,1.14,Tanegashima
30.733,111.367,64.7,0.00,Yichang
30.733,122.45,55.6,0.01,Shengsi
30.75,106.133,61.0,0.00,Gaoping
30.75,115.667,60.2,0.01,Yingshan
30.783,-86.517,59.8,0.00,Bob Sikes Airport
30.783,-83.277,58.6,0.00,Valdosta Regional Airport
30.783,110.267,46.3,0.00,Lu-Cong-Po
30.784,114.208,62.2,0.02,Tianhe
30.907,41.138,79.1,0.00,Arar
30.939,-6.909,61.3,0.00,Ouarzazate
30.95,88.633,41.1,0.00,Xainza
30.967,-83.2,61.6,0.00,Moody Afb/Valdosta
30.983,101.117,52.1,0.00,Dawu
31.017,109.533,57.7,0.00,Fengjie
31.033,-114.85,80.5,0.00,San Felipe  Bcn
31.033,35.467,79.1,0.00,Ghor Safi
31.05,-93.183,58.3,0.00,Polk Army Airfield
31.067,-97.833,61.2,0.00,Robert Gray Aff Airport
31.083,-97.683,53.1,0.00,Killeen Muni (Awos)
31.133,-97.717,61.6,0.00,Hood Aaf Airport
31.133,114.95,60.4,0.00,Macheng
31.15,-97.4,59.3,0.00,Draughon Miller Cen
31.15,97.167,52.9,0.00,Qamdo
31.15,118.583,60.1,0.00,Wuhuxian
31.152,-81.391,57.4,0.00,Malcolm Mc Kinnon Airport
31.167,112.633,61.6,0.00,Zhongxiang
31.183,-90.471,58.6,0.00,Mcom/Pike Co/J E Lws Fd Ap
31.183,52.667,49.5,0.00,Abadeh
31.184,29.949,69.2,0.00,Alexandria Intl
31.198,121.336,56.5,0.00,Hongqiao Intl
31.2,16.583,66.4,0.00,Sirte
31.2,107.5,61.3,0.00,Da Xian
31.236,-94.754,58.7,0.00,Angelina County Airport
31.25,-81.467,62.8,0.00,Brunswick Golden Is
31.267,-85.717,56.3,0.00,Cairns Army Airfield (Fort Rucker)
31.267,120.617,59.0,0.00,Suzhou
31.267,130.3,61.3,0.63,Makurazaki
31.283,32.233,66.9,0.00,Port Said/El Gamil
31.287,34.723,63.9,0.00,Teyman
31.309,-86.394,60.8,0.00,Andalusia Opp
31.317,-92.55,59.4,0.00,Alexandria Int
31.317,-85.45,58.5,0.00,Dothan Rgnl
31.325,27.222,68.1,0.00,Mersa Matruh
31.337,48.762,72.6,0.00,Ahwaz
31.352,-100.495,62.9,0.00,San Angelo Regional/Maths Field Ap
31.358,69.464,63.3,0.24,Zhob
31.367,90.017,39.0,0.00,Baingoin
31.368,130.845,59.9,0.00,Kanoya
31.395,-92.291,61.2,0.00,Esler Regional Airport
31.399,-9.683,58.9,0.00,Essaouira / Mogador Intl
31.4,116.333,61.2,0.01,Huoshan
31.4,121.467,57.3,0.00,Shanghai
31.412,37.279,68.4,0.00,Guriat
31.417,-87.05,66.7,0.00,Middleton Fld
31.417,95.6,42.4,0.00,Dengqen
31.42,-110.85,64.8,0.00,Nogales Automatic Meteorological
31.433,119.483,58.9,0.00,Liyang
31.45,104.733,63.4,0.00,Mianyang
31.458,-109.606,64.5,0.00,Bisbee Douglas Intl
31.467,-89.333,58.1,0.00,Hattiesburg Laurel
31.483,-97.317,59.1,0.00,Mc Gregor Executive
31.483,92.067,37.1,0.00,Nagqu
31.514,10.598,63.2,0.00,Nalut
31.522,74.404,81.0,0.00,Allama Iqbal Intl
31.536,-84.194,58.6,0.00,Sw Georgia Regional Arpt
31.536,-82.507,61.8,0.00,Alma/Bacon Co.
31.55,31.1,65.3,0.00,Baltim
31.55,74.333,82.3,0.00,Lahore City
31.55,130.55,60.3,0.73,Kagoshima
31.578,-94.71,56.4,0.00,A L Mangham Jr Rgnl
31.583,105.967,61.0,0.04,Langzhong
31.583,131.4,61.9,0.47,Aburatsu
31.588,-110.344,71.4,0.00,Sierra Vista Municipal-Libby Aaf Airport
31.607,-8.036,56.8,0.00,Menara
31.617,-91.3,56.0,0.00,Natchez/Hardy(Awos)
31.617,100.0,44.3,0.00,Garze
31.619,-97.228,58.8,0.00,Waco Regional Airport
31.636,-106.429,71.7,0.00,Abraham Gonzalez Intl / Ciudad Juarez Intl
31.646,-2.27,59.6,0.00,Bechar / Boudghene Ben Ali Lotfi
31.673,6.14,64.0,0.00,Oued Irara / Krim Belkacem
31.693,38.731,70.3,0.00,Turaif
31.71,74.797,83.2,0.09,Amritsar
31.717,113.367,60.4,0.00,Suizhou
31.723,35.993,61.0,0.00,Queen Alia Intl
31.733,98.567,50.6,0.16,Dege
31.733,131.083,58.4,0.59,Miyakonojo
31.742,118.862,60.8,0.00,Lukou
31.767,119.95,60.1,0.00,Changzhou
31.78,-103.202,64.9,0.00,Winkler County Airport
31.78,117.298,61.4,0.00,Luogang / Xinqiao
31.803,130.719,57.7,0.00,Kagoshima
31.811,-106.376,66.4,0.00,El Paso International Airport
31.831,-104.809,59.8,0.00,Guadalupe Pass Amos
31.85,102.7,39.7,0.00,Ma-Tang
31.861,-86.012,61.7,0.00,Troy Municipal Airport
31.865,35.219,58.5,0.00,Jerusalem
31.867,35.217,59.0,0.00,Jerusalem Airport
31.877,131.449,60.3,0.00,Miyazaki
31.883,-81.567,62.9,0.00,Ft Stewart/Wright
31.883,93.783,36.8,0.00,Sog Xian
31.9,102.233,49.0,0.08,Barkam
31.909,70.897,72.3,0.00,D I Khan
31.933,131.417,60.3,0.39,Miyazaki
31.948,-102.209,62.2,0.00,Midland International Airport
31.948,-4.398,60.6,0.00,Moulay Ali Cherif
31.95,-80.68,58.9,0.00,Savannah Light  Ga
31.973,35.992,62.7,0.00,Marka Intl
32.0,-75.083,66.6,0.00,S Hatteras - 250 Nm East Of Charleston
32.009,-81.146,58.8,0.00,Hunter Aaf
32.011,34.887,63.9,0.00,Ben Gurion
32.033,-81.667,44.2,0.12,Mprc-Ft Stewart
32.033,110.767,58.4,0.00,Fangxian
32.033,130.2,59.4,0.39,Akune
32.05,72.667,79.0,0.00,Sargodha
32.067,108.033,60.5,0.00,Wanyuan
32.067,121.6,56.3,0.00,Lusi
32.084,131.451,58.7,0.00,Nyutabaru
32.097,20.269,75.6,0.00,Benina Airport
32.1,34.783,64.3,0.00,Sde-Dov (Tel-Aviv)
32.1,120.867,57.0,0.00,Nantong/Jinsha
32.131,-110.955,71.0,0.00,Tucson International Airport
32.131,-81.202,58.5,0.01,Savannah/Hilton Head Intl Airport
32.133,114.05,58.0,0.00,Xinyang
32.15,112.667,59.7,0.00,Zaoyang
32.161,37.149,69.5,0.00,Prince Hasan
32.167,-110.883,69.5,0.00,Davis-Monthan Afb Airport
32.167,115.617,59.6,0.00,Gushi
32.2,130.033,60.3,0.24,Ushibuka
32.217,130.75,57.9,0.53,Hitoyoshi
32.243,15.021,63.0,0.00,Misurata
32.25,-107.717,71.5,0.00,Deming Muni
32.25,96.217,45.2,0.00,Nangqen
32.267,91.667,37.4,0.00,P'A-Na
32.283,-106.917,63.1,0.00,Las Cruces Intl
32.283,-9.233,57.6,0.00,Safi
32.283,100.333,35.3,0.00,Sertar
32.297,50.842,45.6,0.00,Shahre Kord
32.3,-86.408,58.3,0.00,Montgomery Rgnl (Dannelly Fd) Ap
32.3,84.05,38.3,0.00,Lumaringbo
32.306,10.382,67.4,0.00,Remada
32.321,-90.078,56.8,0.00,Jackson International Airport
32.334,-104.258,62.6,0.00,Cavern City Air Trml Arpt
32.335,-88.744,58.5,0.00,Key Field Airport
32.35,-95.4,62.2,0.00,Tyler Pounds Rgnl
32.35,-85.0,53.3,0.00,Lawson Aaf Airport
32.356,36.259,61.0,0.00,King Hussein
32.367,-64.683,71.9,0.00,Naval Atlantic Meterology & Oceanography Facility
32.367,-6.4,52.8,0.00,Beni-Mellal
32.383,-106.483,73.1,0.00,White Sands  Nm.
32.383,-86.35,62.6,0.00,Maxwell Afb Airport
32.384,3.794,61.0,0.00,Noumerat Moufdi Zakaria
32.385,-94.712,62.3,0.00,East Texas Regional Arpt
32.4,-115.183,86.0,0.00,Ejido Nuevo Leon Bc.
32.401,14.143,65.0,0.00,El Khoms
32.411,-99.682,60.8,0.00,Abilene Regional Airport
32.417,104.517,58.2,0.00,Pingwu
32.433,-99.85,61.2,0.00,Abilene Dyess Afb
32.433,111.733,62.1,0.00,Laohekou
32.447,-93.824,58.6,0.00,Shreveport Regional Airport
32.483,-80.717,58.7,0.20,Beaufort Mcas
32.5,-93.667,56.6,0.00,Barksdale Air Force Base
32.5,80.083,38.7,0.00,Shiquanhe
32.516,-92.041,61.1,0.00,Monroe Regional Airport
32.516,-84.942,56.5,0.00,Columbus Metro Airport
32.533,-6.283,58.0,0.00,Kasba-Tadla
32.539,38.195,68.9,0.00,H4
32.541,-116.97,63.5,0.00,General Abelardo L Rodriguez Intl / Tijuana Intl
32.55,-88.567,56.5,0.00,Meridian Nas/Mc Cain Fd Ap
32.55,35.85,62.4,0.00,Irbid (Met)
32.555,12.056,66.5,0.00,Zuara
32.567,-117.117,63.0,0.00,Naval Auxiliary Landing Fd
32.567,-116.967,67.3,0.00,Brown Fld Muni
32.583,116.783,58.6,0.00,Shouxian/Shouyang
32.583,131.65,59.8,0.16,Nobeoka
32.6,-85.5,56.2,0.00,Auburn Univ. (Amos)
32.6,36.1,63.3,0.00,Dara'A
32.616,-85.433,54.0,0.00,Auburn Opelika Robe
32.631,-115.242,83.6,0.00,General Rodolfo Sanchez Taboada Intl / Mexicali Intl
32.633,-83.6,55.4,0.00,Robins Afb Airport
32.65,-114.617,77.4,0.00,Yuma Mcas
32.664,13.159,63.8,0.00,Tripoli Intl
32.666,128.833,60.1,0.00,Fukue
32.667,-114.6,77.7,0.00,Yuma Marine Corps Air Station/Yuma Intl Airport
32.667,103.6,39.8,0.00,Songpan
32.68,-79.89,59.8,0.00,Folly Island  Sc
32.683,-96.867,65.7,0.00,Dallas Executive
32.683,-16.767,60.8,0.00,Funchal/S.Catarina
32.683,-4.733,45.1,0.00,Midelt
32.685,-83.653,54.6,0.00,Middle Georgia Regional Airport
32.693,-103.213,65.6,0.00,Lea County Regional Airport
32.7,-117.2,61.9,0.00,North Island Nas
32.7,128.833,58.6,0.00,Fukue
32.717,109.033,61.0,0.00,Ankang
32.717,133.017,60.5,0.16,Shimizu
32.733,-113.633,81.2,0.00,Stoval Airfield / Exercise
32.733,-96.967,60.6,0.00,Naval Air Station Operations
32.733,129.867,59.5,0.00,Nagasaki
32.733,130.267,50.4,0.12,Unzendake
32.734,-117.183,63.1,0.00,San Diego International Airport
32.767,-97.45,60.2,0.00,Fort Worth Naval Air Station Jrb/Carswell Field
32.767,110.117,63.4,0.00,Baihe
32.77,-117.23,64.3,0.00,Mission Beach
32.782,-98.06,64.1,0.00,Mineral Wells Airport
32.783,119.45,60.5,0.00,Gaoyou
32.8,67.633,56.8,0.00,Fob Nawbahar
32.809,35.043,66.2,0.00,Haifa
32.816,-117.14,65.7,0.00,Montgomery Fld
32.817,-115.683,81.3,0.00,Naf
32.817,130.7,59.0,0.12,Kumamoto
32.819,-97.361,59.5,0.00,Fort Worth Meacham
32.833,-116.967,69.5,0.00,Gillespie Fld
32.834,-115.579,76.1,0.00,Imperial Co
32.837,130.855,55.9,0.00,Kumamoto
32.85,-109.633,64.0,0.00,Safford Rgnl
32.85,-106.1,60.6,0.00,Holloman Afb
32.85,117.3,59.5,0.00,Bengbu
32.85,120.283,56.7,0.00,Dongtai
32.852,-96.856,61.9,0.00,Dallas Love Fld
32.867,-117.133,63.4,0.00,San Diego/Miramar N
32.867,115.733,58.1,0.00,Fuyang
32.883,-112.717,81.5,0.00,Gila Bend Af Aux
32.883,131.067,45.7,0.43,Asosan
32.898,-97.019,60.6,0.00,Dallas/Ft Worth International Ap
32.898,59.266,52.7,0.12,Birjand
32.899,-80.041,59.0,0.01,Charleston Afb/International Airport
32.9,95.3,37.1,0.00,Zadoi
32.917,129.914,59.5,0.00,Nagasaki
32.917,132.7,60.7,0.20,Sukumo
32.933,73.717,79.2,0.00,Jhelum
32.933,113.917,57.6,0.00,Zhumadian
32.95,-111.767,69.2,0.00,Casa Grande Muni
32.967,-96.833,64.2,0.00,Addison
32.983,-97.317,63.5,0.00,Fort Worth Alliance
33.017,96.95,41.9,0.00,Yushu
33.017,129.183,59.9,0.00,Kamigoto
33.023,-118.588,62.6,0.00,Nalf/F. Sherman Fld Arpt
33.067,-96.067,66.4,0.00,Majors
33.067,107.033,61.0,0.00,Hanzhong
33.068,6.089,61.2,0.00,Sidi Mahdi / Nesrat Hachani
33.073,-16.35,60.4,0.00,Porto Santo
33.1,112.483,59.1,0.00,Nanyang
33.115,139.786,65.5,0.00,Hachijojima
33.117,139.783,66.2,1.30,Hachijojima
33.167,129.733,59.3,0.00,Sasebo
33.2,126.267,54.3,0.00,Mosulpo (Kor-Afb)
33.212,-87.616,55.8,0.00,Tuscaloosa Municipal Arpt
33.217,129.05,61.7,0.00,Ojika Island
33.22,-117.4,58.6,0.00,Oceanside Harbor
33.221,-92.814,57.0,0.00,S. Ar Rgnl At Gdwin Fld Ap
33.233,131.617,57.9,0.08,Oita
33.233,132.55,59.0,0.20,Uwajima
33.237,-107.268,59.6,0.00,Trh Or Conseqces Muni Arpt
33.24,-119.458,56.7,0.00,San Nicolas Island Naval Outlying Field
33.25,126.567,57.3,0.00,Seogwipo
33.25,134.183,58.7,1.18,Murotomisaki
33.267,130.3,60.0,0.00,Saga
33.294,126.163,55.5,0.00,Gosan
33.3,-117.35,60.4,0.00,Marine Corps Air Station
33.308,-104.508,65.6,0.00,Roswell International Air Center Ap
33.317,130.417,61.0,0.00,Metabaru (Jasdf)
33.317,130.933,58.5,0.04,Hita
33.333,118.667,60.0,0.00,Hongze Hu (Lake)
33.35,10.483,68.8,0.00,Medenine
33.364,-81.963,55.0,0.03,Augusta Regional At Bush Field Ap
33.367,-7.59,55.6,0.00,Mohammed V
33.367,129.55,58.1,0.00,Hirado
33.4,104.917,61.9,0.00,Wudu
33.412,36.516,63.7,0.00,Damascus Intl
33.417,-112.383,79.8,0.00,Phoenix Goodyear
33.417,109.15,62.3,0.00,Chen-An
33.428,-112.004,75.4,0.00,Phoenix Sky Harbor Intl Airport
33.45,-88.583,56.3,0.00,Golden Triangle Rgnl
33.45,108.25,57.7,0.00,Wen-Huang-Ping
33.45,135.75,58.5,0.08,Shionomisaki
33.456,-93.988,58.1,0.00,Texarkana Regional Airport-Webb Field
33.467,101.483,37.5,0.16,Jigzhi
33.479,131.737,56.8,0.00,Oita
33.483,-90.985,66.1,0.00,Mid Delta Rgnl
33.49,-77.59,58.4,0.00,Frying Pan Shoals  Nc
33.496,-90.087,58.0,0.00,Greenwood Leflore
33.511,6.777,61.8,0.00,Guemar
33.511,126.493,55.2,0.00,Jeju Intl
33.517,126.533,56.5,0.00,Jeju
33.536,-0.242,38.1,0.00,Mecheria
33.546,133.669,61.1,0.00,Kochi
33.55,-112.367,73.6,0.00,Luke Afb Airport
33.557,-7.66,58.2,0.00,Anfa
33.566,-86.745,54.8,0.00,Birmingham International Airport
33.567,133.55,60.8,0.22,Kochi
33.583,102.967,38.0,0.00,Ruo'Ergai
33.583,130.383,60.2,0.02,Fukuoka
33.586,130.451,59.7,0.00,Fukuoka
33.587,-85.856,54.4,0.00,Anniston Metropolitan Arpt
33.6,-117.88,30.9,0.00,Newport Beach
33.6,-102.05,62.6,0.00,Reese Afb/Lubbock
33.6,119.033,58.7,0.00,Qingjiang
33.617,73.099,70.6,0.00,Chaklala
33.619,-114.714,74.5,0.00,Blythe Airport
33.623,-111.911,77.3,0.00,Scottsdale
33.627,-116.159,74.5,0.00,Desert Resorts Rgnl Arpt
33.63,-84.442,55.0,0.00,Hartsfield-Jackson Atlanta Intl Ap
33.633,-95.45,58.7,0.00,Cox Fld
33.65,-88.45,57.5,0.00,Columbus Afb Airport
33.65,130.7,58.9,0.04,Iizuka
33.662,135.364,59.2,0.00,Nanki Shirahama
33.666,-101.823,59.1,0.00,Lubbock International Airport
33.667,-117.733,64.4,0.00,El Toro Mcas
33.68,-117.866,64.6,0.00,J. Wayne Apt-Orange Co Apt
33.683,-78.933,57.1,0.00,Myrtle Beach Intl Airport
33.685,131.04,57.2,0.00,Tsuiki
33.7,-117.833,65.8,0.00,Fob Dwyer
33.7,8.967,66.6,0.00,Kebili
33.717,1.083,44.1,0.00,El-Bayadh
33.72,-96.67,64.3,0.00,Sherman-Denison
33.749,129.785,60.8,0.00,Iki
33.75,-119.08,55.7,0.00,Santa Monica Basin - 33Nm West Southwest
33.75,99.65,35.8,0.08,Darlag
33.75,105.75,60.8,0.00,Cheng-Xian
33.75,120.3,54.7,0.00,Sheyang
33.767,-84.517,52.5,0.00,Fulton Co Arpt Brow
33.783,-118.05,61.3,0.00,Los Alamitos Aaf
33.783,114.517,57.7,0.00,Xihua
33.783,115.733,55.8,0.00,Boxian
33.8,97.133,31.2,0.08,Qingshui-He
33.802,-118.342,65.3,0.00,Torrance Airport
33.812,-118.146,63.6,0.00,Long Beach / Daugherty Field / Airport
33.816,-78.72,62.6,0.00,Grand Strand Airport
33.817,35.85,62.4,0.00,Houche-Al-Oumara
33.821,35.488,65.9,0.00,Rafic Hariri Intl
