lat,lon,temp,precip,name
-90.0,0.0,-70.5,0.00,Amundsen-Scott
-89.0,-1.017,-68.4,0.00,Henry
-83.133,174.167,-6.3,0.00,Elaine
-80.37,77.37,-54.8,0.00,Dome Plateau Dome A
-80.033,-178.633,-22.8,0.00,Gill
-79.9,169.983,-26.3,0.00,Schwerdtfeger
-78.467,168.383,-6.0,0.00,Linda
-77.95,166.5,-3.5,0.00,Pegasus North
-77.9,170.817,-10.6,0.00,Ferrell
-77.867,-34.617,-12.7,0.00,Base Belgrano Ii
-77.85,166.667,4.5,0.12,Mcmurdo
-77.433,163.75,3.6,0.00,Marble Point
-76.05,65.017,-55.6,0.00,Davis Lgb 35 Aws
-75.61,-26.272,-7.4,0.00,Halley
-75.017,-62.533,-2.5,0.00,Navy Operated(Amos)
-74.95,163.683,-5.6,0.00,Manuela
-73.833,55.667,-61.1,0.00,Mawson (Lgb 20 Aws)
-73.45,76.783,-40.5,0.00,Davis (Lgb 59 Aws)
-73.2,-127.05,25.9,0.00,Mount Siple
-73.05,-13.383,-9.2,0.00,Nordenskiold Base
-72.2,-60.167,-17.1,0.00,Univ. Wi Id 8902 (Butler Island)
-71.883,171.2,5.2,0.00,Possession Is
-71.3,59.217,-57.7,0.00,Mawson (Lgb10 Aws)
-70.767,11.75,6.9,0.00,Maitri
-70.767,11.833,5.8,0.00,Novolazarevskaja
-70.667,-8.25,0.7,0.00,Neumayer
-69.0,39.583,3.2,0.00,Syowa
-68.583,77.967,16.9,0.00,Davis
-68.117,-67.133,26.7,0.00,Base San Martin
-67.667,45.85,-6.1,0.00,Molodeznaja
-67.6,62.867,-0.4,0.00,Mawson
-67.017,-61.467,-8.6,0.00,Univ. Wi Id 8926 (Larsen Ice Shelf)
-66.667,140.017,4.8,0.00,Dumont D'Urville
-66.55,93.017,9.3,0.00,Mirnyj
-66.283,110.533,14.0,0.00,Casey
-64.233,-56.717,10.5,0.04,Base Marambio (Centro Met. Antartico)
-63.4,-56.983,23.7,0.08,Base Esperanza
-63.317,-56.683,27.2,1.18,Base Bernardo O'Higgins
-62.5,-59.683,33.5,0.39,Base Arturo Prat
-62.233,-58.633,35.9,0.00,Base Carlini
-62.217,-58.967,33.1,0.35,Great Wall
-62.183,-58.983,33.0,0.16,Centro Met. Antartico Pdte. Eduardo Frei
-62.183,-58.883,33.3,0.24,Bellingshausen Aws
-62.183,-58.85,34.2,0.71,Dinamet-Uruguay
-60.733,-44.733,19.3,0.04,Base Orcadas
-56.475,-68.73,48.4,0.04,Isla Diego Ramirez
-56.283,-27.583,30.1,0.00,Zavodovski Is.
-54.843,-68.296,51.7,0.00,Ushuaia Malvinas Argentinas
-54.7,-67.25,44.2,0.00,Tolhuin
-54.499,158.937,45.7,0.24,Macquarie Island
-54.433,3.283,34.7,0.00,Bouvet Island
-54.283,-36.5,35.9,0.00,Grytviken
-53.778,-67.749,41.5,0.00,Rio Grande
-53.003,-70.855,41.1,0.00,Carlos Ibanez Del Campo Intl
-52.433,-59.083,42.2,0.00,Sea Lion Island
-52.4,-75.1,48.2,0.00,Islotes Evangelistas
-51.9,-60.917,41.7,0.00,Weddell Island
-51.823,-58.447,39.4,0.00,Mount Pleasant
-51.609,-69.313,45.8,0.00,Rio Gallegos
-51.317,-59.6,42.0,0.00,Pebble Island
-50.483,166.3,51.6,0.55,Enderby Island Aws
-50.333,-72.3,50.1,0.00,Lago Argentino Arpt
-49.35,70.25,41.8,0.04,Port-Aux-Francais (Iles Kerguelen)
-49.307,-67.803,52.6,0.00,San Julian
-47.735,-65.904,52.3,0.00,Puerto Deseado
-46.875,37.86,42.1,0.01,Marion Island
-46.517,-71.017,50.0,0.00,Perito Moreno Arpt
-46.433,51.85,41.1,0.28,Alfred Faure (Iles Crozet)
-46.15,166.6,58.1,0.02,Puysegur Point Aws
-45.916,-71.689,50.9,0.00,Balmaceda
-45.785,-67.466,51.9,0.00,Comodoro Rivadavia
-45.767,170.733,51.7,0.00,Taiaroa Head
-45.217,166.883,56.0,0.00,Secretary Island Aws
-45.017,168.733,44.8,0.00,Queenstown Aerodrome
-44.4,171.25,51.9,0.00,Timaru Harbour
-43.95,-176.567,50.8,0.04,Chatham Islands Aws
-43.867,169.0,54.0,0.00,Haast Aws
-43.65,146.267,52.4,0.12,Maatsuyker Island Lighthouse
-43.5,147.15,54.1,0.04,Cape Bruny Lighthouse
-43.489,172.532,49.6,0.00,Christchurch Intl
-43.483,172.517,49.1,0.00,Christchurch Aero Aws
-43.211,-65.27,52.5,0.00,Almirante Zar
-43.167,147.833,52.9,0.02,Port Arthur /Palmer
-42.983,145.5,53.9,0.00,Low Rocky Point (Aws)
-42.908,-71.139,49.2,0.00,Esquel
-42.9,147.233,36.2,0.02,Mt Wellington
-42.883,147.333,55.3,0.00,Hobart (Ellerslie Road)
-42.836,147.51,54.5,0.00,Hobart
-42.717,170.983,53.7,0.04,Hokitika Aerodrome Aws
-42.199,145.17,55.1,0.00,Cape Sorell
-42.15,145.283,54.8,0.12,Strahan Aerodrome
-41.943,-71.532,54.5,0.00,El Bolson
-41.733,171.567,54.7,0.00,Westport Aerodrome
-41.717,174.267,55.2,0.00,Cape Campbell Aws
-41.617,147.733,47.4,0.24,Storys Creek Aws
-41.545,147.214,53.3,0.12,Launceston
-41.439,-73.094,54.4,0.00,El Tepual Intl
-41.333,174.8,54.0,0.00,Wellington Aero Aws
-41.327,174.805,53.8,0.00,Wellington Intl
-41.3,173.2,55.9,0.00,Nelson Aerodrome Aws
-41.25,-68.733,46.6,0.00,Maquinchao
-41.167,146.417,56.7,0.16,Devonport Airport
-41.151,-71.158,50.4,0.00,San Carlos De Bariloche
-41.05,146.8,57.7,0.12,Low Head (Lgt-H)
-41.0,145.733,55.0,0.28,Wynyard Airport
-41.0,148.35,58.2,0.04,Larapuna (Eddystone Point)
-40.917,144.7,56.5,0.39,Marrawah
-40.9,174.983,51.0,0.00,Paraparaumu Aws
-40.869,-63.0,51.4,0.00,Gobernador Castello
-40.783,-65.1,54.2,0.00,San Antonio Oeste Aero
-40.733,148.117,59.2,0.00,Swan Island Lightho
-40.667,144.683,56.4,0.04,Cape Grim Baps
-40.55,173.0,57.9,0.00,Farewell Spit Aws
-40.35,-9.883,56.8,0.02,Gough Island
-40.317,175.6,48.1,0.00,Palmerston North Aws
-40.1,148.0,59.0,0.04,Flinders Island Airport
-39.883,143.883,58.6,0.04,King Island Airport
-39.65,-73.086,52.1,0.12,Pichoy
-39.467,175.683,40.6,0.08,Waiouru Aws
-39.467,176.867,53.8,0.00,Napier Aerodrome Aws
-39.217,146.983,84.3,0.00,Hogan Island
-39.117,146.417,58.1,0.16,Wilsons Promontory Lighthouse
-39.017,174.183,52.5,0.00,New Plymouth Aws
-38.949,-68.156,57.3,0.00,Presidente Peron
-38.85,143.517,58.3,0.00,Cape Otway Lighthouse
-38.767,-72.637,54.0,0.04,Maquehue
-38.725,-62.169,53.3,0.00,Comandante Espora
-38.663,177.978,53.0,0.00,Gisborne
-38.6,145.583,57.5,0.04,Wonthaggi
-38.45,144.1,56.5,0.00,Aireys Inlet
-38.45,145.3,58.4,0.02,Rhyll (Aws)
-38.433,141.55,58.8,0.20,Cape Nelson Lighthouse
-38.4,142.233,58.3,0.00,Port Fairy Aws
-38.387,-60.33,56.4,0.00,Tres Arroyos
-38.35,145.167,58.1,0.02,Cerberus Aws
-38.317,141.467,57.9,0.04,Portland Cashmore Airport
-38.283,142.433,57.8,0.00,Warrnambool Airport
-38.217,146.467,55.8,0.02,Latrobe Valley Airport
-38.167,144.367,57.6,0.00,Geelong Racecourse
-38.15,145.117,59.4,0.00,Frankston Aws
-38.1,144.533,58.3,0.00,Point Wilson
-38.099,147.149,57.8,0.00,East Sale
-38.067,142.767,56.5,0.00,Mortlake Racecourse
-37.976,145.102,58.8,0.12,Melbourne Moorabbin
-37.934,-57.573,58.7,0.00,Mar Del Plata
-37.9,144.117,55.7,0.00,Sheoaks Aws
-37.867,144.75,57.6,0.04,Laverton Raaf
-37.867,145.333,52.3,0.04,Ferny Creek
-37.867,148.0,60.8,0.00,Lakes Entrance
-37.817,144.967,60.3,0.00,Melbourne Regional Office
-37.8,77.533,59.6,0.00,Martin De Vivies (Ile Amsterdam)
-37.8,149.267,69.2,0.00,Point Hicks (Lighthouse)
-37.75,147.133,60.0,0.00,Mt Moornapa
-37.733,140.783,59.1,0.04,Mount Gambier Aero
-37.728,144.902,58.6,0.00,Melbourne Essendon
-37.683,148.45,60.0,0.00,Orbost (Comparison)
-37.673,144.843,58.4,0.00,Melbourne Intl
-37.672,176.196,54.0,0.00,Tauranga
-37.65,142.067,56.4,0.02,Hamilton Airport
-37.6,149.733,60.6,0.00,Mallacoota
-37.567,149.9,61.3,0.00,Gabo Island Lighthouse
-37.55,178.3,56.9,0.00,Hicks Bay Aws
-37.517,143.783,53.3,0.00,Ballarat Aerodrome
-37.383,144.967,52.7,0.00,Kilmore Gap
-37.333,149.017,59.4,0.00,Combienbar
-37.283,142.983,54.8,0.00,Ararat Prison
-37.25,150.05,61.0,0.00,Green Cape Aws
-37.237,-59.228,55.9,0.00,Tandil
-37.233,143.2,46.5,0.02,Ben Nevis
-37.217,145.833,53.7,0.00,Eildon Fire Tower
-37.217,148.267,57.6,0.00,Gelantipy
-37.15,146.433,40.1,0.00,Mount Buller Aws
-37.017,144.533,54.7,0.00,Redesdale
-37.008,174.792,56.5,0.00,Auckland Intl
-37.0,149.233,53.9,0.00,Bombala Aws
-37.0,174.8,56.0,0.00,Auckland Aero Aws
-36.967,139.717,61.9,0.04,The Limestone
-36.967,147.133,39.8,0.00,Mount Hotham
-36.95,140.733,60.6,0.04,Naracoorte
-36.883,-60.217,58.6,0.00,Olavarria Aero
-36.883,145.183,57.8,0.00,Mangalore Airport
-36.867,147.267,40.9,0.04,Falls Creek Aws
-36.773,-73.063,53.6,0.00,Carriel Sur Intl
-36.733,144.317,54.5,0.00,Bendigo Airport Aws
-36.667,149.817,55.4,0.00,Bega Aws
-36.65,142.067,55.3,0.02,Horsham Polkemmet Rd
-36.588,-64.276,57.3,0.00,Santa Rosa
-36.55,145.967,61.7,0.00,Benalla (Shadforth Street)
-36.417,146.3,61.5,0.00,Wangaratta Aero
-36.35,-57.733,58.9,0.00,Dolores Airport
-36.3,148.967,53.4,0.00,Cooma Airport Aws
-36.2,-61.067,57.1,0.00,Bolivar Aero
-36.2,147.883,58.0,0.00,Corryong (Parish Lane)
-36.1,140.35,59.3,0.00,Keith
-36.067,146.95,60.6,0.00,Albury Aeroport
-35.917,150.15,60.5,0.00,Moruya Heads Pilot Station
-35.9,175.1,61.3,0.00,Mokohinau Aws
-35.85,138.133,62.3,0.02,Cape Willoughby
-35.845,-61.858,61.3,0.00,Comodoro P Zanni
-35.75,136.583,61.9,0.00,Cape Borda
-35.696,-63.758,57.9,0.55,General Pico
-35.667,145.617,61.4,0.16,Frankston (Ballam Park)
-35.567,138.283,57.0,0.02,Second Valley Forest
-35.55,144.933,63.7,0.00,Deniliquin Post Off
-35.494,-69.574,50.7,0.00,Malargue
-35.433,149.783,57.2,0.00,Braidwood Racecourse Aws
-35.383,143.533,64.0,0.00,Swan Hill Aerodrome
-35.35,150.483,68.1,0.00,Ulladulla Aws
-35.333,136.117,63.5,0.00,Neptune Island
-35.333,140.517,59.9,0.04,Lameroo Comparison
-35.307,149.195,54.7,0.00,Canberra
-35.165,147.466,58.7,0.00,Wagga Wagga
-35.117,137.733,61.4,0.02,Edithburgh Aws
-35.117,139.267,65.5,0.00,Murray Bridge
-35.117,174.017,58.8,0.00,Purerua
-35.083,150.8,65.2,0.00,Jervis Bay
-34.983,137.4,62.8,0.02,Warooka
-34.972,-57.895,60.9,0.00,La Plata
-34.967,-71.217,52.0,0.00,Curico/Gen Freire
-34.967,138.7,52.2,0.00,Mount Lofty
-34.949,150.537,64.0,0.00,Nowra
-34.945,138.531,60.0,0.04,Adelaide Intl
-34.941,117.802,59.7,0.24,Albany Airport
-34.917,138.617,59.5,0.08,Kent Town
-34.914,-54.921,64.0,0.00,El Jaguel Intl
-34.855,-55.094,64.0,0.00,Capitan Corbeta C A Curbelo Intl
-34.85,-56.2,64.0,0.00,Prado
-34.838,-56.031,62.0,0.00,Carrasco Intl
-34.833,20.017,63.6,0.00,Cape Agulhas
-34.822,-58.536,60.6,0.43,Ministro Pistarini
-34.817,149.733,54.1,0.00,Goulburn Airport Aws
-34.793,138.633,57.7,0.02,Adelaide Parafield
-34.789,-56.265,64.1,0.04,Angel S Adami
-34.703,138.621,57.7,0.04,Edinburgh
-34.633,148.033,60.8,0.00,Cootamundra Airport
-34.605,135.88,64.3,0.00,Port Lincoln
-34.6,135.883,60.7,0.02,Port Lincoln Aero
-34.588,-68.403,53.7,0.00,San Rafael
-34.583,-58.483,63.0,0.71,Buenos Aires (Obs)
-34.559,-58.416,62.8,0.51,Aeroparque Jorge Newbery
-34.546,-60.931,56.4,0.00,Junin
-34.533,144.867,61.8,0.00,Hay Aws
-34.517,144.85,62.3,0.00,Hay (Miller Street)
-34.501,-58.604,60.2,0.35,Don Torcuato
-34.483,-54.3,64.2,0.39,Rocha
-34.483,150.4,62.2,0.00,Bowral (Parry Drive)
-34.456,-57.771,64.2,0.16,Laguna De Los Patos Intl
-34.433,172.683,59.1,0.00,Cape Reinga Aws
-34.383,135.367,62.5,0.08,Coles Point
-34.383,137.667,61.8,0.00,Maitland
-34.367,115.133,64.4,0.08,Cape Leeuwin
-34.35,18.5,63.3,0.00,Cape Point
-34.317,146.067,60.4,0.00,Griffith Aws
-34.25,148.25,54.4,0.00,Young Airport
-34.183,22.15,62.1,0.00,Mossel Bay (Lgt-H)
-34.183,139.083,58.2,0.00,Eudunda
-34.167,140.75,66.3,0.00,Renmark
-34.083,-56.233,60.5,0.00,Florida
-34.006,22.379,61.3,0.00,George
-33.985,25.617,66.3,0.00,Port Elizabeth Intl / Chief Dawid Stuurman Intl
-33.965,18.602,63.2,0.00,Cape Town Intl
-33.95,116.133,62.1,0.00,Bridgetown Post Office
-33.946,151.177,68.1,0.00,Sydney Intl
-33.924,150.988,64.9,0.00,Sydney Bankstown
-33.9,150.733,62.6,0.00,Badgery'S Creek Airport
-33.9,151.117,63.7,0.00,Canterbury Racecourse
-33.883,119.1,58.4,0.00,Jacup
-33.85,148.65,63.7,0.00,Cowra Airport Comparison
-33.85,151.2,68.0,0.00,Sydney (Observatory Hill)
-33.833,121.893,62.7,0.04,Esperance
-33.817,138.6,56.4,0.00,Clare High School
-33.73,-65.387,52.6,0.00,Villa Reynolds
-33.717,150.283,59.2,0.00,Katoomba (Narrow Neck Rd)
-33.717,150.683,64.2,0.00,Penrith
-33.683,117.55,59.6,0.00,Katanning Comparison
-33.683,121.833,59.9,0.00,Esperance Aero
-33.65,134.883,63.6,0.00,Elliston
-33.633,-78.833,62.6,0.00,Juan Fernandez
-33.617,150.267,58.3,0.00,Mount Boyce
-33.533,115.017,61.7,0.04,Cape Naturaliste
-33.483,145.517,64.1,0.00,Hillston Airport
-33.417,149.65,51.6,0.00,Bathurst Airport Aws
-33.393,-70.786,55.4,0.00,Arturo Merino Benitez Intl
-33.383,149.117,56.8,0.00,Orange Airport Comparison
-33.367,147.917,62.2,0.00,Forbes Airport
-33.359,-56.499,64.3,1.02,Santa Bernardina Intl
-33.3,117.333,62.8,0.00,Wagin
-33.283,151.567,68.5,0.00,Norah Head Lighthou
-33.273,-66.356,58.2,0.08,San Luis
-33.267,151.567,67.2,0.00,Norah Head Lighthouse
-33.25,-58.067,64.3,0.20,Mercedes/Ricardo De
-33.217,-54.383,64.5,1.77,Treinta Y Tres
-33.133,135.55,64.2,0.00,Kyancutta
-33.133,148.167,63.0,0.00,Parkes (Macarthur Street)
-33.117,118.467,63.2,0.00,Lake Grace Comparison
-33.085,-64.261,56.0,0.00,Rio Cuarto Area De Material
-33.083,-68.417,60.7,0.00,San Martin
-33.067,147.217,63.0,0.00,Condobolin Airport
-33.059,137.514,60.8,0.00,Whyalla
-33.036,27.826,65.7,0.01,East London / King Phalo
-33.033,138.75,58.8,0.00,Yongala
-33.017,137.517,63.2,0.00,Whyalla
-33.01,-58.613,63.8,0.71,Gualeguaychu
-32.969,18.16,67.2,0.00,Langebaanweg Afb
-32.917,151.783,68.2,0.00,Newcastle Nobbys Signal Station
-32.904,-60.785,63.6,0.12,Rosario
-32.9,144.283,70.7,0.00,Ivanhoe Post Office
-32.897,27.279,59.4,0.02,Bhisho
-32.833,17.85,66.8,0.00,Cape Columbine
-32.832,-68.793,60.4,0.08,El Plumerillo
-32.8,-56.517,63.1,0.00,Paso De Los Toros
-32.795,151.834,67.0,0.00,Williamtown
-32.733,150.233,57.9,0.00,Nullo Mountain Aws
-32.684,-62.158,60.3,0.39,Marcos Juarez
-32.683,-57.633,63.8,3.66,Young
-32.567,149.617,56.8,0.00,Mudgee Airport Aws
-32.517,115.717,64.9,0.00,Mandurah
-32.433,136.067,63.2,0.04,Mount Ive
-32.365,-58.061,66.0,2.64,Tydeo Larre Borges Intl
-32.338,-54.217,67.2,0.51,Cerro Largo
-32.333,117.867,55.9,0.00,Corrigin
-32.233,126.3,66.9,0.00,Eyre
-32.217,148.575,60.3,0.00,Dubbo
-32.133,133.7,58.6,0.00,Ceduna Amo
-32.1,115.883,62.3,0.00,Jandakot Aero
-32.033,150.833,63.8,0.00,Scone Airport
-32.017,115.5,64.5,0.24,Rottnest Island
-32.0,141.467,64.8,0.00,Broken Hill Airport Aws
-31.95,115.767,64.1,0.04,Swanbourne
-31.95,116.05,62.4,0.00,Goosebery Hill
-31.945,-65.146,61.0,0.02,Villa Dolores
-31.94,115.967,63.0,0.00,Perth Intl
-31.917,115.867,63.4,0.02,Perth Metro
-31.795,-60.48,62.4,0.20,General Urquiza
-31.768,150.842,60.4,0.00,Murrurundi (Haydon Street)
-31.749,-55.926,66.5,0.83,Tacuarembo
-31.712,-60.812,65.0,0.04,Sauce Viejo
-31.68,128.879,60.5,0.00,Eucla
-31.668,116.015,59.9,0.00,Pearce
-31.667,-63.883,59.5,0.01,Pilar Observatorio
-31.65,117.25,60.3,0.00,Cunderdin
-31.571,-68.418,64.4,0.00,San Juan
-31.567,143.367,74.8,0.00,Wilcannia (Reid St)
-31.55,147.183,67.0,0.00,Nyngan Airport
-31.542,159.079,71.1,0.16,Lord Howe Island Aero
-31.533,145.8,63.9,0.00,Cobar Airport Aws
-31.5,19.726,66.7,0.00,Calvinia
-31.483,145.833,68.2,0.00,Cobar Mo
-31.467,118.267,60.9,0.00,Merredin
-31.433,-57.983,65.3,1.14,Nueva Hesperides Intl
-31.433,152.85,68.1,0.00,Port Macquarie Airport Aws
-31.324,-64.208,58.5,0.00,Ambrosio L V Taravella
-31.297,-57.997,66.1,3.39,Comodoro Pierrestegui
-31.267,149.267,59.0,0.02,Coonabarabran (Namoi Street)
-31.233,119.333,64.0,0.00,Southern Cross
-31.144,136.817,64.9,0.00,Woomera
-31.083,125.65,64.7,0.00,Balgair
-31.067,150.833,62.9,0.04,Tamworth Airport Aws
-31.017,115.317,65.1,0.00,Lancelin
-30.975,-55.476,65.7,3.03,Presidente General Don Oscar D Gestido
-30.917,153.083,72.8,0.00,Smoky Cape Lighthouse
-30.9,116.717,61.6,0.00,Wongan Hills
-30.85,143.083,65.1,0.00,White Cliffs
-30.833,128.117,63.3,0.00,Forrest
-30.789,121.462,64.4,0.00,Kalgoorlie Boulder
-30.717,134.583,66.6,0.00,Tarcoola
-30.667,24.017,63.8,0.00,Deaar(Ua)
-30.617,130.4,70.8,0.00,Cook
-30.533,151.667,60.9,0.00,Armidale (Tree Group Nursery)
-30.401,-56.508,65.7,5.24,Artigas Intl
-30.367,-66.283,65.8,0.00,Chamical Aero
-30.35,28.8,59.5,0.00,Matatiele
-30.345,-66.294,63.3,0.00,Chamical
-30.321,153.116,69.7,0.00,Coffs Harbour
-30.3,115.033,67.7,0.00,Jurien Bay
-30.283,116.667,61.5,0.00,Dalwallinu Comparison
-30.272,-57.64,64.6,3.39,Monte Caseros
-30.267,-57.583,66.2,3.43,Bella Union
-30.033,148.117,69.2,0.00,Walgett Airport
-29.994,-51.171,69.7,0.00,Salgado Filho
-29.97,30.951,70.1,0.00,Durban Intl
-29.916,-71.2,57.5,0.00,La Florida
-29.883,-61.95,63.8,0.04,Ceres
-29.782,-57.038,69.0,1.50,Rubem Berta
-29.771,-57.979,67.1,3.50,Curuzu Cuatia
-29.733,151.733,59.1,0.02,Glen Innes Post Office
-29.689,-57.152,66.6,2.01,Paso De Los Libres
-29.689,17.94,73.9,0.00,Springbok
-29.65,138.067,64.3,0.00,Marree Comparison
-29.491,149.846,66.1,0.00,Moree Aero
-29.433,142.0,66.6,0.00,Tibooburra Post Office
-29.433,153.367,72.1,0.00,Yamba Pilot Station
-29.382,-66.796,69.8,0.00,La Rioja
-29.267,117.683,63.8,0.00,Paynes Find
-29.25,-177.933,65.7,0.08,Raoul Island Aws
-29.183,-59.7,66.8,0.87,Reconquista Aero
-29.093,26.302,56.4,0.00,Bloemfontein Intl / Bram Fischer Intl
-29.05,152.017,68.4,0.00,Tenterfield (Federation Park)
-29.042,167.939,68.1,0.00,Norfolk Island Intl
-28.883,121.333,64.6,0.00,Leonora
-28.803,24.765,65.9,0.00,Kimberley
-28.796,114.708,66.2,0.00,Geraldton
-28.705,121.891,63.1,0.00,Murrin Murrin
-28.667,151.933,64.9,0.00,Stanthorpe Leslie Parade
-28.617,122.417,64.3,0.00,Laverton Aero
-28.596,-65.752,65.7,0.20,Catamarca
-28.517,150.317,68.7,0.00,Goondiwindi Airport
-28.5,32.4,70.7,0.00,Cape St. Lucia
-28.399,21.26,75.5,0.00,Upington
-28.3,113.6,71.9,0.00,North Island
-28.248,28.336,53.2,0.00,Bethlehem
-28.2,152.1,67.3,0.00,Warwick
-28.164,153.505,71.9,0.00,Gold Coast
-28.1,140.2,69.2,0.00,Moomba Airport
-28.067,145.683,72.4,0.00,Cunnamulla Post Office
-28.05,117.833,68.3,0.00,Mount Magnet
-28.0,143.817,77.5,0.00,Thargomindah Post O
-27.933,153.433,74.0,0.00,Gold Coast Seaway
-27.85,120.7,64.9,0.00,Leinster Aero
-27.766,-64.31,68.3,0.00,Santiago Del Estero
-27.717,114.167,73.5,0.00,Kalbarri
-27.67,-48.547,74.6,0.00,Hercilio Luz
-27.617,-144.333,73.3,0.00,Rapa
-27.583,151.933,67.2,0.00,Toowoomba
-27.57,153.008,72.7,0.00,Brisbane Archerfield
-27.45,-59.056,69.6,4.37,Resistencia
-27.446,-58.762,68.9,3.50,Corrientes
-27.417,153.067,72.2,0.00,Brisbane Airport
-27.411,151.735,69.2,0.00,Oakey
-27.386,-55.971,71.0,0.71,Posadas
-27.383,153.117,72.9,0.08,Brisbane Arpt02 Aws
-27.317,-55.833,72.1,0.79,Encarnacion
-27.3,133.617,67.4,0.00,Marla Police Station
-27.165,-109.422,70.6,0.28,Mataveri Intl
-27.15,151.267,71.8,0.00,Dalby Airport
-27.033,153.467,74.4,0.20,Cape Moreton Lighthouse Aws
-26.933,29.233,57.1,0.00,Standerton
-26.841,-65.105,65.1,0.39,Teniente Benjamin Matienzo
-26.757,-60.493,71.8,0.79,Presidencia Roque Saenz Pena / Termal
-26.683,15.25,61.8,0.00,Luderitz (Diaz Point)
-26.667,-57.15,71.4,0.94,San Juan Bautista
-26.617,144.25,77.9,0.00,Quilpie Airport
-26.614,118.537,72.0,0.00,Meekatharra Airport
-26.6,153.1,73.0,0.00,Sunshine Coast Airport
-26.567,151.833,72.4,0.00,Kingaroy Airport
-26.55,148.783,72.5,0.00,Roma Airport
-26.54,18.111,77.2,0.00,Keetmanshoop
-26.413,146.263,74.4,0.00,Charleville
-26.333,-70.607,61.7,0.00,Chanaral
-26.3,32.18,76.8,0.00,Changalane_Auto
-26.213,-58.228,72.9,3.35,Formosa
-26.139,28.246,62.2,0.00,Johannesburg Intl
-26.05,22.45,70.0,0.00,Tsabong
-25.933,153.183,73.3,1.02,Double Island Point Lighthouse
-25.921,32.573,74.5,0.00,Maputo
-25.917,113.517,70.4,0.00,Denham
-25.911,28.21,61.2,0.00,Pretoria/Irene
-25.9,139.35,72.0,0.00,Birdsville Police S
-25.89,28.171,63.4,0.00,Pretoria(Met)
-25.85,133.3,68.2,0.00,Kulgera
-25.767,-56.433,70.9,0.79,Villarrica
-25.737,-54.473,65.8,0.08,Cataratas Del Iguazu
-25.633,151.617,77.9,0.00,Gayndah Post Office
-25.596,-54.487,66.3,0.12,Cataratas Intl
-25.528,-49.176,64.8,0.00,Afonso Pena
-25.517,152.717,73.7,0.08,Maryborough
-25.417,142.65,79.5,0.00,Windorah Post Office
-25.24,-57.519,72.6,1.93,Silvio Pettirossi Intl
-25.2,130.983,70.5,0.00,Yulara Aero
-25.038,46.956,74.3,0.04,Tolagnaro
-25.033,128.3,76.0,0.00,Giles Meteorological Office
-24.9,151.1,75.7,0.31,Monto Airport
-24.9,152.317,74.2,0.16,Bundaberg Aero
-24.888,113.67,73.8,0.00,Carnarvon Airport
-24.856,-65.486,62.0,0.00,Salta
-24.717,153.2,74.0,0.59,Sandy Cape Lighthouse
-24.667,25.917,67.5,0.00,Gaborone
-24.602,24.691,67.4,0.00,Jwaneng
-24.555,25.918,64.2,0.00,Sir Seretse Khama Intl
-24.483,150.567,77.6,0.00,Thangool Airport
-24.417,145.467,78.9,0.00,Blackall
-24.393,-65.098,67.5,0.00,Jujuy
-24.3,131.55,77.6,0.00,Watarrka
-24.15,151.883,73.6,1.46,Seventeen Seventy
-24.017,21.883,73.7,0.00,Tshane
-23.925,-46.288,86.5,0.00,Base Aerea De Santos
-23.867,29.45,62.3,0.00,Polokwane
-23.867,35.383,78.5,0.00,Inhambane
-23.867,151.217,75.2,0.04,Gladstone Airport
-23.85,151.267,74.1,0.08,Gladstone Radar
-23.807,133.902,67.8,0.00,Alice Springs
-23.633,-55.833,71.8,0.00,Pedro Juan Caballero
-23.627,-46.655,71.8,0.00,Congonhas Deputado Freitas Nobre
-23.567,148.183,77.8,0.00,Emerald Airport
-23.45,151.917,78.4,0.00,Heron Island Res Stn
-23.444,-70.445,60.2,0.00,Cerro Moreno Intl / Andres Sabella Intl
-23.442,-57.427,75.4,0.00,Teniente Col Carmelo Peralta
-23.433,-46.467,72.0,0.00,Guarulhos
-23.433,144.283,81.3,0.00,Longreach Aero
-23.383,43.728,76.2,0.00,Toliara
-23.382,150.475,77.2,0.04,Rockhampton
-23.365,-149.524,78.3,0.00,Tubuai Mataura
-23.35,119.717,76.9,0.00,Newman
-23.334,-51.13,73.1,0.00,Londrina / Governador Jose Richa
-23.25,155.533,78.6,0.00,Cato Island
-23.229,-45.862,71.1,0.00,Professor Urbano Ernesto Stumpf
-23.2,131.917,77.7,0.00,Papunya
-23.133,-134.967,77.9,0.08,Mangareva
-23.133,150.75,77.4,0.08,Yeppoon The Esplanade
-23.083,26.8,68.3,0.00,Mahalapye
-23.033,115.033,84.3,0.00,Emu Creek Station
-23.007,-47.135,71.6,0.00,Viracopos
-22.95,136.15,73.0,0.00,Jervois
-22.932,-43.719,80.5,0.00,Santa Cruz / Campo Nero Moura
-22.917,139.9,77.5,0.00,Boulia Airport
-22.91,-43.163,78.2,0.00,Santos Dumont
-22.883,14.433,68.6,0.00,Walvis Bay (Pelican Point)
-22.875,-43.385,85.9,0.00,Campo Delio Jardim De Mattos
-22.817,147.633,74.9,0.00,Clermont Post Office
-22.809,-43.244,76.8,0.00,Galeao Antonio Carlos Jobim
-22.805,47.821,75.3,0.00,Farafangana
-22.792,-45.205,80.6,0.00,Guaratingueta / Campo Edu Chaves
-22.62,-63.794,73.1,0.00,General Enrique Mosconi Tartagal
-22.589,167.456,74.8,0.00,Ile Des Pins Moue
-22.567,17.1,71.6,0.00,Windhoek/Eros(Saaf)
-22.55,-61.55,76.1,0.00,Pelayo Prat Gill
-22.55,-55.703,71.0,0.00,Ponta Pora
-22.48,17.471,74.2,0.00,Hosea Kutako Intl
-22.383,143.033,81.9,0.00,Winton Post Office
-22.35,149.533,77.3,0.00,St Lawrence Post Office
-22.345,-49.054,69.8,0.00,Bauru
-22.333,-41.767,78.7,0.00,Macae
-22.333,40.333,78.2,0.00,Ile Europa
-22.333,171.333,77.4,0.00,Matthew (Ilot)
-22.267,166.45,78.5,0.04,Noumea
-22.25,118.333,82.9,0.00,Wittenoom
-22.25,131.8,74.6,0.00,Yuendumu
-22.236,114.089,79.0,0.00,Learmonth
-22.217,30.0,69.7,0.00,Beitbridge
-22.175,-51.425,72.0,0.00,Presidente Prudente
-22.045,-60.622,82.8,0.00,Dr Luis Maria Argana Intl
-22.015,166.213,78.0,0.00,Noumea La Tontouta
-22.0,148.033,76.6,0.02,Moranbah  Water Tre
-21.985,-47.335,75.7,0.00,Campo Fontenelle
-21.967,152.467,78.7,0.00,Gannet Cay
-21.961,-63.652,67.0,0.20,Yacuiba
-21.917,-157.95,79.8,0.02,Mangaia Island
-21.817,-138.8,80.6,0.08,Muroroa Atoll (Mil)
-21.717,122.217,79.0,0.00,Telfer Aero
-21.7,21.65,71.3,0.00,Ghanzi
-21.633,115.117,79.6,0.00,Onslow
-21.6,138.3,76.1,0.00,Urandangi
-21.556,-64.701,63.8,0.00,Capitan Av Oriel Lea Plaza Intl
-21.482,168.038,74.9,0.00,Mare La Roche
-21.45,115.017,82.1,0.00,Thevenard Island
-21.442,47.112,66.4,0.12,Fianarantsoa
-21.417,25.6,68.4,0.00,Letlhakane
-21.255,-63.406,75.3,0.00,Tcnl Rafael Pabon
-21.241,-175.15,73.8,0.08,Fua Amotu Intl
-21.203,-159.806,78.7,0.08,Rarotonga Intl
-21.183,115.967,85.2,0.00,Mardie
-21.167,149.183,76.5,0.00,Mackay Aero
-21.159,27.468,70.4,0.00,P.G. Matante International Airport
-21.133,-47.767,63.7,0.00,Leite Lopes
-21.117,149.217,77.1,0.02,Mackay Mo
-21.05,29.367,67.1,0.00,West Nicholson
-21.008,31.579,67.7,0.00,Buffalo Range
-20.933,165.317,78.3,0.00,Poindimie (Nlle-Caledonie)
-20.917,28.45,67.1,0.00,Kezi
-20.887,55.51,75.1,0.00,St Denis Gillot / La Reunion Roland Garros
-20.817,144.233,81.3,0.00,Hughenden Airport
-20.783,117.15,83.1,0.00,Roebourne
-20.775,167.24,78.4,0.08,Lifou Ouanaham
-20.733,143.133,83.0,0.00,Richmond Post Office
-20.717,116.767,81.8,0.00,Karratha Aero
-20.667,-178.717,76.8,0.00,Ono-I-Lau Aws
-20.667,141.733,83.8,0.00,Julia Creek
-20.664,139.489,81.9,0.00,Mount Isa
-20.641,166.573,79.1,0.00,Ouvea Ouloup
-20.553,26.116,70.6,0.00,Sua Pan
-20.55,147.833,75.9,0.00,Collinsville Post Office
-20.546,164.256,80.1,0.00,Koumac
-20.535,-70.181,62.2,0.00,Diego Aracena Intl
-20.533,150.383,79.6,0.00,Creal Reef
-20.495,148.552,77.7,0.00,Proserpine Whitsunday Coast
-20.469,-54.673,75.8,0.00,Campo Grande
-20.43,57.684,70.3,0.00,Sir Seewoosagur Ramgoolam Intl
-20.378,118.626,80.9,0.00,Port Hedland Intl
-20.367,116.85,81.8,0.00,Legendre Island
-20.35,148.95,78.6,0.00,Hamilton Island Airport
-20.3,57.467,71.1,0.20,Vacoas (Mauritius)
-20.285,44.318,76.7,0.00,Morondava
-20.258,-40.286,77.4,0.00,Goiabeiras / Eurico De Aguiar Salles Intl
-20.233,-58.167,84.3,0.16,Bahia Negra
-20.233,169.767,78.9,0.08,Aneityum
-20.2,32.617,62.3,0.00,Chipinge
-20.133,-157.35,81.8,0.00,Mauke Island
-20.133,127.983,83.3,0.00,Balgo Hills Asa
-20.1,119.583,85.1,0.00,Pardoo Station
-20.055,30.859,60.7,0.00,Masvingo Intl
-20.05,-63.567,73.6,0.08,Camiri
-20.033,146.267,77.4,0.00,Charters Towers Airport
-20.021,28.627,67.2,0.00,J M Nkomo Intl / Bulawayo
-20.02,148.21,81.0,0.00,Bowen Airport Aws
-19.973,23.431,72.5,0.00,Maun
-19.967,158.483,80.2,0.51,Ile Loop (Chesterfield)
-19.917,138.117,82.6,0.00,Camooweal Township
-19.9,-144.949,81.9,0.00,Hereheretue
-19.851,-43.951,72.8,0.00,Pampulha Carlos Drummond De Andrade
-19.833,48.8,76.7,0.12,Mahanoro
-19.817,47.067,70.3,0.00,Antsirabe
-19.796,34.908,76.4,0.00,Beira
-19.777,-174.341,79.1,0.00,Haapai
-19.765,-47.965,74.3,0.00,Uberaba / Mario De Almeida Franco
-19.758,63.361,76.4,0.00,Plaine Corail
-19.733,120.85,86.8,0.00,Mandora
-19.634,-43.969,72.9,0.00,Tancredo Neves Intl
-19.633,134.183,77.4,0.00,Tennant Creek Airport
-19.602,18.123,73.3,0.00,Grootfontein
-19.583,119.1,82.1,0.00,Bedout Island
-19.543,-65.724,51.8,0.08,Capitan Nicolas Rojas
-19.533,-59.367,87.9,0.00,Adrian Jara
-19.436,29.862,62.3,0.00,Gweru Thornhill
-19.253,146.765,80.3,0.00,Townsville
-19.151,33.429,68.9,0.00,Chimoio
-19.133,179.75,79.5,0.00,Matuku Aws
-19.083,152.383,79.9,0.00,Marion Reef
-19.067,-169.917,76.9,0.00,Alofi
-19.05,178.167,79.0,0.38,Vunisea
-19.007,-65.289,62.4,0.00,Juana Azurduy De Padilla
-18.975,-57.821,80.3,0.00,Tte De Av Salvador Ogaya G
-18.933,29.833,69.6,0.00,Kwekwe
-18.831,-159.764,81.6,0.04,Aitutaki
-18.797,47.479,66.8,0.02,Ivato
-18.65,135.95,76.0,0.00,Brunette Downs
-18.63,27.021,65.8,0.00,Hwange National Park
-18.583,-173.967,80.0,0.00,Lupepau'U
-18.533,32.133,59.3,0.00,Rusape
-18.517,146.383,81.1,0.12,Lucinda Point Aws
-18.483,163.083,81.8,0.00,Ile Surprise
-18.467,-64.1,64.3,0.12,Vallegrande
-18.367,21.85,76.3,0.00,Shakawe
-18.349,-70.339,63.6,0.00,Chacalluta
-18.317,-59.75,83.0,0.04,Robore (Civ/Mil)
-18.317,29.883,65.7,0.00,Kadoma
-18.3,143.55,84.3,0.00,Georgetown Post Office
-18.3,146.033,77.5,0.04,Cardwell Stoney Creek
-18.233,-178.8,78.4,0.12,Lakemba Island
-18.233,127.667,81.8,0.00,Halls Creek Airport
-18.217,28.933,65.4,0.00,Gokwe
-18.183,31.467,59.7,0.00,Grasslands
-18.11,49.393,73.8,3.03,Toamasina
-18.096,25.839,64.8,0.00,Victoria Falls Intl
-18.075,-140.946,81.1,0.12,Hao
-18.067,-163.183,83.1,0.04,Palmerston *
-18.053,-70.276,62.6,0.00,Coronel Carlos Ciriani Santa Rosa Intl
-18.05,44.033,79.0,0.00,Maintirano
-18.043,178.559,76.3,0.87,Nausori Intl
-17.963,-67.076,56.8,0.00,Juan Mendoza
-17.956,19.719,74.0,0.00,Rundu
-17.945,122.232,77.3,0.00,Broome Intl
-17.93,31.094,62.2,0.00,Robert Gabriel Mugabe Intl / Harare
-17.856,36.869,78.0,0.12,Quelimane
-17.833,-60.75,80.9,0.00,San Jose
-17.833,25.162,75.6,0.00,Kasane
-17.812,-63.171,80.2,0.00,El Trompillo
-17.755,177.443,78.0,0.00,Nadi Intl
-17.75,139.55,82.8,0.00,Burketown Post Office
-17.717,148.45,81.0,0.00,Flinders Reef
-17.699,168.32,79.9,0.00,Port Vila Bauerfield
-17.667,141.083,86.6,0.00,Normanton
-17.652,-39.253,80.5,0.00,Caravelas
-17.645,-63.135,78.5,0.04,Viru Viru Intl
-17.617,27.333,75.8,0.00,Binga
-17.583,-69.45,52.2,0.00,Charana
-17.583,123.817,78.9,0.00,Curtin Aero
-17.554,-149.607,81.7,0.00,Tahiti Faa A
-17.55,133.533,81.0,0.00,Elliott
-17.533,118.95,82.5,0.00,Rowley Shoals
-17.517,146.033,77.6,0.04,Innisfail
-17.432,32.185,65.2,0.00,Mutoko
-17.421,-66.177,65.3,0.00,Jorge Wilstermann Intl
-17.383,131.117,72.5,0.00,Wave Hill
-17.233,-178.95,79.0,0.16,Vanua Balavu Aws
-17.2,137.933,81.1,0.00,Wollogorang
-17.15,176.9,81.9,0.00,Viwa Aws
-17.117,152.0,81.6,0.00,Lihou Reef
-17.094,49.816,78.9,0.01,Sainte Marie
-17.067,145.417,75.1,0.00,Mareeba Airport
-17.05,42.717,81.1,0.00,Ile Juan De Nova
-17.017,128.217,80.2,0.00,Warmun
-17.0,178.7,77.5,1.44,Nabouwalu
-16.95,46.833,84.1,0.00,Maevatanana
-16.886,145.755,81.0,0.00,Cairns Intl
-16.833,29.617,63.6,0.00,Karoi
-16.783,31.583,66.5,0.00,Mount Darwin
-16.767,145.967,80.8,0.00,Green Island
-16.742,44.481,81.0,0.00,Besalampy
-16.7,177.583,82.7,0.00,Yasawa
-16.667,139.167,81.6,0.00,Mornington Island
-16.633,128.45,78.8,0.00,Argyle Aerodrome
-16.632,-49.221,74.5,0.00,Santa Genoveva
-16.52,28.885,74.5,0.00,Kariba Intl
-16.513,-68.192,46.4,0.00,El Alto Intl
-16.467,147.867,80.9,0.00,Holmes Reef
-16.45,59.617,78.7,0.00,St. Brandon (St. Raphael)
-16.45,123.0,76.2,0.00,Cygnet Bay
-16.444,-151.751,83.2,0.04,Bora Bora Motu Mute
-16.417,167.8,81.0,0.39,Lamap/Malekoula Isl
-16.401,-61.045,78.8,0.00,San Ignacio De Velasco Airport
-16.4,131.017,81.2,0.00,Victoria River Downs
-16.383,145.567,82.5,0.04,Low Isles Lighthouse
-16.341,-71.583,58.8,0.00,Rodriguez Ballon
-16.333,-58.383,79.9,0.08,San Matias
-16.288,149.965,82.0,0.00,Willis Island
-16.267,-62.467,80.2,0.00,San Javier
-16.25,-62.1,81.9,0.16,Concepcion
-16.229,-48.964,63.4,0.00,Base Aerea / Campo Marechal Marcio De Souza E Mello
-16.183,33.583,82.8,0.00,Tete
-15.933,-5.667,69.4,0.00,St. Helena Is.
-15.883,54.517,80.8,0.00,Serge-Frolow (Ile Tromelin)
-15.863,-47.913,69.5,0.00,Presidente Juscelino Kubitschek
-15.861,-52.389,86.4,0.00,Barra Do Garcas
-15.778,128.708,77.5,0.00,Kununurra
-15.75,136.8,83.7,0.00,Centre Island
-15.717,-63.1,84.0,0.12,Ascencion Guarayos
-15.667,46.352,81.2,0.55,Philibert Tsiranana
-15.653,-56.117,85.0,0.00,Marechal Rondon
-15.633,30.417,80.6,0.00,Kanyemba
-15.583,133.217,76.9,0.00,Larrimah
-15.517,123.15,80.6,0.00,Adele Island
-15.501,167.223,78.1,0.31,Santo Pekoa Intl
-15.483,128.117,82.7,0.00,Wyndham
-15.483,141.75,84.3,0.00,Kowanyama Airport
-15.467,-70.158,52.1,0.00,Juliaca / Inca Manco Capac Intl
-15.433,145.183,80.6,0.00,Cooktown Mission
-15.383,-75.167,67.8,0.00,San Juan De Marcona
-15.333,28.45,68.7,0.00,Lusaka Intl
-15.106,39.282,71.0,0.00,Nampula
-14.999,50.32,77.9,0.35,Antsirabato
-14.883,47.983,82.2,0.47,Antsohihy
-14.867,-66.75,82.0,0.00,San Borja/Capt Germ
-14.819,-64.918,85.5,0.00,Tte Av Jorge Henrich Arauz
-14.733,-68.417,77.9,0.00,Apolo
-14.521,132.378,80.8,0.00,Tindal
-14.483,-145.033,83.2,0.00,Takaroa
-14.483,-67.483,83.4,0.00,Rurrenabaque
-14.467,132.267,83.8,0.00,Katherine Country Club
-14.333,-170.833,91.0,0.00,Cape Taputapu Aws  American Samoa *
-14.331,-170.714,84.1,0.12,Tafuna/Pago Pago International Ap
-14.317,-178.117,80.7,0.75,Maopoopo / Futuna Pointe Vele
-14.317,-170.567,82.0,0.00,Cape Matatula Aws  American Samoa *
-14.3,-67.367,82.7,0.00,Reyes
-14.279,50.175,79.3,0.35,Sambava
-14.233,129.45,80.9,0.00,Port Keats Aws Aut
-14.183,-169.5,81.1,0.00,Ta'U Aws  American Samoa *
-14.05,-171.45,82.9,0.00,Cape Tapaga
-13.85,136.417,80.7,0.16,Alyangula Police
-13.85,167.55,77.9,4.80,Sola/Vanua Lava Isl
-13.817,-171.983,75.9,0.00,Faleolo Arpt
-13.8,-171.783,80.3,0.00,Apia/Upolu Island
-13.762,-65.435,85.5,0.00,Santa Ana Del Yacuma
-13.75,126.15,83.8,0.00,Troughton Island
-13.75,143.117,81.8,0.00,Coen Airport
-13.745,-76.22,67.6,0.00,Pisco Intl
-13.733,130.683,77.9,0.00,Mango Farm
-13.706,-73.35,50.2,0.00,Andahuaylas
-13.65,136.933,84.1,0.00,North East Island
-13.6,-172.217,80.5,0.00,Avavo
-13.536,-71.939,56.9,0.00,Teniente Alejandro Velasco Astete Intl
-13.483,-172.767,80.9,0.00,Avata
-13.376,50.003,80.9,0.12,Vohimarina
-13.333,-64.15,84.6,0.00,Magdalena
-13.312,48.315,80.2,0.20,Fascene
-13.274,35.266,65.3,0.00,Lichinga
-13.238,-176.199,82.6,0.02,Wallis Hihifo
-13.155,-74.204,64.4,0.00,Coronel Fap Alfredo Mendivil Duarte
-13.067,-64.667,85.0,0.00,San Joaquin
-13.05,131.017,78.9,0.00,Batchelor Aero
-12.987,40.522,79.6,0.00,Pemba
-12.911,-38.331,85.9,0.00,Deputado Luis Eduardo Magalhaes
-12.805,45.281,79.4,0.71,Dzaoudzi Pamandzi
-12.783,143.3,81.9,0.00,Lockhart River Airport
-12.694,-60.098,78.9,0.00,Vilhena
-12.683,141.917,82.3,0.00,Weipa Aero
-12.667,132.9,81.7,0.00,Jabiru Airport
-12.614,-69.229,82.3,0.00,Padre Aldamiz
-12.5,177.05,82.6,0.04,Rotuma Island
-12.415,130.877,81.4,0.00,Darwin Intl
-12.349,49.292,79.6,0.02,Arrachart
-12.283,136.817,79.9,0.00,Gove Airport
-12.233,131.883,81.1,0.00,Point Stuart
-12.188,96.834,82.2,0.04,Cocos Keeling Islands
-12.117,134.9,80.4,0.12,Milingimbi Aws
-12.05,134.217,82.4,0.00,Maningrida
-12.022,-77.114,66.3,0.00,Jorge Chavez Intl
-11.783,130.017,80.1,0.00,Cape Fourcroy
-11.583,47.283,82.1,1.06,Iles Glorieuses
-11.534,43.272,79.4,0.00,Prince Said Ibrahim
-11.4,130.417,79.8,0.00,Pirlangimpi
-11.317,131.767,82.4,0.00,Cape Don Aws
-11.15,132.133,81.0,0.00,Black Point (Port Essington)
-11.05,132.983,84.8,0.00,Mccluer Island Aws
-11.04,-68.783,80.9,0.00,Heroes Del Acre / Cap Av Civ Anibal Arab Fadul Intl
-11.017,-66.117,83.5,0.00,Riberalta / Cap Av Selin Zeitun Lopez
-11.017,136.75,83.9,0.00,Cape Wessel Aws
-10.984,-37.07,82.2,2.68,Santa Maria
-10.951,142.459,74.1,0.00,Bamaga Injinoo
-10.915,-165.839,83.6,0.00,Pukapuka Arpt
-10.75,179.5,83.1,0.12,Niulakita
-10.733,123.067,80.5,0.00,Rote/Baa/Lekunik
-10.719,-48.4,85.9,0.00,Porto Nacional
-10.7,165.8,82.0,0.04,Santa Cruz Island
-10.683,35.583,68.0,0.00,Songea
-10.451,105.69,80.1,0.00,Christmas Island
-10.433,56.6,82.8,0.00,Agalega
-10.417,161.917,82.4,0.51,Kira Kira
-10.172,123.671,80.0,0.00,El Tari
-10.05,-161.1,82.5,1.50,Rakahanga Atoll
-10.05,143.067,83.7,0.00,Coconut Island
-9.869,-67.894,79.8,0.00,Presidente Medici / Placido De Castro Intl
-9.866,-56.106,83.3,0.04,Alta Floresta / Piloto Osvaldo Marques Dias
-9.8,-139.033,80.2,1.06,Hiva-Oa
-9.669,120.302,80.4,0.00,Mau Hau
-9.511,-35.792,79.6,0.51,Zumbi Dos Palmares
-9.433,147.217,78.9,0.20,Port Moresby W.O.
-9.428,160.055,79.9,0.31,Honiara Intl
-9.417,159.967,82.8,0.00,Honiara
-9.362,-40.569,80.2,0.00,Senador Nilo Coelho
-9.347,-77.598,65.1,0.00,Comandante Fap German Arias Graziani
-9.333,-54.967,82.8,0.00,Cachimbo
-9.15,-78.524,64.9,0.00,Teniente Jaime A De Montreuil Morales
-9.133,-75.95,76.3,0.00,Tingo Maria
-9.067,143.2,80.6,0.00,Daru W.O.
-9.017,-158.067,82.9,0.63,Penrhyn Island
-8.933,33.467,65.1,0.00,Mbeya
-8.783,160.733,78.0,0.75,Auki
-8.75,116.267,80.2,0.00,Mataram-Lombok Intl Airport / Zainuddin Abdul Madjid
-8.749,115.167,82.4,0.00,Denpasar Ngurah Rai
-8.641,122.237,82.2,0.00,Wai Oti
-8.55,126.567,79.7,0.00,Dilli/Comoro
-8.54,118.687,83.4,0.00,Muhammad Salahuddin
-8.517,179.217,85.5,0.12,Funafuti Intl Arpt
-8.517,179.233,85.9,0.00,Funafuti
-8.489,117.412,79.7,0.00,Sumbawa Besar
-8.378,-74.574,80.3,0.00,Cap Fap David Abensur Rengifo Intl
-8.328,157.263,79.3,0.12,Munda
-8.267,122.967,84.1,0.00,Larantuka/Gewayenta
-8.217,114.383,83.2,0.00,Banyuwangi
-8.217,124.567,81.9,0.00,Alor/Mali/Kalabahi
-8.126,-34.924,81.3,0.24,Guararapes Gilberto Freyre Intl
-8.081,-79.109,63.9,0.00,Capitan Fap Carlos Martinez De Pinillos
-7.983,131.3,82.7,0.00,Saumlaki
-7.97,-14.394,80.1,0.00,Ascension Aux Af
-7.733,109.017,83.3,0.00,Cilacap
-7.669,35.752,72.1,0.00,Iringa
-7.616,111.434,80.3,0.00,Iswahyudi
-7.38,112.787,82.9,0.00,Surabaya Juanda
-7.346,108.247,82.0,0.00,Cibeureum
-7.3,72.4,81.5,1.61,Diego Garcia Naval Air Station
-7.267,-35.883,77.0,0.00,Campinagrande
-7.217,112.717,84.5,0.00,Surabaya/Perak
-7.217,113.717,85.3,0.00,Surabaya/Gedangan
-7.169,-76.729,81.1,0.00,Juanjui
-7.139,-78.489,58.3,0.00,Gen Fap Armando Revoredo Iglesias
-7.1,-34.867,75.2,1.06,Joao Pessoa
-7.05,113.967,82.2,0.00,Kalianget (Madura Is)
-6.983,110.383,84.2,0.00,Jenderal Ahmad Yani
-6.878,39.203,76.3,0.02,Mwalimu Julius K Nyerere Intl
-6.85,109.15,84.9,0.00,Tegal
-6.833,37.65,70.7,0.94,Morogoro (Met)
-6.787,-79.828,67.7,0.00,Cap Fap Jose A Quinones Gonzales Intl
-6.75,108.267,84.4,0.00,Cirebon/Jatiwangi
-6.567,146.717,81.5,0.02,Nadzab W.O.
-6.509,-76.373,79.6,0.00,Cadete Guillermo Del Castillo Paredes
-6.3,106.567,83.7,0.00,Tangerang/Budiarto Arpt
-6.267,106.891,84.0,0.00,Halim Perdanakusuma Intl
-6.202,-77.856,61.7,0.08,Chachapoyas
-6.183,106.833,85.3,0.00,Jakarta/Observatory
-6.126,106.656,82.2,0.00,Soekarno Hatta Intl
-6.117,106.133,81.9,0.00,Serang
-6.1,140.3,78.4,0.00,Tanah Merah
-6.068,-77.16,74.6,0.12,Juan Simons Vela / Rioja
-5.911,-35.248,76.4,0.00,Campo Augusto Severo
-5.894,-76.118,83.2,0.00,Moises Benzaquen Rengifo / Yurimaguas
-5.85,112.633,83.9,0.00,Sangkapura (Bawean Is.)
-5.683,132.75,80.3,0.00,Tual/Dumatubun
-5.667,176.133,84.8,0.08,Nanumea Island
-5.467,122.617,79.1,0.16,Bau-Bau/Beto Ambiri
-5.242,105.179,82.5,0.00,Radin Inten Ii
-5.217,145.8,77.0,0.00,Madang W.O.
-5.206,-80.616,74.7,0.00,Capitan Fap Guillermo Concha Iberico
-5.083,32.833,75.1,0.00,Tabora Airport
-5.067,119.55,81.7,0.00,Ujang Pandang/Paotere
-5.062,119.554,80.0,0.00,Sultan Hasanuddin Intl
-5.06,-42.823,79.7,0.16,Senador Petronio Portella
-4.816,11.887,79.2,0.47,Pointe Noire / Antonio Agostinho Neto
-4.717,136.433,80.7,0.00,Kokonao/Timuka
-4.674,55.522,82.5,0.00,Seychelles Intl
-4.577,-81.254,70.9,0.00,Capitan Fap Victor Montes Intl
-4.533,129.9,81.9,0.00,Neira
-4.386,15.445,79.8,0.00,Ndjili Intl
-4.252,15.253,83.2,0.00,Maya Maya
-4.242,-56.001,85.6,0.04,Itaituba
-4.2,12.7,80.1,0.59,Dolisie
-4.193,-69.943,79.6,0.00,Alfredo Vasquez Cobo
-4.103,138.957,70.4,0.00,Wamena
-4.035,39.594,79.5,0.04,Mombasa Moi Intl
-3.983,13.917,77.7,1.46,Mouyondzi
-3.864,102.339,80.9,0.00,Fatmawati Soekarno
-3.855,-32.423,81.3,3.23,Fernando De Noronha
-3.8,130.833,80.9,0.08,Geser
-3.785,-73.309,80.8,0.00,Coronel Francisco Secada Vignetta Intl
-3.776,-38.533,80.4,0.01,Pinto Martins Intl
-3.71,128.089,78.0,0.12,Pattimura
-3.645,133.696,82.0,0.16,Kaimana / Utarom
-3.553,-80.381,79.6,0.00,Cap Fap Pedro Canga Rodriguez
-3.442,114.763,82.5,0.00,Syamsudin Noor
-3.4,38.567,72.6,0.00,Voi
-3.4,116.217,81.4,0.00,Kotabaru/Setagen
-3.368,135.496,85.6,0.00,Nabire / Douw Aturure
-3.35,128.883,77.1,2.07,Amahai
-3.324,29.319,86.0,0.00,Bujumbura Intl
-3.229,40.102,81.2,0.00,Malindi
-3.146,-59.986,79.5,0.00,Campo Ponta Pelada
-3.039,-60.05,82.0,0.00,Eduardo Gomes Intl
-2.898,104.701,82.9,0.00,Sultan Mahmud Badaruddin Ii
-2.883,132.25,78.7,0.05,Fak-Fak / Torea / Siboru
-2.746,107.755,77.9,3.86,H As Hanandjoeddin
-2.705,111.673,82.9,0.00,Iskandar
-2.585,-44.234,80.6,0.87,Marechal Cunha Machado Intl
-2.577,140.516,82.3,0.00,Sentani
-2.567,150.817,80.7,0.00,Kavieng W.O.
-2.55,120.367,76.8,1.38,Masamba/Andi Jemma
-2.5,119.0,82.4,0.00,Majene
-2.444,32.933,76.7,0.20,Mwanza
-2.422,-54.793,79.9,0.71,Santarem / Maestro Wilson Fonseca
-2.283,37.833,75.2,0.00,Makindu
-2.252,40.913,85.2,0.00,Lamu Manda
-2.225,113.943,81.3,0.00,Palangka Raya/Tjilik Riwut
-2.17,106.13,82.7,0.00,Pangkalpinang / Depati Amir
-2.083,126.0,81.9,0.31,Sanana / Namniwel
-2.067,147.433,81.2,0.00,Momote/Manus Island
-1.833,138.717,83.7,0.00,Sarmi/Orai
-1.817,109.963,82.1,0.00,Rahadi Oesman
-1.617,124.55,75.2,0.20,Labuha/Taliabu
-1.5,33.8,77.2,0.00,Musoma
-1.417,120.658,79.3,0.31,Kasiguncu / Imip
-1.379,-48.476,80.7,0.43,Val De Cans Julio Cezar Ribeiro Intl
-1.333,31.817,72.5,0.00,Bukoba
-1.322,36.815,70.9,0.00,Nairobi Wilson
-1.319,36.928,69.3,0.00,Jkia / Nairobi Jomo Kenyatta Intl
-1.3,36.75,66.7,0.00,Nairobi/Dagoretti
-1.268,116.894,83.0,0.00,Sultan Aji Muhammad Sulaiman Sepinggan
-1.19,136.108,82.1,0.04,Frans Kaisiepo
-1.133,35.833,62.1,0.00,Narok
-1.039,122.772,78.7,0.08,Bubung
-0.95,114.9,82.1,0.00,Muaratewe/Beringin
-0.892,134.049,85.5,0.00,Rendani
-0.875,100.352,81.7,0.00,Tabing
-0.693,73.156,82.2,0.00,Gan Island
-0.683,119.733,81.0,0.00,Palu/Mutiara
-0.667,34.783,68.3,0.24,Kisii
-0.5,36.967,64.0,0.00,Nyeri
-0.5,37.45,67.8,0.00,Embu
-0.485,117.157,81.8,0.00,Temindung
-0.479,104.579,80.3,0.00,Dabo
-0.464,39.648,86.6,0.00,Garissa
-0.367,35.35,59.9,0.16,Kericho
-0.35,102.333,82.2,0.00,Rengat/Japura Arpt
-0.35,111.783,87.1,0.00,Nangapinoh
-0.267,36.1,66.3,0.00,Nakuru
-0.151,109.404,79.3,0.00,Supadio
-0.086,34.729,73.0,0.31,Kisumu
0.05,-51.067,83.1,0.08,Macapa-Aeroporto
0.051,-51.072,82.6,0.00,Macapa / Alberto Alcolumbre
0.064,111.473,84.4,0.00,Susilo / Tebelian
0.083,37.65,68.3,0.00,Meru
0.271,34.787,67.8,0.12,Kakamega
0.461,101.445,83.5,0.00,Sultan Syarif Kasim Ii
0.483,35.3,63.5,0.00,Eldoret
0.637,122.85,80.4,0.00,Jalaluddin / Djalaluddin
0.831,127.381,82.0,0.20,Babullah
0.923,104.532,80.8,0.04,Kijang
0.972,34.959,66.9,0.00,Kitale
1.017,120.8,81.9,0.00,Toli-Toli/Lalos / Bolaang Mongondow
1.117,104.117,83.4,0.00,Batam/Hang Nadim
1.166,97.705,78.4,0.00,Binaka
1.35,103.994,81.1,0.00,Singapore Changi Intl
1.382,173.147,83.4,0.00,Bonriki Intl
1.433,125.183,80.1,0.06,Bitung
1.485,110.347,79.8,0.00,Kuching Intl
1.549,124.926,79.6,0.00,Sam Ratulangi
1.556,98.889,83.2,0.00,Pinang Sore / Dr Ferdinand Lumbantobing
1.616,16.038,79.4,0.00,Ouesso
1.617,18.067,80.0,0.00,Impfondo
1.733,40.092,85.0,0.00,Wajir
1.767,109.3,83.6,0.00,Paloh
1.817,127.833,78.4,0.31,Galela/Gamarmalamu
2.15,117.433,86.8,0.00,Kalimarau
2.262,111.985,80.3,0.31,Sibu
2.263,102.252,81.8,0.00,Malacca
2.846,-60.69,84.7,0.02,Boa Vista / Atlas Brasil Cantanhede
2.85,117.333,83.8,0.00,Tanjung Selor
2.95,-75.294,78.7,0.35,Benito Salas
3.122,35.609,90.5,0.00,Lodwar
3.124,113.02,80.0,0.71,Bintulu
3.131,101.549,81.4,0.00,Sultan Abdul Aziz Shah Intl
3.2,106.25,80.4,0.00,Tarempa
3.333,117.567,82.8,0.00,Tarakan/Juwata
3.533,39.05,71.3,0.04,Moyale Lower (Oda)
3.543,-76.382,73.5,0.08,Alfonso Bonilla Aragon Intl
3.558,98.672,83.8,0.00,Polonia / Kualanamu Intl
3.633,-54.033,79.5,0.00,Maripasoula
3.683,125.528,77.8,2.87,Naha
3.775,103.209,81.1,1.57,Kuantan
3.8,98.7,82.4,0.00,Medan/Belawan
3.883,-51.8,77.2,0.00,Saint Georges
3.933,41.867,84.3,0.00,Mandera
4.006,9.719,79.9,0.00,Douala
4.192,73.529,84.6,0.00,Male Intl / Velana Intl
4.217,100.7,81.6,0.00,Sitiawan
4.222,15.786,77.7,0.04,Berberati
4.25,96.117,82.4,0.00,Meulaboh/Cut Nyak / Cut Nyak Dhien Nagan Raya
4.313,118.122,81.9,0.00,Tawau
4.322,113.987,81.6,0.00,Miri
4.398,18.519,78.4,0.12,Bangui M Poko
4.417,-7.367,83.1,0.00,Tabou
4.422,-75.133,72.4,0.02,Perales
4.702,-74.147,54.2,0.00,El Dorado Intl
4.733,22.833,81.0,0.00,Bangassou
4.813,-75.74,70.4,0.16,Matecana
4.82,-52.36,80.5,0.02,Rochambeau / Cayenne Felix Eboue
4.944,114.928,80.4,0.04,Brunei Intl
4.95,-6.083,84.2,0.00,Sassandra/Drewin
5.05,21.2,79.3,0.00,Alindao
5.227,96.95,81.3,0.00,Malikus Saleh
5.261,-3.926,85.7,0.00,Abidjan Felix Houphouet Boigny Intl
5.267,17.633,79.5,0.04,Bossembele
5.297,100.277,82.5,0.00,Penang Intl
5.3,-3.3,84.2,0.00,Adiake
5.301,115.25,82.6,0.68,Labuan
5.333,153.733,82.3,0.00,Satawan Atoll Aws  Caroline Islands
5.35,162.95,79.4,0.00,Kosrae Atoll Aws  Caroline Is.
5.357,162.958,82.2,0.00,Kosrae
5.45,-55.183,80.8,0.00,Johan A Pengel Intl
5.453,-55.188,79.9,0.00,Johan A Pengel Intl
5.5,-54.033,82.9,0.00,St Laurent Du Maron
5.524,95.42,80.1,0.00,Sultan Iskandar Muda
5.62,-67.606,80.7,0.00,Cacique Aramare
5.811,-55.191,80.5,0.24,Zorg En Hoop
5.85,20.65,79.7,0.00,Bambari
5.874,95.34,82.7,0.00,Maimun Saleh
5.901,118.059,81.6,1.02,Sandakan
5.937,116.051,81.3,0.16,Kota Kinabalu Intl
5.95,-57.03,82.1,0.00,Nickerie
6.05,125.1,83.2,0.00,Gen. Santos
6.1,171.4,81.0,0.00,Mili Atoll Aws  Marshall Is.
6.117,81.133,84.5,0.00,Hambantota
6.133,-5.95,83.5,0.00,Gagnoa
6.165,-75.423,61.1,0.20,Jose Maria Cordova
6.166,1.255,85.9,0.00,Gnassingbe Eyadema Intl
6.167,102.293,82.1,0.00,Sultan Ismail Petra
6.217,160.7,81.3,0.00,Pingelap Atoll Aws  Caroline Is.
6.357,2.384,85.4,0.00,Card Bernardin Gadin De Cadjehoun Intl
6.483,17.433,82.2,0.00,Bossangoa
6.5,-58.25,79.3,0.00,Georgetown
6.5,23.267,79.9,0.00,Yalinga
6.52,101.743,79.6,0.02,Narathiwat
6.583,1.5,83.5,0.00,Tabligbo
6.65,-4.7,86.4,0.04,Dimbokro City
6.661,100.08,79.7,0.12,Khoun Khan
6.785,101.154,81.1,0.35,Pattani
6.793,-6.473,81.8,0.00,Daloa
6.903,-5.366,82.0,0.31,Yamoussoukro
6.922,122.06,84.4,0.04,Zamboanga Intl
6.933,100.393,79.8,0.20,Hat Yai Intl
6.967,80.767,61.0,0.08,Nuwara Eliya
7.067,38.05,65.8,0.24,Awassa (Lake) / Hawassa
7.126,125.646,80.4,0.28,Francisco Bangoy Intl
7.127,-73.185,70.7,0.12,Palonegro
7.181,79.866,87.1,0.24,Bandaranaike Intl Colombo
7.187,100.608,82.8,0.00,Songkhla
7.211,-70.756,79.9,0.00,Guasdualito
7.249,-61.529,85.4,0.00,Tumeremo
7.272,-7.587,85.2,0.00,Man
7.333,134.483,81.3,0.01,Babelthuap/Koror Air
7.357,13.559,74.3,0.00,Ngaoundere
7.467,151.85,80.6,0.02,Chuuk International Airport
7.509,99.617,79.9,0.04,Trang
7.533,99.05,81.7,0.00,Ko Lanta
7.565,-72.035,75.0,0.00,Mayor Buenaventura Vivas
7.583,1.117,84.5,0.00,Atakpame/Akpaka
7.633,155.167,80.2,0.00,Oroluk Atoll Aws  Caroline Islands
7.733,-8.833,82.0,0.00,N'Zerekore/Konia
7.739,-5.074,81.8,0.00,Bouake
7.841,-72.44,80.6,0.00,San Antonio Del Tachira / General Cipriano Castro Intl
7.883,-67.444,89.6,0.00,San Fernando De Apure / Las Flecheras
7.883,98.4,83.0,0.00,Phuket
7.928,-72.512,81.3,0.28,Camilo Daza
8.033,2.467,80.5,0.28,Save
8.05,-2.783,84.0,0.00,Bondoukou/Soko
8.086,-80.945,85.2,0.00,Ruben Cantu
8.1,98.983,85.4,0.00,Krabi
8.113,98.317,85.5,0.31,Phuket Intl
8.122,-63.537,87.1,0.00,Ciudad Bolivar
8.15,125.133,76.8,0.00,Malaybalay
8.3,73.15,88.1,0.00,Minicoy
8.3,137.483,82.7,0.00,Ngulu  Caroline Is.
8.301,80.428,86.0,0.00,Anuradhapura
8.391,-82.435,82.2,0.00,Enrique Malek Intl
8.417,124.617,81.0,0.00,Lumbia Airport
8.471,99.956,81.1,0.00,Cha Ian
8.482,76.92,85.1,0.00,Thiruvananthapuram Intl
8.483,76.95,84.2,0.00,Thiruvananthapuram
8.483,124.65,85.5,0.00,Cagayan De Oro
8.582,-71.161,70.5,0.00,Alberto Carnevalli
8.583,149.65,82.7,0.00,Ului Atoll (Amos)
8.601,123.334,84.3,0.00,Dipolog
8.616,-13.195,83.7,0.00,Freetown Lungi
8.62,-70.221,88.8,0.00,Barinas
8.65,111.917,81.3,0.00,Truong Sa
8.683,98.25,82.4,0.20,Takua Pa
8.683,106.6,83.0,0.00,Con Son
8.733,167.733,82.5,0.27,Bucholz Aaf Kwajalein Kmr Atol Ap
8.917,-79.6,84.7,0.00,Howard
8.925,-67.417,88.6,0.00,Calabozo
8.95,125.483,84.9,0.00,Butuan
8.978,38.799,62.5,0.00,Bole Intl
8.983,1.15,87.1,0.00,Sokode
9.027,-69.755,81.3,0.20,Guanare
9.071,-79.383,80.6,0.28,Tocumen Intl
9.083,36.45,66.1,0.04,Lekemte
9.133,99.136,81.8,0.43,Surat Thani
9.183,105.15,83.3,0.00,Ca Mau
9.25,99.867,83.8,0.00,Khanom
9.334,123.3,83.2,0.00,Dumaguete
9.336,13.37,85.0,0.28,Garoua
9.34,-70.584,78.1,0.00,Dr Antonio Nicolas Briceno
9.35,2.617,82.4,0.00,Parakou
9.387,-5.557,86.5,0.00,Korhogo
9.467,100.05,82.6,0.00,Ko Samui
9.483,138.083,82.3,0.25,Yap International Airport
9.5,-7.567,83.7,0.51,Odienne
9.533,112.883,81.0,0.87,Yongshujiao
9.55,1.167,85.6,0.00,Kara
9.553,-69.238,86.7,0.00,Oswaldo Guevara Mujica / Batalla De Araure
9.577,-13.612,81.0,0.00,Conakry / Ahmed Sekou Toure Intl
9.664,123.853,84.2,0.00,Tagbilaran
9.742,118.759,81.9,0.00,Puerto Princesa
9.749,-63.153,80.4,0.00,Maturin / Jose Tadeo Monagas Intl
9.767,1.091,85.3,0.00,Niamtougou International
9.778,98.585,82.9,0.00,Ranong
9.783,125.483,81.2,0.12,Surigao
9.817,-70.933,83.6,0.00,Mene Grande
9.907,-67.38,83.2,0.39,San Juan De Los Morros
9.946,76.272,87.8,0.00,Cochin
9.95,-84.133,78.3,0.00,Tobias Bolanos Intl
9.958,-83.022,83.2,0.00,Limon Intl
9.967,98.583,80.7,0.00,Victoria Point
9.994,-84.209,79.5,0.00,Juan Santamaria Intl
10.033,139.8,83.3,0.00,Ulithi  Ulithi Atoll  Caroline Is.
10.043,-69.359,76.9,0.00,Barquisimeto Intl
10.107,-64.689,85.3,0.00,General Jose Antonio Anzoategui Intl
10.133,124.867,81.6,0.00,Maasin
10.15,-67.928,82.8,0.00,Arturo Michelena Intl
10.217,103.967,83.4,0.31,Phu Quoc
10.25,-67.649,81.7,0.00,Mariscal Sucre
10.283,22.783,90.4,0.00,Birao
10.287,-66.816,80.3,0.00,Oscar Machado Zuloaga
10.308,123.979,82.2,0.00,Mactan Cebu Intl
10.317,1.383,83.4,0.00,Natitingou
10.333,-3.183,88.9,0.00,Gaoua
10.383,114.367,82.0,0.00,Nansha Dao
10.442,-75.513,81.9,0.04,Rafael Nunez
10.45,-64.13,81.8,0.00,Antonio Jose De Sucre
10.485,-66.844,76.9,0.00,Generalisimo Francisco De Miranda Ab
10.517,-71.65,87.0,0.00,La Canada
10.558,-71.728,85.1,0.00,La Chinita Intl
10.574,-62.313,81.9,0.00,Guiria / Almirante Cristobal Colon
10.595,-61.337,81.2,0.00,Piarco
10.603,-66.991,80.7,0.00,Simon Bolivar Intl
10.711,99.362,83.3,0.00,Chumphon
10.713,122.541,80.1,0.31,Iloilo
10.765,78.71,91.1,0.00,Tiruchirappalli
10.819,106.652,84.2,0.00,Tan Son Nhat Intl
10.867,0.25,90.4,0.00,Dapaon
10.89,-74.781,81.2,0.00,Ernesto Cortissoz
10.913,-63.967,83.7,0.00,Del Caribe Intl Gen Santiago Marino
10.917,-63.967,82.9,0.00,Porlamar (Aeropuerto Int Del Caribe)
10.933,108.1,82.7,0.00,Phan Thiet
11.031,77.044,84.3,0.00,Coimbatore
11.036,125.742,82.1,0.00,Guiuan
11.083,39.717,66.4,0.00,Combolcha/Dessie
11.133,2.933,90.2,0.00,Kandi
11.15,-60.833,81.7,0.23,Crown Point
11.15,-1.15,93.9,0.00,Po
11.16,-4.331,88.2,0.00,Bobo Dioulasso
11.228,125.028,83.1,0.00,Daniel Z Romualdez
11.35,-5.683,88.5,0.00,Sikasso
11.367,162.35,81.6,0.00,Eniwetak Atoll Aws  Marshall Is.
11.415,-69.681,87.7,0.00,Jose Leonardo Chirinos
11.417,-7.5,92.9,0.00,Bougouni
11.417,114.333,83.0,0.04,Song Tu Tay (South West Cay)
11.547,104.844,84.2,0.00,Phnom Penh Intl
11.598,122.752,80.2,0.39,Roxas
11.608,37.322,69.5,0.20,Bahir Dar Ginbot Haya Intl
11.667,92.717,80.0,0.08,Port Blair
11.75,-2.933,93.4,0.00,Boromo
11.767,79.767,87.6,0.00,Cuddalore
11.767,102.883,83.2,0.91,Khlong Yai
11.783,124.883,79.4,0.47,Catbalogan
11.788,99.805,84.5,0.00,Prachuap
11.883,3.45,96.2,0.00,Gaya
12.004,-61.786,81.3,0.01,Point Salines Intl
12.033,0.367,95.3,0.00,Fada N'Gourma
12.131,-68.269,83.7,0.00,Flamingo
12.134,15.034,91.6,0.00,Ndjamena Hassan Djamous
12.189,-68.96,84.6,0.00,Hato
12.217,120.2,85.8,0.00,Coron
12.25,109.2,78.8,0.00,Nha Trang
12.35,-1.5,57.9,0.00,Ouagadougou
12.353,-1.512,95.0,0.00,Ouagadougou
12.362,121.047,80.4,0.67,San Jose
12.369,123.629,80.0,1.61,Masbate
12.383,-5.467,91.4,0.00,Koutiala
12.41,-16.746,74.8,0.00,Cap Skirring
12.433,98.6,85.8,0.00,Mergui
12.467,-3.483,96.3,0.00,Dedougou
12.501,-70.015,82.4,0.00,Reina Beatrix Intl
12.52,37.434,69.1,0.24,Gonder Atse Tewodros
12.534,-7.95,89.0,0.00,Senou / President Modibo Keita
12.556,-16.282,79.8,0.00,Ziguinchor
12.572,-12.22,96.1,0.00,Kedougou
12.583,122.283,83.7,0.00,Romblon
12.584,-81.711,81.7,0.00,Gustavo Rojas Pinilla
12.6,102.117,83.0,0.00,Chanthaburi
12.633,101.35,86.6,0.00,Rayong
12.636,99.952,84.9,0.00,Hua Hin
12.683,100.983,85.9,0.00,Sattahip
12.833,45.033,88.6,0.00,Aden
12.883,-14.967,82.8,0.00,Kolda
12.917,100.867,86.0,0.00,Phatthaya
12.961,74.89,85.4,0.00,Mangalore
12.967,77.583,78.0,0.03,Bangalore
12.983,8.933,85.0,0.00,Magaria
12.994,80.181,86.8,0.00,Chennai Intl
12.999,100.067,84.2,0.00,Phetchaburi
13.067,-9.467,93.3,0.00,Kita
13.075,-59.492,80.7,0.00,Grantley Adams Intl
13.083,100.883,87.4,0.04,Laem Chabang
13.157,123.746,81.5,3.35,Legazpi
13.167,100.8,84.9,0.20,Ko Sichang
13.233,11.983,91.4,0.00,Maine-Soroa
13.333,-4.833,94.9,0.00,San
13.338,-16.652,74.5,0.00,Banjul Intl
13.367,100.983,84.2,0.08,Chon Buri/Sattahip / Suvarnabhumi Intl
13.373,12.627,94.7,0.00,Diffa
13.383,100.6,85.2,1.22,Bangkok Pilot
13.4,-6.15,99.0,0.00,Segou
13.417,121.183,82.0,0.12,Calapan/Mindoro Isl
13.43,-88.12,87.8,0.00,San Miguel/Papalon
13.441,-89.056,80.6,0.00,El Salvador Intl / San Oscar A Romero And Galdamez Intl
13.482,2.184,96.0,0.00,Diori Hamani
13.483,144.8,82.1,0.05,Guam International Airport
13.503,7.127,91.7,0.00,Maradi
13.567,-89.833,84.6,0.00,Acajutla/Sonsonate
13.567,-2.417,98.1,0.00,Ouahigouya
13.567,144.917,81.2,0.00,Andersen Afb
13.576,124.206,80.9,2.91,Virac
13.654,124.341,77.7,1.14,Catanduanes Radar
13.686,44.139,76.3,1.14,Ganed
13.699,-89.12,76.0,0.00,Ilopango Intl
13.7,100.567,87.4,4.13,Bangkok Port
13.7,102.504,84.7,0.00,Aranyaprathet
13.733,-60.953,81.6,0.00,Hewanorra Intl
13.733,100.567,86.9,3.70,Bangkok Metropolis
13.737,-13.653,91.3,0.00,Tambacounda
13.767,109.217,79.8,0.00,Quy Nhon
13.779,8.984,91.1,0.00,Zinder
13.8,5.25,93.2,0.00,Birni-N'Konni
13.913,100.607,86.7,1.42,Bangkok Intl / Don Mueang Intl
13.936,-90.836,81.3,0.56,San Jose
13.97,-89.53,79.7,0.00,Santa Ana/El Palmar
13.983,10.3,90.3,0.00,Goure
14.017,99.533,85.4,0.08,Kanchana Buri
14.017,121.6,79.0,0.08,Tayabas
14.02,-60.993,81.0,0.01,George F L Charles
14.033,-0.033,98.6,0.00,Dori
14.061,-87.217,71.7,0.00,Toncontin Intl
14.078,101.38,83.5,2.64,Khao E To
14.083,121.05,84.3,0.00,Ambulong
14.1,98.217,83.4,0.00,Dawei
14.1,122.017,81.7,1.57,Alabat
14.129,122.98,81.8,0.04,Daet
14.147,-16.051,88.8,0.00,Kaolack
14.167,145.25,83.0,0.00,Rota Intl/Rota Isl
14.2,1.45,92.0,0.00,Tillabery
14.233,76.433,85.9,0.00,Chitradurga
14.25,13.117,90.4,0.00,N'Guigmi
14.45,79.983,89.7,0.00,Nellore
14.467,100.133,85.6,0.00,Suphan Buri
14.482,-11.44,99.0,0.00,Kayes/Dag-Dag
14.5,120.9,85.1,0.00,Sangley Point
14.509,121.02,83.4,0.00,Ninoy Aquino Intl
14.513,-4.08,97.3,0.00,Ambodedjo
14.583,-90.527,68.4,0.01,La Aurora
14.583,77.633,93.2,0.00,Pbo Anantapur
14.583,120.983,84.3,0.00,Manila
14.591,-61.003,79.1,0.08,Le Lamentin
14.65,-16.233,86.6,0.00,Diourbel
14.65,121.05,82.3,1.18,Science Garden
14.74,-17.49,70.5,0.00,Leopold Sedar Senghor Intl
14.75,98.633,80.9,2.99,Thong Phaphum
14.75,121.65,78.3,0.87,Infanta
14.783,-88.783,71.4,0.94,Santa Rosa De Copan
14.794,-92.37,85.2,0.00,Tapachula Intl
14.8,100.617,85.4,0.00,Lop Buri
14.8,120.267,82.9,0.00,Subic Bay Weather
14.876,5.265,93.4,0.00,Tahoua
14.883,103.5,85.4,0.00,Surin
14.917,-92.25,82.1,0.00,Tapachula  Chis
14.935,102.079,85.2,0.00,Khorat
15.0,145.617,85.2,0.00,West Tinian
15.117,105.767,88.1,0.00,Pakse
15.117,145.733,82.4,0.00,Saipan/Isley (Cgs)
15.167,-87.117,79.2,0.00,Yoro
15.233,-9.35,98.3,0.00,Nioro Du Sahel
15.251,104.87,85.6,0.00,Ubon Ratchathani
15.261,-83.781,77.8,1.56,Puerto Lempira
15.267,101.2,84.7,0.12,Bua Chum
15.317,-91.467,66.3,0.06,Huehuetenango
15.317,103.683,86.5,0.00,Tha Tum
15.333,119.967,82.9,0.00,Iba/Luzon Island
15.337,-61.392,83.2,0.00,Canefield
15.383,-15.117,88.3,0.00,Linguere
15.417,75.633,85.3,0.00,Gadag
15.453,-87.924,83.0,0.00,La Mesa Intl / Ramon Villeda Morales Intl
15.467,120.95,82.8,0.00,Cabanatuan
15.476,44.22,71.6,0.00,Sanaa Intl
15.483,73.817,84.7,0.00,Goa/Panjim
15.547,-61.3,82.4,0.00,Melville Hall
15.65,-13.25,96.7,0.00,Matam/Ouro Sogui
15.657,101.105,85.2,0.00,Wichian Buri
15.673,100.137,88.8,0.00,Nakhon Sawan
15.683,-96.483,85.0,0.00,Puerto Angel  Oax.
15.731,-88.584,85.0,0.00,Puerto Barrios
15.733,120.933,80.7,0.08,Munoz
15.742,-86.853,82.0,0.00,Goloson Intl
15.75,121.633,76.7,0.08,Baler Radar
15.775,-96.263,84.3,0.00,Bahias De Huatulco Intl
15.776,-87.476,82.4,0.00,Tela
15.8,78.067,93.4,0.00,Kurnool
15.8,102.033,82.4,0.00,Chaiyaphum
15.859,74.618,80.4,0.00,Belgaum
15.877,-97.089,81.8,0.00,Puerto Escondido Intl
15.967,48.783,96.8,0.00,Sayun
16.044,108.199,77.7,0.00,Danang Intl
16.051,-16.463,71.8,0.00,Saint Louis Ousmane Masseck Ndiaye
16.07,103.646,83.9,0.00,Rob Muang
16.083,120.35,82.5,0.00,Dagupan
16.1,-88.25,80.8,0.39,Hunting Caye
16.16,-13.508,97.3,0.00,Kaedi
16.167,-95.183,85.0,0.00,Salina Cruz  Oax.
16.2,81.15,89.3,0.00,Machilipatnam/Franchpet
16.248,-0.005,98.7,0.00,Gao
16.25,-92.133,64.4,0.00,Comitan  Chis.
16.265,-61.532,80.0,0.00,Le Raizet
16.267,122.133,77.0,0.20,Casiguran
16.317,-86.523,85.4,0.00,Juan Manuel Galvez Intl
16.375,120.62,66.9,0.51,Baguio
16.402,107.703,76.6,0.00,Phubai
16.467,102.784,84.2,0.00,Khon Kaen
16.483,99.533,86.2,0.00,Kamphaeng Phet
16.5,-15.817,86.2,0.00,Rosso
16.533,104.717,83.5,0.00,Mukdahan
16.533,111.617,80.3,0.00,Sanhu Dao
16.557,104.76,84.7,0.00,Savannakhet
16.59,-11.406,97.2,0.00,Kiffa
16.622,-7.317,99.1,0.00,Nema
16.65,-14.967,93.7,0.00,Podor
16.676,101.195,83.2,0.00,Phetchabun
16.7,98.545,82.6,0.00,Mae Sot
16.73,-3.008,94.7,0.00,Tombouctou
16.733,-169.533,82.0,0.00,Johnston Atoll Airport
16.741,-22.949,72.6,0.00,Amilcar Cabral Intl
16.75,-99.75,83.0,0.00,Acapulco  Gro
16.75,-93.133,74.0,0.00,Francisco Sarabia / Tuxtla Gutierrez Intl
16.75,-62.167,82.4,0.00,Blackburne/Plymouth
16.757,-99.754,82.2,0.00,General Juan N Alvarez Intl / Acapulco Intl
16.783,100.279,83.7,0.00,Phitsanulok
16.833,112.333,79.7,0.00,Xisha Dao
16.896,99.253,88.2,0.00,Tak
16.901,42.586,86.7,0.00,King Abdullah Bin Abdulaziz
16.907,96.133,84.5,0.00,Yangon Intl
16.917,-89.883,80.5,0.96,Flores/Santa Elena
16.933,54.017,84.9,0.00,Mina Salalah
16.95,82.233,85.7,0.01,Kakinada
16.967,7.967,91.8,0.00,Agadez / Mano Dayak
16.983,73.333,82.5,0.00,Ratnagiri
17.0,-96.733,71.3,0.00,Xoxocotlan Intl / Oaxaca Intl
17.039,54.091,83.1,0.00,Salalah
17.05,-96.717,68.3,0.00,Oaxaca  Oax.
17.137,-61.793,81.2,0.00,V C Bird Intl
17.14,-157.79,77.7,0.00,Sw Hawaii 215 Nm South Southwest Of Hilo
17.15,104.133,83.3,0.00,Sakon Nakhon
17.183,-87.5,79.3,0.00,Half Moon Caye
17.206,-62.59,82.9,0.00,Vance Winkworth Amory Intl
17.233,99.05,82.5,0.02,Bhumibol Dam
17.311,-62.719,79.9,0.00,Robert L Bradshaw
17.386,102.788,82.7,0.00,Udon Thani
17.417,104.783,84.0,0.00,Nakhon Phanom
17.439,101.722,79.8,0.00,Loei
17.452,78.461,86.5,1.19,Begumpet Airport / Hyderabad Intl
17.467,47.121,87.9,0.00,Sharurah
17.483,106.6,74.3,0.00,Dong Hoi
17.496,-62.979,81.6,0.01,F D Roosevelt
17.52,-152.48,77.1,0.00,Se Hawaii 185 Nm Southeast Of Hilo  Hi
17.533,-14.683,92.0,0.00,Boutilimit
17.539,-88.308,80.9,0.00,Philip S W Goldson Intl
17.55,-99.5,72.1,0.00,Chilpancingo  Ro.
17.555,120.356,83.0,0.00,Vigan
17.602,-101.461,83.6,0.00,Ixtapa Zihuatanejo Intl
17.611,44.419,83.3,0.00,Nejran
17.617,100.1,85.5,0.94,Uttaradit
17.628,75.935,91.8,0.00,Solapur
17.638,121.731,78.1,0.00,Tuguegarao
17.666,54.025,82.0,0.00,Thumrait
17.7,-64.813,81.1,0.00,Christiansted/Alex.
17.7,83.3,82.1,0.54,Cwc Vishakhapatnam/Waltair
17.867,102.75,82.2,0.00,Nong Khai
17.9,-62.85,77.4,0.00,Gustavia/St.Barthel
17.936,-76.788,80.7,0.00,Norman Manley Intl
17.983,-92.817,80.9,0.00,C P A Carlos Rovirosa Intl / Villahermosa Intl
17.988,102.563,84.0,0.00,Wattay Intl
18.008,-66.563,84.8,0.00,Mercedita
18.041,-63.109,80.6,0.00,Princess Juliana Intl
18.098,-15.948,74.3,0.00,Nouakchott
18.103,-94.581,78.3,0.00,Minatitlan
18.132,100.165,81.6,0.39,Phrae
18.167,97.933,84.0,0.00,Mae Sariang
18.178,120.532,79.6,0.08,Laoag Intl
18.183,-94.5,77.3,0.00,Coatzacoalcos  Ver
18.217,109.583,77.7,0.00,Sanya
18.24,42.657,67.7,0.00,Abha
18.25,-67.15,80.3,0.00,Eugenio Maria De Ho
18.251,-71.12,78.2,0.98,Maria Montez Intl
18.255,-65.641,80.3,0.00,Naval Station Roosevelt Roads Ceiba
18.271,99.504,81.7,0.00,Lampang
18.297,42.804,67.8,0.00,King Khaled Ab
18.336,-64.98,82.9,0.00,Cyril E King Airport
18.367,121.633,73.8,0.04,Aparri
18.417,-66.0,78.5,0.14,San Juan Intl Arpt
18.43,-69.669,81.1,0.09,De Las Americas Intl
18.433,-69.883,79.7,0.29,Santo Domingo
18.433,-66.011,78.5,0.00,Luis Munoz Marin In
18.5,-67.133,78.5,0.00,Aquadilla/Borinquen
18.504,-77.913,78.6,0.00,Sangster Intl
18.505,-88.327,81.0,0.00,Chetumal Intl
18.533,73.85,85.3,0.00,Pune
18.567,-68.363,82.6,0.20,Punta Cana Intl
18.567,99.033,82.8,0.00,Lamphun
18.654,-91.799,82.4,0.00,Ciudad Del Carmen Intl
18.683,12.917,85.5,0.00,Bilma
18.717,-110.95,75.4,0.00,Isla Socorro  Col.
18.737,105.671,71.7,0.08,Vinh
18.767,79.433,95.5,0.00,Ramgundam
18.767,98.963,79.8,0.08,Chiang Mai Intl
18.808,100.783,81.1,0.00,Nan
18.835,-99.262,73.9,0.00,General Mariano Matamoros / Cuernavaca Intl
18.9,145.6,79.9,0.00,Pagan Island Aws  Mariana Is.
19.0,-155.667,72.6,0.00,South Point  Hawaii
19.05,-104.317,77.4,0.00,Manzanillo  Col.
19.067,109.883,73.9,0.00,Xin-Shi
19.089,72.868,84.1,0.00,Chhatrapati Shivaji Maharaj Intl
19.1,108.617,78.2,0.00,Dongfang
19.117,100.8,79.6,0.00,Tha Wang Pha
19.145,-104.559,80.3,0.00,Playa De Oro Intl / Manzanillo Intl
19.146,-96.187,77.9,0.00,General Heriberto Jara Intl / Veracruz Intl
19.15,-96.117,75.6,0.00,Hacienda Ylang Ylang Veracruz  Ver.
19.158,-98.371,61.8,0.12,Hermanos Serdan Intl / Puebla Intl
19.16,-160.74,77.2,0.00,W Hawaii 205 Nm Southwest Of Honolulu  H
19.193,99.9,79.5,0.00,Phayao
19.233,110.467,74.9,0.00,Qionghai
19.267,121.467,75.9,0.00,Calayan
19.277,-103.577,82.3,0.00,Colima
19.283,-99.683,55.9,0.13,Toluca  Mex.
19.283,166.65,82.5,0.10,Wake Island Airfld
19.3,-81.367,82.4,0.00,Owen Roberts Airport
19.301,97.976,81.1,0.47,Mae Hong Son
19.337,-99.566,58.9,0.00,Licenciado Adolfo Lopez Mateos Intl / Toluca Intl
19.397,-102.039,69.5,0.00,Licenciado Y Gen Ignacio Lopez Rayon / Uruapan
19.4,-99.183,58.8,0.87,Mexico (Central)   D.F.
19.436,-99.072,59.0,0.00,Licenciado Benito Juarez Intl / Mexico City Intl
19.517,109.583,77.1,0.00,Danxian
19.55,-96.917,67.9,0.00,Jalapa  Ver.
19.567,-88.05,81.5,0.00,Felipe Carrillo Puerto  Q Roo
19.7,-101.183,71.8,0.00,Morelia  Mich.
19.717,-103.467,72.3,0.00,Ciudad Guzman  Jal.
19.719,-155.053,74.7,0.03,Hilo International Airport
19.733,-156.033,79.5,0.00,Kona Intl At Keahol
19.75,-155.55,64.1,0.00,Bradshaw Aaf
19.75,-70.55,81.5,1.37,Puerto Plata
19.75,105.783,69.9,0.04,Thanh Hoa
19.817,-90.5,82.5,0.00,Ingeniero Alberto Acuna Ongay Intl / Campeche Intl
19.85,-101.026,71.2,0.00,General Francisco J Mujica Intl / Morelia Intl
19.863,75.398,91.2,0.00,Aurangabad
19.885,99.827,78.9,0.04,Chiang Rai
19.897,102.161,82.4,0.20,Luang Phabang Intl
19.9,-75.15,81.4,0.00,Guantanamo Bay Naval Air Station
19.97,-75.835,80.8,0.00,Antonio Maceo Intl
19.983,-102.317,73.6,0.00,Zamora  Mich.
19.984,42.621,82.0,0.00,Bisha
20.0,110.25,74.5,0.00,Haikou
20.083,-98.367,58.8,0.00,Tulancingo  Hgo.
20.133,-98.75,61.4,0.00,Pachuca  Hgo.
20.133,92.873,81.5,0.00,Sittwe
20.133,107.717,71.1,0.00,Bach Long Vi
20.244,85.818,86.4,0.17,Bhubaneshwar / Biju Patnaik Intl
20.296,41.634,75.0,0.00,Al Baha / King Saud Bin Abdulaziz
20.333,-77.117,86.0,0.00,Manzanillo  Oriente
20.365,-74.506,78.8,0.00,Gustavo Rizo
20.367,110.167,75.7,0.00,Xuwen
20.433,106.15,72.5,0.00,Nam Dinh
20.451,121.98,74.4,0.00,Basco
20.504,45.2,91.0,0.00,Wadi Al Dawasir
20.507,-13.043,86.9,0.00,Atar
20.517,-86.917,82.5,0.00,Cozumel Intl
20.522,-103.311,72.3,0.00,Don Miguel Hidalgo Y Costilla Intl / Guadalajara Intl
20.617,-100.186,69.0,0.00,Queretaro Intercontinental
20.667,-103.383,74.6,0.02,Guadalajara  Jal.
20.667,116.717,75.4,0.00,Dongsha
20.675,58.89,83.9,0.00,Masirah
20.68,-105.254,76.7,0.00,Licenciado Gustavo Diaz Ordaz Intl / Puerto Vallarta Intl
20.683,-88.2,86.2,0.00,Valladolid  Yuc.
20.783,-156.95,74.7,0.00,Lanai
20.786,-76.315,82.2,0.00,Frank Pais Intl
20.8,106.633,71.4,0.00,Phu Lien
20.8,121.85,72.7,0.00,Itbayat
20.833,95.833,86.9,0.00,Meiktila
20.9,-156.429,77.7,0.00,Kahului Airport
20.9,70.367,82.8,0.00,Veraval
20.933,-17.03,68.7,0.00,Nouadhibou
20.937,-89.658,81.0,0.00,Licenciado Manuel Crescencio Rejon Int / Merida Intl
20.95,-156.667,77.4,0.00,Kapalua
20.95,-97.4,76.1,0.00,Tuxpan.Ver.
20.983,-101.483,79.2,0.00,Guanajuato Intl / Leon Intl
20.988,-76.936,83.1,0.00,Hermanos Ameijeiras
21.0,-101.283,66.2,0.02,Guanajuato  Gto.
21.033,-86.867,78.7,0.00,Cancun Intl
21.033,109.117,73.2,0.00,Wei-Zhou Island
21.092,79.047,91.1,0.00,Dr Baba Saheb Ambedkar Intl
21.15,-157.1,75.3,0.00,Molokai (Amos)
21.2,72.833,88.1,0.00,Surat
21.217,110.4,74.3,0.00,Zhanjiang
21.221,105.807,71.3,0.01,Noibai Intl
21.3,-89.65,78.7,0.00,Progreso  Yuc.
21.317,-158.067,78.8,0.00,Kalaeloa Arpt
21.317,-98.817,77.7,0.00,Matlapa  S.L.P.
21.324,-157.929,80.9,0.02,Honolulu International Airport
21.419,-104.843,74.0,0.02,Tepic
21.42,-77.848,82.0,0.00,Ignacio Agramonte Intl
21.433,39.767,82.2,0.00,Makkah
21.45,-157.768,75.5,0.00,Kaneohe Mcas
21.452,91.964,84.1,0.00,Coxs Bazar
21.483,40.544,75.1,0.00,Taif
21.483,109.1,74.6,0.00,Beihai
21.487,-158.028,74.9,0.12,Wheeler Army Airfield
21.5,101.583,77.7,0.20,Mengla
21.517,86.933,86.2,0.01,Balasore
21.517,107.967,72.2,0.00,Mong Cai
21.517,111.3,74.2,0.00,Tian-Cheng
21.55,107.967,72.8,0.00,Dong-Xing
21.616,-81.546,80.6,0.00,Vilo Acuna Intl
21.68,39.157,77.5,0.00,King Abdulaziz Intl
21.705,-102.318,67.8,0.04,Jesus Teran Intl / Aguascalientes Intl
21.733,112.767,73.1,0.00,Shangchuan Dao
21.833,106.767,69.4,0.02,Lang Son
21.835,-82.784,81.6,0.00,Rafael Cabrera
21.867,111.967,74.1,0.00,Yangjiang
21.9,-159.6,76.3,0.00,Port Allen Arpt
21.914,84.05,85.1,0.00,Jharsuguda / Veer Surendra Sai
21.933,-99.983,74.9,0.00,Rio Verde  S.L.P.
21.95,108.617,74.0,0.00,Qinzhou
21.983,96.1,89.2,0.00,Mandalay
21.984,-159.341,76.8,0.00,Lihue Airport
22.0,100.783,79.5,0.08,Jinghong
22.0,120.75,72.5,0.00,Hengchun (=595590)
22.027,-78.79,84.6,0.00,Maximo Gomez
22.029,121.534,66.3,0.00,Lanyu
22.033,-159.783,78.1,0.00,Barking Sands Pacific Missile Range Fac Arpt
22.033,121.55,69.3,0.00,Lan Yu
22.041,120.73,74.5,0.00,Hengchun
22.1,-103.267,69.1,0.36,Colotlan  Jal.
22.1,95.133,84.1,0.00,Monywa
22.15,113.592,71.8,0.00,Macau Intl
22.2,-97.85,76.1,0.00,Tampico  Tamps
22.217,-159.45,74.4,0.00,Princeville  Kauai  Hawaii
22.25,91.813,81.5,0.00,Shah Amanat Intl
22.25,109.967,73.0,0.00,Bobai
22.254,-100.931,68.2,0.00,Ponciano Arriaga Intl / San Luis Potosi Intl
22.267,112.783,73.9,0.00,Tai-Shan
22.296,-97.866,75.7,0.00,General Francisco Javier Mina Intl / Tampico Intl
22.309,70.78,90.9,0.00,Rajkot
22.309,113.915,74.1,0.00,Hong Kong Intl
22.312,114.173,72.6,0.00,Kowloon
22.35,110.933,75.1,0.00,Xinyi
22.35,120.9,67.0,0.00,Dawu
22.367,106.75,70.3,0.01,Longzhou
22.417,120.55,76.7,0.00,Chia Tung
22.5,103.967,74.2,0.02,Lao Cai
22.567,99.933,73.2,0.00,Lancang
22.577,120.35,74.0,0.00,Kaohsiung Intl
22.608,108.172,72.7,0.00,Wuxu
22.617,101.817,69.9,0.83,Jiangcheng
22.633,120.283,74.1,0.00,Kaohsiung
22.639,113.811,73.8,0.00,Baoan Intl
22.655,88.447,84.3,0.00,Netaji Subhash Chandra Bose Intl
22.667,106.25,68.6,0.08,Cao Bang
22.672,120.462,74.7,0.00,Pingtung South
22.683,121.5,66.9,0.08,Lu-Tao
22.7,120.482,73.6,0.00,Pingtung North
22.717,111.55,76.7,0.00,Luoding
22.722,75.801,91.0,0.00,Devi Ahilyabai Holkar
22.75,121.15,69.8,0.00,Taidong (=595620)
22.755,121.102,70.4,0.00,Taitung / Fongnian
22.767,81.9,83.2,0.00,Pendra Road
22.767,100.983,71.5,0.04,Simao
22.783,-102.567,59.9,0.00,Zacatecas  Zac. (La Bufa  Zac.)
22.783,115.367,71.6,0.00,Shanwei
22.783,120.262,72.2,0.00,Gangshan
22.793,121.182,72.3,0.00,Jhihhang
22.8,5.433,76.1,0.01,Tamanrasset
22.8,5.45,75.6,0.00,Tamanrasset
22.813,86.169,88.6,0.00,Jamshedpur
22.897,-102.687,64.4,0.00,General Leobardo C Ruiz Intl / Zacatecas Intl
22.933,97.75,78.2,0.00,Lashio
22.933,110.983,74.8,0.00,Cen-Xi
22.95,120.206,74.3,0.00,Tainan
22.989,-82.409,76.6,0.00,Jose Marti Intl
23.0,120.217,74.3,0.00,Tainan (=593580)
23.034,-81.435,77.2,0.00,Juan Gualberto Gomez Intl
23.05,112.467,76.1,0.00,Gaoyao
23.067,57.633,79.2,0.00,Saiq
23.077,72.635,91.9,0.00,Ahmedabad / Sardar Vallabhbhai Patel Intl
23.083,114.417,73.2,0.00,Hui-Yang
23.083,116.3,72.6,0.00,Huilai
23.1,121.367,66.3,0.00,Cheng-Kung
23.133,106.417,64.7,0.08,Xinjing
23.133,107.65,69.9,0.08,Long'An
23.152,-109.721,82.1,0.00,Los Cabos Intl / San Jose Del Cabo Intl
23.161,-106.266,75.3,0.00,General Rafael Buelna Intl / Mazatlan Intl
23.178,80.052,88.5,0.00,Jabalpur
23.184,89.161,80.0,0.04,Jessore / Jashore
23.2,-106.417,77.6,0.00,Colonia Juan Carrasco Mazatlan  Sin.
23.267,119.667,72.2,0.00,Dongshi
23.287,77.337,93.9,0.00,Bhopal / Raja Bhoj
23.288,69.67,88.7,0.00,Bhuj
23.3,105.95,66.2,0.01,Napo
23.314,85.322,80.4,0.00,Birsa Munda
23.392,113.299,74.1,0.00,Baiyun Intl
23.4,110.083,74.0,0.00,Guiping
23.4,116.683,70.8,0.00,Shantou / Chaoshan
23.45,103.333,67.2,0.02,Mengzi
23.462,120.393,72.3,0.00,Chiayi
23.483,111.3,72.5,0.00,Wuzhou
23.483,120.95,37.6,0.00,Mount Morrison
23.5,119.5,71.5,0.00,Penghu Islands
23.5,120.45,69.5,0.00,Chiayi
23.517,120.8,47.8,0.00,Mount Alisan
23.55,99.4,70.1,0.08,Gengma
23.569,119.628,69.9,0.00,Magong / Penghu
23.583,103.867,60.0,0.01,Dehoujie
23.6,101.983,77.8,0.28,Yuanjiang
23.633,-103.65,65.9,0.00,Sombrerete  Zac.
23.7,-15.867,68.1,0.00,Villa Cisneros(Mil)
23.704,-98.957,83.0,0.00,General Pedro Jose Mendez Intl / Ciudad Victoria Intl
23.742,-99.17,81.8,0.00,Ciudad Victoria   Tamps.
23.767,-98.2,81.6,0.00,Soto La Marina   Tamps.
23.779,90.383,75.8,0.00,Tejgaon
23.8,114.733,72.8,0.00,Heyuan
23.843,90.398,85.7,0.00,Hazrat Shahjalal Intl
23.883,113.517,74.0,0.00,Fogang
23.883,120.85,63.3,0.00,Joyutang
23.887,91.24,80.1,0.94,Agartala
23.9,106.6,66.9,0.08,Baise
23.95,100.217,67.3,0.20,Lincang
23.95,112.2,75.0,0.00,Huaiji
23.964,32.82,73.5,0.00,Aswan Intl
23.983,121.6,70.7,0.00,Hua-Lien City
24.0,97.85,70.9,0.20,Ruili
24.023,121.618,68.6,0.00,Hualien
24.067,105.067,61.6,0.04,Guangnan
24.073,-110.362,85.7,0.00,General Manuel Marquez De Leon Intl / La Paz Intl
24.124,-104.528,80.2,0.00,Durango Intl
24.144,38.063,75.3,0.00,Yenbo / Prince Abdulmohsin Bin Abdulaziz
24.15,120.683,70.8,0.00,Taizhong
24.153,89.049,76.5,0.00,Ishurdi
24.167,-110.3,79.5,0.00,La Paz  Bcs
24.179,23.314,70.0,0.00,Kufra
24.186,120.654,73.0,0.00,Taichung
24.2,110.517,70.1,0.00,Mengshan
24.25,120.517,70.1,0.00,Wu-Chi Observatory
24.262,55.609,88.9,0.00,Al Ain Intl
24.265,120.621,69.6,0.00,Taichung Intl / Ching Chuang Kang Ab
24.283,116.067,72.1,0.00,Mei Xian
24.29,153.979,79.3,0.00,Minami Torishima
24.293,9.452,75.7,0.00,Tiska
24.345,124.187,73.4,0.00,New Ishigaki
24.35,109.4,70.0,0.02,Liuzhou
24.367,114.483,72.6,0.00,Lianping
24.428,54.458,85.1,0.00,Al Bateen Executive
24.428,118.359,68.5,0.00,Shang Yi / Kinmen
24.433,54.651,85.4,0.00,Abu Dhabi Intl / Zayed Intl
24.46,-81.88,76.0,0.00,Sand Key  Fl
24.467,56.65,89.2,0.00,Sohar Majis
24.467,111.567,74.0,0.00,Hexian/Babu
24.467,122.978,76.8,0.00,Yonaguni
24.467,123.017,72.1,0.00,Yonagunijima
24.533,103.767,63.1,0.00,Luxi
24.544,118.128,69.9,0.00,Gaoqi
24.553,39.705,81.5,0.00,Prince Mohammad Bin Abdulaziz
24.557,-81.755,77.4,0.00,Key West International Airport
24.567,46.85,81.1,0.00,Eskan Village
24.567,80.833,85.3,0.05,Satna
24.583,-81.683,77.5,0.00,Key West Nas
24.6,121.85,71.5,0.00,Suao Met Station
24.63,-81.11,77.4,0.00,Sombrero Key  Fl
24.633,117.65,72.5,0.00,Zhangzhou
24.65,77.317,91.3,0.05,Guna
24.654,124.675,76.6,0.00,Tarama
24.667,113.6,75.1,0.00,Shaoguan
24.7,108.05,66.5,0.08,Hechi
24.722,46.725,76.4,0.00,King Salman Ab
24.733,-81.05,78.7,0.00,Florida Keys Maratho
24.744,84.951,84.4,0.00,Gaya
24.75,121.767,72.3,0.00,Ilan
24.75,121.783,69.6,0.00,Ilan City
24.765,-107.475,84.5,0.00,Culiacan Intl
24.783,125.295,70.5,0.00,Miyako
24.784,141.323,68.9,0.00,Iwoto
24.8,112.367,72.9,0.00,Lianzhou
24.8,118.583,67.2,0.00,Jin-Jiang
24.818,120.939,71.9,0.00,Hsinchu
24.827,125.145,72.6,0.00,Shimojishima
24.833,120.0,68.3,0.00,Hsinchu City
24.85,89.367,74.9,0.67,Bogra
24.907,67.161,87.0,0.00,Jinnah Intl
24.933,121.3,76.2,0.04,Pa Kuei/Bakuai
24.95,115.65,68.9,0.00,Xunwu
24.958,46.699,75.3,0.00,King Khaled Intl
24.963,91.867,75.5,0.31,Osmani Intl
24.983,98.5,59.9,0.24,Tengchong
24.992,102.744,66.7,0.00,Wujiaba / Changshui
25.0,-111.633,79.3,0.00,Ciudad Constitucion  Bcs
25.01,-80.38,77.0,0.00,Molasses Reef  Fl
25.017,101.517,66.5,0.00,Chuxiong
25.033,121.517,74.2,0.00,Taibei
25.039,-77.466,76.2,0.00,Nassau Intl / Lynden Pindling Intl
25.056,121.243,74.6,0.00,Taoyuan
25.067,109.25,68.1,0.00,Rong-Shui
25.067,116.35,70.4,0.00,Shanghang
25.069,121.552,74.8,0.00,Songshan
25.078,121.233,71.8,0.00,Chiang Kai Shek Intl / Taoyuan Intl
25.083,107.2,64.4,0.08,Tian'E/Liupai
25.117,99.183,63.0,0.16,Baoshan
25.15,121.8,73.9,0.00,Chilung
25.17,-94.42,73.0,0.00,W Gulf 240 Nm South-Southeast Of Sabine
25.218,110.039,68.0,0.00,Liangjiang
25.237,-11.589,71.2,0.00,Bir Moghrein
25.255,55.364,85.6,0.00,Dubai Intl
25.261,51.565,83.4,0.00,Doha Intl
25.283,60.617,86.3,0.00,Chahbahar
25.285,49.485,81.1,0.00,Al Ahsa
25.3,117.4,70.8,0.00,Zhang Ping
25.329,55.517,86.0,0.00,Sharjah Intl
25.367,-101.017,75.2,0.00,Plan De Guadalupe Intl / Saltillo Intl
25.367,97.4,80.6,0.00,Myitkyina
25.4,114.933,74.6,0.00,Xin-Feng
25.433,105.183,58.0,0.04,Xingren
25.433,106.767,67.7,0.00,Luodian
25.44,81.734,81.5,0.00,Allahabad Arpt
25.45,30.533,70.7,0.00,Kharga
25.483,-80.383,76.3,0.43,Homestead Afb Airport
25.5,28.967,67.4,0.00,Dakhla
25.517,119.783,66.9,0.00,Pingtan
25.568,-103.411,80.6,0.00,Torreon Intl
25.583,103.833,58.0,0.08,Zhanyi
25.59,-80.1,38.7,0.00,Fowey Rocks  Fl
25.591,85.088,85.2,0.00,Jai Prakash Narayan Intl Patna
25.613,55.939,87.5,0.00,Ras Al Khaimah Intl
25.617,111.6,68.7,0.00,Daoxian
25.633,122.067,71.4,0.00,Pengjia Yu
25.65,-80.433,76.7,0.00,Kendall Tamiami Exec
25.671,32.707,70.8,0.00,Luxor Intl
25.673,21.091,80.3,0.00,Tazerbo
25.685,-109.081,82.1,0.00,Valle Del Fuerte Intl / Los Mochis Intl
25.7,100.183,61.1,0.00,Dali
25.717,118.1,53.8,0.00,Jiuxian Shan
25.733,-100.3,80.6,0.00,Monterrey  N.L.
25.733,89.233,78.0,0.00,Rangpur
25.733,101.867,79.5,0.00,Yuanmou
25.733,112.967,70.9,0.00,Chenzhou
25.77,-97.525,80.5,0.00,General Servando Canales Intl / Matamoros Intl
25.778,-100.107,81.4,0.00,General Mariano Escobedo Intl / Monterrey Intl
25.788,-80.317,78.2,0.23,Miami International Airport
25.833,107.55,61.3,0.01,Dushan
25.84,-89.66,74.5,0.00,Mid Gulf 180 Nm South Of Southwest Pass
25.847,131.263,67.9,0.02,Minami Daito
25.85,114.95,74.4,0.00,Ganzhou
25.85,116.367,67.4,0.00,Changting
25.866,-100.237,82.7,0.00,Del Norte Intl
25.914,-97.423,75.1,0.00,Brownsville/S Padre Island Intl Ap
25.945,131.327,72.7,0.00,Kitadaito
25.967,108.533,68.2,0.04,Rongjiang
25.967,117.35,68.4,0.00,Yong'An
25.989,-111.348,74.0,0.00,Loreto Intl
26.009,-98.229,83.4,0.00,General Lucio Blanco Intl / Reynosa Intl
26.01,-85.91,77.1,0.00,E Gulf 260 Nm South Of Panama City  Fl
26.072,-80.154,78.1,0.00,Fort Lauderdale Hol
26.083,119.283,70.3,0.00,Fuzhou
26.133,34.25,71.7,0.00,Kosseir
26.153,-81.775,74.6,0.00,Naples Muni
26.16,119.958,65.4,0.00,Nangan
26.167,109.783,68.1,0.00,Tongdao
26.167,119.933,65.8,0.00,Mazu
26.183,117.617,65.7,0.00,Sanming
26.184,-98.254,78.7,0.00,Mc Allen Miller Intl Arpt
26.196,127.646,69.6,0.00,Naha
26.199,36.476,70.9,0.00,Wejh
26.2,127.683,69.8,0.00,Naha
26.228,-97.654,78.2,0.00,Valley International Arpt
26.233,111.617,69.3,0.00,Lingling
26.265,50.152,80.8,0.00,King Abdulaziz Ab
26.267,127.75,70.2,0.00,Okinawa Marine Corps Air Station
26.271,50.634,79.7,0.00,Bahrain Intl
26.293,78.228,86.6,0.00,Gwalior
26.3,43.767,73.3,0.00,Gassim
26.356,127.768,70.1,0.00,Kadena Ab
26.364,126.714,71.2,0.00,Kumejima
26.4,103.25,55.0,0.01,Huize
26.517,119.533,70.1,0.00,Luoyuan
26.532,54.825,83.0,0.00,Bandar Lengeh
26.533,-81.75,75.0,0.00,Southwest Florida I
26.539,106.801,63.3,0.02,Longdongbao
26.559,-78.696,78.2,0.00,Grand Bahama Intl
26.585,-81.861,75.2,0.00,Page Field Airport
26.6,12.783,86.1,0.00,Obari
26.6,127.233,73.6,0.00,Aguni Island
26.61,-80.03,76.4,0.00,Lake Worth  Fl
26.617,92.783,75.8,0.43,Tezpur
26.633,118.15,69.3,0.00,Nanping
26.65,102.25,63.2,0.00,Huili
26.685,-80.099,77.9,0.00,Palm Beach International Airport
26.7,-79.0,76.0,0.00,Settlement Point  Gbi
26.724,8.623,85.1,0.01,Illizi Takhamalt / Ibrahim Ghouma
26.733,-108.283,80.6,0.00,Choix  Sin.
26.733,110.633,68.6,0.00,Wugang
26.74,83.45,81.5,0.01,Gorakhpur
26.761,80.889,81.8,0.00,Lucknow / Chaudhary Charan Singh Intl
26.8,113.533,68.5,0.00,Chaling
26.824,75.812,91.4,0.00,Jaipur
26.833,100.217,57.7,0.00,Lijing
26.85,116.333,71.4,0.00,Guangchang
26.867,104.283,52.1,0.00,Weining
26.933,-105.667,74.2,0.00,Hidalgo Del Parral   Chih.
26.933,112.583,68.9,0.00,Hengyang
26.95,-96.7,70.7,0.00,Corpus Christi  Tx. 50Nm Southeast Of Co
26.955,64.133,91.1,0.00,Panjgur
26.956,-101.47,87.8,0.00,Monclova Intl
26.967,108.667,65.5,0.12,Sansui
26.987,14.473,80.4,0.00,Sebha
27.044,128.402,72.7,0.00,Yoron
27.047,31.012,70.3,0.00,Asyut Intl
27.05,118.317,68.3,0.00,Jian'Ou
27.07,-82.45,71.2,0.00,Venice  Fl
27.092,142.191,66.8,0.16,Chichi Jima Bonin Island
27.117,114.967,71.9,0.00,Ji'An
27.178,33.799,69.4,0.00,Hurghada Intl
27.183,111.45,68.2,0.00,Shaoyang
27.218,56.378,86.2,0.00,Bandar Abbas Intl
27.233,2.5,79.5,0.00,In-Salah
27.236,60.72,92.7,0.00,Iran Shahr
27.295,94.098,72.9,0.39,Lilabari
27.3,105.233,60.2,0.00,Bijie
27.3,112.7,55.2,0.00,Nanyue
27.333,62.333,87.9,0.00,Saravan
27.333,97.417,71.4,0.00,Putao
27.333,103.75,56.0,0.04,Zhaotong
27.333,117.467,66.0,0.00,Shaowu
27.333,120.2,67.1,0.00,Fuding
27.383,-82.55,73.5,0.00,Sarasota Bradenton
27.393,-109.833,83.7,0.00,Santa Rosalia  Bcs
27.426,128.701,69.5,0.00,Okierabu
27.438,41.686,68.3,0.00,Hail
27.444,-99.57,86.3,0.00,Quetzalcoatl Intl / Nuevo Laredo
27.45,109.683,67.6,0.00,Zhijiang
27.45,112.2,66.9,0.00,Shuang-Feng
27.5,-97.817,76.1,0.00,Kingsville Nas
27.55,-99.467,79.2,0.00,Laredo Intl Airport
27.583,116.65,68.4,0.00,Nancheng
27.653,-80.243,73.3,0.00,Vero Beach Muni
27.683,-97.283,72.1,0.00,Corpus Christi Nas
27.697,85.359,57.6,0.00,Tribhuvan Intl
27.7,106.883,64.2,0.04,Zunyi
27.733,89.083,28.2,0.04,Pagri
27.741,-98.025,76.0,0.00,Alice International Arpt
27.765,-82.628,76.1,0.00,Albert Whitted Airport
27.767,118.033,64.9,0.00,Wuyishan
27.774,-97.512,73.9,0.00,Corpus Christi International Airport
27.8,114.383,67.9,0.00,Yichun
27.815,-17.887,67.4,0.00,Hierro
27.83,-97.05,69.9,0.00,Port Aransas  Tx
27.836,128.881,72.5,0.00,Tokunoshima
27.85,-82.517,76.3,0.00,Mac Dill Afb Airport
27.9,-82.683,73.9,0.12,St Petersburg Clear
27.9,102.267,65.1,0.00,Xichang
27.901,45.528,74.4,0.00,King Khaled Military City / King Saud Ab
27.917,118.533,65.6,0.00,Pucheng
27.932,-15.387,65.3,0.00,Gran Canaria
27.95,-110.767,77.0,0.00,Empalme  Son.
27.95,-81.783,77.3,0.00,Bartow Muni
27.95,108.25,66.9,0.00,Sinan
27.962,-82.54,73.0,0.00,Tampa International Airport
27.969,-110.925,83.9,0.00,General Jose Maria Yanez Intl / Guaymas Intl
27.983,-82.017,78.2,0.00,Lakeland Linder Rgn
28.0,73.3,92.8,0.00,Bikaner
28.017,120.667,67.1,0.00,Wenzhou
28.044,-16.572,65.3,0.00,Tenerife Sur
28.05,115.533,68.5,0.01,Qingjiang/Zhangshuz
28.052,9.643,83.8,0.00,In Amenas
28.083,-97.05,71.9,0.00,Aransas Co
28.083,30.733,65.1,0.00,Minya
28.1,119.083,66.7,0.00,Longquan
28.101,-80.644,74.2,0.00,Melbourne Intl Ap
28.117,112.783,66.1,0.00,Changsha
28.133,121.217,66.5,0.00,Yu-Huan
28.15,111.633,66.1,0.00,Mei-Cheng-Zhen
28.209,33.646,67.4,0.00,El Tor
28.233,-80.6,72.8,0.00,Patrick Afb Airport
28.267,109.683,66.7,0.00,Qian-Zhou-Zhen
28.284,68.45,92.7,0.00,Shahbaz Ab
28.3,-91.98,72.2,0.00,South Marsh Island
28.3,126.0,71.2,0.00,Moored Buoy 22001
28.321,129.928,71.2,0.00,Kikai
28.335,46.125,73.4,0.00,Al Qaisumah Intl
28.365,36.619,65.0,0.00,Tabuk / Prince Sultan Bin Abdulaziz
28.394,129.553,65.5,0.00,Naze/Funchatoge
28.417,92.467,46.2,0.00,Lhunze
28.422,79.451,83.4,0.00,Bareilly
28.431,129.713,69.9,0.00,Amami
28.434,-81.325,73.1,0.00,Orlando International Airport
28.448,-11.161,64.0,0.00,Plage Blanche
28.45,-16.25,66.4,0.00,Sta. Cruz De Tenerife
28.45,98.883,43.9,0.02,Deqen
28.45,119.917,68.5,0.00,Lishui
28.45,121.883,64.0,0.00,Dachen Dao
28.453,-13.864,65.6,0.00,Fuerteventura
28.457,-99.218,83.2,0.00,Cotulla-La Salle Co Arpt
28.467,110.4,66.3,0.00,Yuanling
28.483,-16.342,57.6,0.00,Tenerife Norte
28.483,117.983,67.8,0.00,Shangrao
28.517,-80.8,75.1,0.00,Space Coast Rgnl
28.519,-80.166,72.1,0.00,Canaveral 20 Nm East Of Cape Canaveral
28.545,-81.333,70.8,0.00,Executive Airport
28.567,77.103,81.1,0.00,Indira Gandhi Intl
28.585,77.206,87.8,0.02,Safdarjung
28.615,-80.694,71.4,0.00,Nasa Shuttle Landing
28.617,121.417,67.8,0.00,Hongjia
28.626,-17.756,66.2,0.00,La Palma
28.627,-100.535,82.3,0.00,Piedras Negras Intl
28.633,-106.083,78.2,0.00,Chihuahua  Chih.
28.633,87.083,37.3,0.00,Tingri
28.683,118.25,67.5,0.00,Yushan
28.703,-105.965,84.9,0.00,General R Fierro Villalobos Intl / Chihuahua Intl
28.725,-96.254,70.8,0.00,Palacios Municipal Airport
28.75,113.617,65.0,0.00,Pingjiang
28.78,-81.244,69.5,0.00,Orlando Sanford Airport
28.8,104.6,70.8,0.00,Yibin
28.833,108.767,63.3,0.00,Youyang
28.85,112.383,66.6,0.00,Yuanjiang
28.85,121.133,68.3,0.00,Linhai (Replaced By 58652 - Xianju)
28.861,-96.93,71.6,0.00,Victoria Regional Airport
28.865,115.9,69.3,0.00,Changbei Intl
28.883,105.433,69.6,0.00,Luzhou
28.892,53.723,70.9,0.00,Fasa
28.9,-89.43,67.8,0.00,Southwest Pass  La
28.9,-78.55,70.4,0.00,Canaveral East 120Nm East Of Cape Canave
28.945,-13.605,65.8,0.00,Lanzarote
28.95,-107.817,65.5,0.00,Temosachic  Chih.
28.967,118.867,65.9,0.00,Qu Xian
29.0,101.5,54.9,0.00,Jiulong
29.0,135.0,64.4,0.00,Moored Buoy 21004
29.033,114.583,65.4,0.00,Xiushui
29.05,100.3,45.3,0.00,Daocheng
29.05,111.683,66.9,0.00,Changde
29.067,87.683,46.4,0.00,Lhaze
29.083,116.883,67.5,0.00,Gu-Xian-Du
29.084,58.45,89.2,0.00,Bam
29.096,-111.048,88.7,0.00,General Ignacio P Garcia Intl / Hermosillo Intl
29.15,119.633,70.2,0.00,Jinhua
29.167,-82.217,66.4,0.00,Ocala Intl J Taylor
29.17,-118.32,66.2,0.00,Isla Guadalupe
29.179,75.755,90.5,0.00,Hisar
29.183,-81.048,66.8,0.00,Daytona Beach Intl
29.2,25.483,73.8,0.00,Siwa
29.2,121.95,64.6,0.00,Shipu
29.227,47.969,79.9,0.00,Kuwait Intl
29.233,56.567,65.4,0.00,Baft
29.25,88.883,46.0,0.00,Xigaze
29.27,-89.96,70.3,0.00,Grand Isle  La
29.273,-94.859,72.2,0.00,Scholes Intl At Glston Apt
29.3,117.2,66.1,0.00,Jingdezhen
29.36,-99.174,74.1,0.00,Hondo Municipal Airport
29.367,-100.783,79.7,0.00,Laughlin Afb Airport
29.369,-10.18,63.5,0.00,Sidi Ifni
29.378,-100.927,78.0,0.00,Del Rio International Airport
29.383,-98.583,76.2,0.00,Lackland Air Force Base (Kelly Field Annex)
29.383,113.083,66.6,0.00,Yueyang
29.4,110.167,68.9,0.00,Sangzhi
29.433,112.183,67.2,0.01,Anxiang
29.467,55.717,70.2,0.00,Sirjan
29.476,60.907,81.6,0.00,Zahedan Intl
29.517,103.333,38.5,0.02,Emei Shan
29.533,-98.262,76.0,0.02,Randolph Afb Airport
29.539,52.589,69.0,0.00,Shiraz Shahid Dastghaib Intl
29.544,-98.484,75.4,0.00,San Antonio International Airport
29.56,-91.533,69.2,0.00,Salt Point
29.561,34.96,72.2,0.00,Eilat
29.567,-90.66,71.6,0.00,Houma-Terrebonne
29.567,94.467,46.5,0.04,Nyingchi
29.583,105.05,70.9,0.01,Neijiang
29.583,111.3,68.9,0.00,Shi-Men
29.583,115.983,58.1,0.00,Lu Shan
29.6,120.817,68.4,0.00,Shengxian
29.612,35.018,68.8,0.00,Aqaba King Hussein Intl
29.617,-95.167,68.3,0.00,Ellington Field Airport
29.626,43.491,69.3,0.00,Rafha
29.633,-83.105,63.8,0.00,Cross City Airport
29.638,-95.282,69.4,0.00,William P Hobby
29.667,91.133,50.5,0.00,Lhasa / Gonggar
29.67,-94.05,68.8,0.00,Sabine  Tx
29.692,-82.276,65.2,0.00,Gainesville Rgnl
29.717,113.883,70.2,0.00,Puqi
29.717,118.267,67.6,0.00,Tunxi
29.719,106.642,68.5,0.04,Jiangbei
29.785,40.1,65.4,0.00,Al Jouf
29.817,-90.017,65.0,0.00,New Orleans Nas
29.86,-81.26,66.9,0.00,St. Augustine  Fl
29.883,69.717,85.9,0.00,Bar Khan
29.9,-97.867,73.9,0.00,San Marcos (Awos)
29.917,121.467,70.2,0.00,Ningbo
29.94,34.936,60.8,0.00,Ovda
29.951,-94.021,68.5,0.00,Southeast Texas Regional Airport
29.98,-95.36,72.6,0.00,G Bush Intercontinental Ap/Houston Ap
29.983,103.0,67.7,0.00,Ya'An
29.997,-90.278,67.0,0.00,Louis Armstrong New Orleans Intl Ap
30.0,99.1,61.3,0.00,Batang
30.0,100.267,43.3,0.00,Litang
30.033,-91.883,72.5,0.00,New Iberia/Acadiana
30.033,122.117,64.2,0.00,Dinghai
30.049,-90.029,67.5,0.00,Lakefront Airport
30.05,101.967,46.8,0.00,Kangding
30.067,-95.55,75.4,0.00,Houston/D.W. Hooks
30.067,-85.583,63.5,0.00,Tyndall Afb Airport
30.067,115.333,71.2,0.02,Qizhou
30.09,-88.77,67.6,0.00,Biloxi 22 Nm South-Southeast Of Biloxi
30.122,31.406,63.6,0.00,Cairo Intl
30.125,-93.228,67.5,0.00,Lake Charles Regional Airport
30.133,-2.167,67.9,0.00,Beni-Abbes
30.133,118.15,52.0,0.00,Huang Shan
30.152,9.715,80.8,0.00,Ghadames East
30.167,-102.417,79.5,0.00,Sanderson  Tx.
30.167,35.783,57.5,0.00,Ma'An
30.2,-85.683,69.2,0.00,Panama City Bay Co
30.2,110.667,66.8,0.00,Wu-Feng
30.203,71.419,82.0,0.00,Multan Intl
30.205,-91.988,68.4,0.00,Lafayette Regional Airport
30.21,-93.143,71.8,0.00,Chennault International Ap
30.217,-81.883,60.3,0.00,Cecil Fld
30.228,120.432,69.2,0.00,Xiaoshan
30.233,-81.667,66.7,0.00,Jacksonville Nas
30.25,-88.07,67.8,0.00,Dauphin Island  Al
30.274,56.951,68.5,0.00,Kerman
30.283,109.467,68.4,0.00,Enshi
30.317,78.033,77.0,0.00,Dehradun
30.321,-97.76,73.9,0.00,Austin/Mueller Muni
30.325,-9.413,63.2,0.00,Al Massira
30.333,-81.517,62.7,0.00,Jacksonville/Craig
30.333,76.467,82.3,0.00,Patiala
30.333,112.183,67.6,0.00,Jiangling
30.35,-87.317,61.3,0.00,Pensacola Nas
30.367,-107.95,79.3,0.00,Nueva Casas Grandes   Chih.
30.371,-104.017,68.8,0.00,Marfa Municipal Airport
30.371,48.228,78.5,0.00,Abadan
30.383,13.583,79.9,0.00,Gariat El-Sharghia
30.386,130.659,62.6,0.00,Yakushima
30.393,-84.353,60.9,0.00,Tallahassee Regional Airport
30.4,-89.067,69.2,0.00,Gulfport Biloxi Int
30.4,-81.417,65.2,0.00,Mayport Naf
30.4,30.35,68.0,0.00,Wadi El Natroon
30.417,-88.917,69.9,0.00,Keesler Air Force Base
30.417,-86.683,62.5,0.00,Hurlburt Field Airport
30.478,-87.187,68.9,0.00,Pensacola Regional Airport
30.483,-86.517,62.1,0.00,Valparaiso/Eglin Af
30.495,-81.694,62.2,0.00,Jacksonville International Airport
30.511,-99.766,78.7,0.00,Kimble County Airport
30.537,-91.147,67.6,0.00,Baton Rouge Metro R
30.547,130.95,68.2,0.00,Tanegashima
30.55,81.433,42.0,0.00,T'U-Ko-Erh-Ho-Kung
30.571,2.86,71.7,0.00,El Golea
30.579,103.947,67.2,0.00,Shuangliu
30.589,-96.365,74.0,0.00,Easterwood Fld
30.6,32.25,63.7,0.00,Ismailia
30.617,116.967,71.0,0.00,Anqing
30.617,121.083,66.9,0.00,Zha-Pu
30.626,-88.068,64.8,0.00,Mobile Downtown Airport
30.65,-86.517,70.3,0.00,Duke Fld
30.667,51.583,62.2,0.59,Yasoge
30.683,-97.683,74.8,0.00,Georgetown Muni
30.683,107.8,67.8,0.00,Liangping
30.688,-88.246,63.4,0.01,Mobile Regional Airport
30.717,-87.017,63.0,0.00,Whiting Field Naval Air Station North
30.717,20.167,72.2,0.00,Agedabia
30.717,130.983,64.5,0.00,Tanegashima
30.733,111.367,69.6,0.00,Yichang
30.733,122.45,61.7,0.00,Shengsi
30.75,106.133,66.5,0.00,Gaoping
30.75,115.667,68.3,0.00,Yingshan
30.783,-86.517,66.4,0.00,Bob Sikes Airport
30.783,-83.277,63.4,0.00,Valdosta Regional Airport
30.784,114.208,69.9,0.00,Tianhe
30.907,41.138,68.7,0.00,Arar
30.939,-6.909,62.2,0.00,Ouarzazate
30.95,88.633,28.0,0.24,Xainza
30.967,-83.2,64.9,0.00,Moody Afb/Valdosta
30.983,101.117,53.8,0.00,Dawu
31.017,109.533,70.8,0.00,Fengjie
31.033,-114.85,84.9,0.00,San Felipe  Bcn
31.033,35.467,73.3,0.00,Ghor Safi
31.05,-93.183,67.6,0.16,Polk Army Airfield
31.067,-97.833,75.7,0.00,Robert Gray Aff Airport
31.073,33.836,63.0,0.00,El Arish Intl
31.083,-97.683,75.3,0.00,Killeen Muni (Awos)
31.133,-97.717,81.3,0.00,Hood Aaf Airport
31.133,114.95,70.0,0.01,Macheng
31.15,-97.4,74.5,0.00,Draughon Miller Cen
31.15,97.167,53.8,0.00,Qamdo
31.15,118.583,69.4,0.00,Wuhuxian
31.152,-81.391,62.7,0.00,Malcolm Mc Kinnon Airport
31.167,112.633,67.7,0.00,Zhongxiang
31.183,-90.471,62.9,0.00,Mcom/Pike Co/J E Lws Fd Ap
31.183,52.667,62.1,0.04,Abadeh
31.184,29.949,60.8,0.00,Alexandria Intl
31.198,121.336,65.1,0.00,Hongqiao Intl
31.2,16.583,77.4,0.00,Sirte
31.2,107.5,67.0,0.00,Da Xian
31.236,-94.754,71.2,0.00,Angelina County Airport
31.25,-81.467,66.6,0.00,Brunswick Golden Is
31.267,-85.717,62.6,0.00,Cairns Army Airfield (Fort Rucker)
31.267,32.3,62.1,0.00,Port Said
31.267,120.617,69.2,0.00,Suzhou
31.267,130.3,61.8,0.00,Makurazaki
31.283,32.233,62.6,0.00,Port Said/El Gamil
31.287,34.723,58.7,0.00,Teyman
31.309,-86.394,65.8,0.00,Andalusia Opp
31.317,-92.55,68.2,0.00,Alexandria Int
31.317,-85.45,65.0,0.00,Dothan Rgnl
31.325,27.222,59.8,0.00,Mersa Matruh
31.337,48.762,79.0,0.00,Ahwaz
31.352,-100.495,79.3,0.00,San Angelo Regional/Maths Field Ap
31.358,69.464,82.2,0.00,Zhob
31.367,90.017,31.0,0.08,Baingoin
31.368,130.845,62.5,0.00,Kanoya
31.395,-92.291,71.4,0.00,Esler Regional Airport
31.399,-9.683,63.4,0.00,Essaouira / Mogador Intl
31.4,116.333,67.9,0.02,Huoshan
31.4,121.467,66.6,0.00,Shanghai
31.412,37.279,58.9,0.00,Guriat
31.417,95.6,42.7,0.00,Dengqen
31.42,-110.85,75.0,0.00,Nogales Automatic Meteorological
31.433,119.483,70.1,0.00,Liyang
31.45,104.733,65.3,0.00,Mianyang
31.458,-109.606,74.3,0.00,Bisbee Douglas Intl
31.467,-89.333,63.1,0.00,Hattiesburg Laurel
31.483,-97.317,73.6,0.00,Mc Gregor Executive
31.483,92.067,32.5,0.01,Nagqu
31.514,10.598,75.9,0.00,Nalut
31.522,74.404,79.4,0.00,Allama Iqbal Intl
31.533,60.033,88.0,0.00,Nehbandan
31.536,-84.194,62.0,0.00,Sw Georgia Regional Arpt
31.536,-82.507,67.9,0.00,Alma/Bacon Co.
31.55,31.1,61.9,0.00,Baltim
31.55,74.333,85.8,0.00,Lahore City
31.55,130.55,64.6,0.00,Kagoshima
31.567,25.133,62.2,0.00,Sallum Plateau
31.578,-94.71,70.1,0.00,A L Mangham Jr Rgnl
31.583,105.967,67.6,0.00,Langzhong
31.583,131.4,62.9,0.00,Aburatsu
31.588,-110.344,78.6,0.00,Sierra Vista Municipal-Libby Aaf Airport
31.607,-8.036,63.8,0.00,Menara
31.617,-91.3,65.6,0.00,Natchez/Hardy(Awos)
31.617,100.0,51.9,0.00,Garze
31.619,-97.228,74.5,0.00,Waco Regional Airport
31.636,-106.429,76.7,0.00,Abraham Gonzalez Intl / Ciudad Juarez Intl
31.673,6.14,77.6,0.00,Oued Irara / Krim Belkacem
31.693,38.731,57.0,0.00,Turaif
31.717,113.367,71.5,0.00,Suizhou
31.723,35.993,51.9,0.00,Queen Alia Intl
31.733,98.567,50.3,0.01,Dege
31.733,131.083,62.4,0.00,Miyakonojo
31.742,118.862,71.3,0.00,Lukou
31.767,119.95,70.5,0.00,Changzhou
31.78,-103.202,79.9,0.00,Winkler County Airport
31.78,117.298,70.8,0.00,Luogang / Xinqiao
31.803,130.719,63.7,0.00,Kagoshima
31.811,-106.376,83.1,0.00,El Paso International Airport
31.831,-104.809,74.3,0.00,Guadalupe Pass Amos
31.85,102.7,45.5,0.00,Ma-Tang
31.861,-86.012,68.5,0.00,Troy Municipal Airport
31.865,35.219,52.7,0.00,Jerusalem
31.867,35.217,52.7,0.00,Jerusalem Airport
31.877,131.449,64.0,0.00,Miyazaki
31.883,-81.567,69.0,0.00,Ft Stewart/Wright
31.883,93.783,38.6,0.08,Sog Xian
31.9,102.233,54.2,0.08,Barkam
31.905,54.277,78.2,0.00,Yazd Shahid Sadooghi
31.933,131.417,62.5,0.00,Miyazaki
31.948,-102.209,78.3,0.00,Midland International Airport
31.948,-4.398,58.5,0.16,Moulay Ali Cherif
31.95,-80.68,64.2,0.00,Savannah Light  Ga
31.973,35.992,54.0,0.00,Marka Intl
32.0,-75.083,64.0,0.00,S Hatteras - 250 Nm East Of Charleston
32.002,49.271,73.8,0.00,Shahid Asyaee
32.009,-81.146,62.1,0.00,Hunter Aaf
32.011,34.887,60.0,0.00,Ben Gurion
32.033,-81.667,42.5,0.00,Mprc-Ft Stewart
32.033,110.767,68.2,0.00,Fangxian
32.033,130.2,60.1,0.00,Akune
32.04,12.313,76.9,0.00,Yefren
32.067,108.033,68.5,0.00,Wanyuan
32.067,121.6,62.8,0.00,Lusi
32.084,131.451,61.4,0.00,Nyutabaru
32.097,20.269,72.0,0.00,Benina Airport
32.1,34.783,61.5,0.00,Sde-Dov (Tel-Aviv)
32.1,120.867,65.0,0.00,Nantong/Jinsha
32.131,-110.955,79.9,0.00,Tucson International Airport
32.131,-81.202,60.5,0.00,Savannah/Hilton Head Intl Airport
32.133,114.05,67.6,0.00,Xinyang
32.15,112.667,69.4,0.00,Zaoyang
32.161,37.149,58.8,0.00,Prince Hasan
32.167,-110.883,80.5,0.00,Davis-Monthan Afb Airport
32.167,115.617,67.9,0.00,Gushi
32.2,130.033,62.4,0.00,Ushibuka
32.217,130.75,61.2,0.00,Hitoyoshi
32.243,15.021,70.9,0.00,Misurata
32.25,-107.717,80.7,0.00,Deming Muni
32.25,96.217,40.9,0.06,Nangqen
32.267,91.667,24.4,0.08,P'A-Na
32.283,-106.917,76.3,0.00,Las Cruces Intl
32.283,-9.233,63.3,0.00,Safi
32.283,100.333,40.2,0.08,Sertar
32.297,50.842,56.5,0.00,Shahre Kord
32.3,-86.408,61.9,0.00,Montgomery Rgnl (Dannelly Fd) Ap
32.3,84.05,28.2,0.00,Lumaringbo
32.306,10.382,78.0,0.00,Remada
32.321,-90.078,65.5,0.00,Jackson International Airport
32.334,-104.258,84.1,0.00,Cavern City Air Trml Arpt
32.335,-88.744,62.7,0.00,Key Field Airport
32.35,-95.4,73.4,0.00,Tyler Pounds Rgnl
32.35,-85.0,59.6,0.00,Lawson Aaf Airport
32.356,36.259,56.2,0.00,King Hussein
32.367,-64.683,68.7,0.01,Naval Atlantic Meterology & Oceanography Facility
32.367,-6.4,60.6,0.16,Beni-Mellal
32.383,-106.483,87.2,0.00,White Sands  Nm.
32.383,-86.35,64.1,0.00,Maxwell Afb Airport
32.384,3.794,68.6,0.08,Noumerat Moufdi Zakaria
32.385,-94.712,72.5,0.00,East Texas Regional Arpt
32.4,-115.183,80.0,0.00,Ejido Nuevo Leon Bc.
32.401,14.143,71.5,0.00,El Khoms
32.411,-99.682,75.4,0.00,Abilene Regional Airport
32.417,104.517,66.6,0.00,Pingwu
32.433,-99.85,77.6,0.00,Abilene Dyess Afb
32.433,111.733,68.0,0.00,Laohekou
32.447,-93.824,69.5,0.00,Shreveport Regional Airport
32.483,-80.717,61.1,0.00,Beaufort Mcas
32.5,-93.667,67.7,0.00,Barksdale Air Force Base
32.5,80.083,32.9,0.00,Shiquanhe
32.516,-92.041,68.8,0.00,Monroe Regional Airport
32.516,-84.942,63.3,0.00,Columbus Metro Airport
32.533,-6.283,65.8,0.08,Kasba-Tadla
32.539,38.195,61.5,0.00,H4
32.541,-116.97,66.8,0.00,General Abelardo L Rodriguez Intl / Tijuana Intl
32.55,-88.567,64.5,0.00,Meridian Nas/Mc Cain Fd Ap
32.55,35.85,54.9,0.01,Irbid (Met)
32.555,12.056,70.3,0.00,Zuara
32.567,-117.117,64.4,0.00,Naval Auxiliary Landing Fd
32.567,-116.967,69.8,0.00,Brown Fld Muni
32.583,116.783,67.5,0.00,Shouxian/Shouyang
32.583,131.65,60.8,0.00,Nobeoka
32.6,36.1,58.4,0.00,Dara'A
32.616,-85.433,62.5,0.00,Auburn Opelika Robe
32.631,-115.242,86.9,0.00,General Rodolfo Sanchez Taboada Intl / Mexicali Intl
32.633,-83.6,62.9,0.00,Robins Afb Airport
32.65,-114.617,85.3,0.00,Yuma Mcas
32.664,13.159,75.9,0.00,Tripoli Intl
32.666,128.833,65.8,0.00,Fukue
32.667,-114.6,85.8,0.00,Yuma Marine Corps Air Station/Yuma Intl Airport
32.667,103.6,49.2,0.00,Songpan
32.68,-79.89,64.4,0.00,Folly Island  Sc
32.683,-96.867,79.1,0.00,Dallas Executive
32.683,-16.767,62.3,0.00,Funchal/S.Catarina
32.683,-4.733,44.9,0.98,Midelt
32.685,-83.653,61.5,0.00,Middle Georgia Regional Airport
32.693,-103.213,82.6,0.00,Lea County Regional Airport
32.7,-117.2,63.7,0.00,North Island Nas
32.7,128.833,60.4,0.00,Fukue
32.717,109.033,73.0,0.00,Ankang
32.717,133.017,62.6,0.00,Shimizu
32.733,-113.633,80.0,0.00,Stoval Airfield / Exercise
32.733,-96.967,73.7,0.00,Naval Air Station Operations
32.733,129.867,62.0,0.00,Nagasaki
32.733,130.267,55.2,0.00,Unzendake
32.734,-117.183,65.5,0.00,San Diego International Airport
32.767,-97.45,75.4,0.00,Fort Worth Naval Air Station Jrb/Carswell Field
32.767,-0.6,51.4,0.00,Ain-Sefra
32.767,110.117,69.0,0.00,Baihe
32.77,-117.23,67.6,0.00,Mission Beach
32.782,-98.06,78.3,0.00,Mineral Wells Airport
32.783,22.583,66.1,0.00,Derna
32.783,119.45,70.0,0.00,Gaoyou
32.8,21.883,66.8,0.00,Shahat
32.809,35.043,59.0,0.00,Haifa
32.816,-117.14,69.4,0.00,Montgomery Fld
32.817,-115.683,86.6,0.00,Naf
32.817,130.7,63.6,0.00,Kumamoto
32.819,-97.361,74.8,0.00,Fort Worth Meacham
32.833,-116.967,74.9,0.00,Gillespie Fld
32.834,-115.579,84.1,0.00,Imperial Co
32.837,130.855,64.6,0.00,Kumamoto
32.85,-109.633,76.3,0.00,Safford Rgnl
32.85,-106.1,76.0,0.00,Holloman Afb
32.85,117.3,73.1,0.00,Bengbu
32.85,120.283,65.5,0.00,Dongtai
32.852,-96.856,74.5,0.00,Dallas Love Fld
32.867,-117.133,65.4,0.00,San Diego/Miramar N
32.867,115.733,67.0,0.00,Fuyang
32.883,131.067,52.3,0.00,Asosan
32.898,-97.019,73.8,0.00,Dallas/Ft Worth International Ap
32.898,59.266,72.3,0.00,Birjand
32.899,-80.041,60.9,0.00,Charleston Afb/International Airport
32.9,95.3,37.8,0.17,Zadoi
32.917,129.914,63.7,0.00,Nagasaki
32.917,132.7,58.5,0.00,Sukumo
32.933,73.717,83.3,0.00,Jhelum
32.933,113.917,66.2,0.00,Zhumadian
32.95,-111.767,81.0,0.00,Casa Grande Muni
32.967,-96.833,74.1,0.00,Addison
32.983,-97.317,75.4,0.00,Fort Worth Alliance
33.017,96.95,43.2,0.08,Yushu
33.017,129.183,63.7,0.00,Kamigoto
33.023,-118.588,62.9,0.00,Nalf/F. Sherman Fld Arpt
33.067,-96.067,74.9,0.00,Majors
33.067,107.033,68.3,0.00,Hanzhong
33.068,6.089,71.4,0.00,Sidi Mahdi / Nesrat Hachani
33.073,-16.35,62.0,0.00,Porto Santo
33.1,112.483,65.1,0.00,Nanyang
33.115,139.786,65.8,0.00,Hachijojima
33.117,139.783,64.7,0.00,Hachijojima
33.167,129.717,57.6,0.00,Navsta
33.167,129.733,61.3,0.00,Sasebo
33.2,126.267,62.4,0.00,Mosulpo (Kor-Afb)
33.212,-87.616,62.7,0.00,Tuscaloosa Municipal Arpt
33.217,129.05,64.6,0.00,Ojika Island
33.221,-92.814,68.9,0.00,S. Ar Rgnl At Gdwin Fld Ap
33.233,131.617,60.4,0.00,Oita
33.233,132.55,59.6,0.00,Uwajima
33.237,-107.268,76.0,0.00,Trh Or Conseqces Muni Arpt
33.24,-119.458,63.4,0.00,San Nicolas Island Naval Outlying Field
33.25,126.567,64.1,0.00,Seogwipo
33.25,134.183,62.1,0.00,Murotomisaki
33.267,-0.3,47.9,0.00,Naama
33.267,130.3,63.5,0.00,Saga
33.294,126.163,62.8,0.00,Gosan
33.3,-117.35,66.0,0.00,Marine Corps Air Station
33.308,-104.508,79.7,0.00,Roswell International Air Center Ap
33.317,130.417,67.2,0.00,Metabaru (Jasdf)
33.317,130.933,62.4,0.00,Hita
33.35,10.483,66.5,0.02,Medenine
33.357,-84.572,57.7,0.00,Peachtree City Falco
33.364,-81.963,58.8,0.00,Augusta Regional At Bush Field Ap
33.367,-7.59,61.1,0.00,Mohammed V
33.367,129.55,60.4,0.00,Hirado
33.4,49.683,56.5,0.00,Ali-Goodarz
33.4,104.917,69.1,0.00,Wudu
33.412,36.516,57.1,0.00,Damascus Intl
33.417,109.15,66.3,0.00,Chen-An
33.428,-112.004,83.7,0.00,Phoenix Sky Harbor Intl Airport
33.433,48.283,62.3,0.00,Khorram Abad
33.45,-88.583,64.3,0.00,Golden Triangle Rgnl
33.45,108.25,66.6,0.00,Wen-Huang-Ping
33.45,135.75,61.3,0.00,Shionomisaki
33.456,-93.988,71.4,0.00,Texarkana Regional Airport-Webb Field
33.467,-105.533,70.6,0.00,Sierra Blanca Rgnl
33.467,101.483,40.1,0.01,Jigzhi
33.479,131.737,58.3,0.00,Oita
33.483,-90.985,70.8,0.00,Mid Delta Rgnl
33.496,-90.087,67.9,0.00,Greenwood Leflore
33.511,6.777,71.8,0.00,Guemar
33.511,126.493,62.5,0.00,Jeju Intl
33.517,126.533,63.1,0.00,Jeju
33.546,133.669,62.8,0.00,Kochi
33.55,-112.367,83.0,0.00,Luke Afb Airport
33.557,-7.66,65.0,0.00,Anfa
33.566,-86.745,63.5,0.00,Birmingham International Airport
33.567,133.55,58.7,0.00,Kochi
33.583,102.967,42.2,0.08,Ruo'Ergai
33.583,130.383,62.7,0.00,Fukuoka
33.586,130.451,62.1,0.00,Fukuoka
33.587,-85.856,61.2,0.00,Anniston Metropolitan Arpt
33.6,-117.88,41.1,0.00,Newport Beach
33.6,-102.05,75.9,0.00,Reese Afb/Lubbock
33.6,119.033,71.1,0.00,Qingjiang
33.617,73.099,77.0,0.00,Chaklala
33.619,-114.714,87.3,0.00,Blythe Airport
33.623,-111.911,87.0,0.00,Scottsdale
33.627,-116.159,87.7,0.00,Desert Resorts Rgnl Arpt
33.63,-84.442,64.8,0.00,Hartsfield-Jackson Atlanta Intl Ap
33.633,-95.45,68.9,0.00,Cox Fld
33.65,-88.45,67.3,0.00,Columbus Afb Airport
33.65,130.7,61.1,0.00,Iizuka
33.662,135.364,64.0,0.00,Nanki Shirahama
33.666,-101.823,73.8,0.00,Lubbock International Airport
33.667,-117.733,68.3,0.00,El Toro Mcas
33.68,-117.866,70.3,0.00,J. Wayne Apt-Orange Co Apt
33.683,-78.933,58.0,0.00,Myrtle Beach Intl Airport
33.685,131.04,58.4,0.00,Tsuiki
33.7,-117.833,68.8,0.00,Fob Dwyer
33.7,8.967,70.9,0.00,Kebili
33.717,1.083,47.4,0.12,El-Bayadh
33.72,-96.67,72.4,0.00,Sherman-Denison
33.749,129.785,65.3,0.00,Iki
33.75,-119.08,60.0,0.00,Santa Monica Basin - 33Nm West Southwest
33.75,99.65,38.8,0.39,Darlag
33.75,105.75,65.6,0.00,Cheng-Xian
33.75,120.3,60.5,0.00,Sheyang
33.767,-84.517,60.7,0.00,Fulton Co Arpt Brow
