lat,lon,temp,precip,name
-90.0,0.0,-68.3,0.00,Amundsen-Scott
-89.0,-1.017,-69.1,0.00,Henry
-89.0,89.667,-67.5,0.00,Nico
-84.6,-115.817,-20.6,0.00,Theresa
-83.133,174.167,-0.8,0.00,Elaine
-82.617,-137.083,-21.6,0.00,Elizabeth
-82.517,-174.45,-25.3,0.00,Lettau
-81.65,-148.783,-11.1,0.00,Siple Dome
-80.0,-119.4,-38.1,0.00,Byrd Station
-79.983,-178.6,-31.2,0.00,Gill
-79.95,165.117,-14.5,0.00,Marilyn
-79.9,169.983,-16.9,0.00,Schwerdtfeger
-78.55,166.65,-12.1,0.00,Minna Bluff
-78.467,168.383,-6.5,0.00,Linda
-77.95,166.5,-15.2,0.00,Pegasus North
-77.867,-34.617,-6.2,0.00,Base Belgrano Ii
-77.433,163.75,-4.6,0.00,Marble Point
-75.867,-59.15,-31.5,0.00,Univ. Wi Id 8925 (Limbert Aws)
-75.61,-26.272,-28.1,0.00,Halley
-75.117,123.367,-98.1,0.00,Dome C Ii
-74.95,163.683,-15.7,0.00,Manuela
-74.8,-71.483,2.3,0.00,Univ. Wi Id 8917 (Ski-Blu)
-74.017,43.05,-86.3,0.00,Relay Stat
-73.2,-127.05,9.8,0.00,Mount Siple
-73.05,-13.383,-7.0,0.00,Nordenskiold Base
-72.2,-60.167,-16.7,0.00,Univ. Wi Id 8902 (Butler Island)
-71.883,171.2,0.3,0.00,Possession Is
-71.7,-2.8,1.0,0.00,S.A.N.A.E. Aws
-70.767,11.75,9.3,0.00,Maitri
-70.767,11.833,8.7,0.00,Novolazarevskaja
-70.667,-8.25,5.4,0.00,Neumayer
-68.583,77.967,5.4,0.00,Davis
-68.117,-67.133,32.0,0.00,Base San Martin
-67.667,45.85,9.1,0.00,Molodeznaja
-67.6,62.867,-3.1,0.00,Mawson
-67.017,-61.467,-1.1,0.00,Univ. Wi Id 8926 (Larsen Ice Shelf)
-66.667,140.017,10.6,0.00,Dumont D'Urville
-66.55,93.017,4.5,0.00,Mirnyj
-66.283,110.533,-8.4,0.00,Casey
-64.783,-64.067,-20.8,0.00,Bonaparte Point
-64.233,-56.717,9.7,0.00,Base Marambio (Centro Met. Antartico)
-64.067,-61.617,32.3,0.00,Univ. Wi Id 8947 (Racer Rock)
-63.4,-56.983,19.3,3.43,Base Esperanza
-63.317,-56.683,28.8,0.00,Base Bernardo O'Higgins
-62.5,-59.683,34.2,0.00,Base Arturo Prat
-62.233,-58.633,33.8,0.00,Base Carlini
-62.217,-58.967,33.4,0.00,Great Wall
-62.183,-58.983,32.6,0.00,Centro Met. Antartico Pdte. Eduardo Frei
-62.183,-58.883,33.2,0.00,Bellingshausen Aws
-62.183,-58.85,33.4,0.00,Dinamet-Uruguay
-60.733,-44.733,24.3,0.01,Base Orcadas
-56.475,-68.73,42.5,0.00,Isla Diego Ramirez
-54.843,-68.296,41.8,0.00,Ushuaia Malvinas Argentinas
-54.499,158.937,44.8,0.00,Macquarie Island
-54.433,3.283,37.3,0.00,Bouvet Island
-53.778,-67.749,34.5,0.00,Rio Grande
-53.1,73.717,36.6,0.00,Heard Island (The Spit)
-53.017,73.4,37.3,0.00,Heard Island (Atlas Cove)
-53.003,-70.855,36.3,0.00,Carlos Ibanez Del Campo Intl
-52.55,169.15,47.2,0.00,Cambell Island Aws
-52.433,-59.083,44.0,0.00,Sea Lion Island
-52.4,-75.1,47.3,0.00,Islotes Evangelistas
-51.9,-60.917,44.7,0.00,Weddell Island
-51.823,-58.447,42.6,0.00,Mount Pleasant
-51.609,-69.313,39.9,0.00,Rio Gallegos
-50.483,166.3,49.3,0.00,Enderby Island Aws
-50.333,-72.3,40.9,0.00,Lago Argentino Arpt
-49.35,70.25,42.3,0.00,Port-Aux-Francais (Iles Kerguelen)
-49.307,-67.803,43.0,0.00,San Julian
-47.267,167.45,51.6,0.00,South West Cape Aws
-47.244,-72.588,42.3,0.00,Cochrane
-46.875,37.86,37.4,0.08,Marion Island
-46.517,-71.017,40.2,0.00,Perito Moreno Arpt
-46.417,168.333,47.8,0.00,Invercargill Airport Aws
-46.15,166.6,52.8,0.00,Puysegur Point Aws
-45.916,-71.689,42.6,0.00,Balmaceda
-45.785,-67.466,46.8,0.00,Comodoro Rivadavia
-45.767,170.733,51.2,0.00,Taiaroa Head
-45.594,-72.106,47.3,0.00,Teniente Vidal
-45.217,166.883,55.4,0.00,Secretary Island Aws
-45.017,168.733,43.1,0.00,Queenstown Aerodrome
-44.3,171.233,47.0,0.00,Timaru Aerodrome Aws
-43.95,-176.567,53.0,0.00,Chatham Islands Aws
-43.867,169.0,55.0,0.00,Haast Aws
-43.65,146.267,51.1,0.00,Maatsuyker Island Lighthouse
-43.489,172.532,52.2,0.00,Christchurch Intl
-43.483,172.517,51.8,0.00,Christchurch Aero Aws
-43.211,-65.27,47.3,0.00,Almirante Zar
-43.2,146.767,42.8,0.00,Hartz Mountains
-43.167,147.833,52.9,0.00,Port Arthur /Palmer
-42.983,145.5,53.8,0.00,Low Rocky Point (Aws)
-42.908,-71.139,47.4,0.00,Esquel
-42.9,147.233,38.0,0.00,Mt Wellington
-42.883,147.333,54.4,0.00,Hobart (Ellerslie Road)
-42.836,147.51,54.3,0.00,Hobart
-42.717,146.9,50.4,0.00,Bushy Park (Bushy Park Estates)
-42.717,170.983,54.0,0.00,Hokitika Aerodrome Aws
-42.483,146.717,48.7,0.00,Ouse Fire Station
-42.45,147.467,49.4,0.00,Tunnak Fire Station
-42.417,173.7,52.0,0.00,Kaikoura
-42.283,146.283,41.7,0.00,Butlers Gorge
-42.199,145.17,55.6,0.00,Cape Sorell
-42.15,145.283,54.1,0.00,Strahan Aerodrome
-42.0,148.283,54.4,0.00,Friendly Beaches
-41.85,145.533,38.5,0.00,Mount Read
-41.733,147.083,52.5,0.00,Cressy Research Station
-41.733,171.567,57.3,0.00,Westport Aerodrome
-41.545,147.214,53.0,0.00,Launceston
-41.439,-73.094,48.9,0.00,El Tepual Intl
-41.417,147.117,54.4,0.00,Launceston (Ti Tree Bend)
-41.383,146.317,51.5,0.00,Sheffield School Farm
-41.333,174.8,57.5,0.00,Wellington Aero Aws
-41.327,174.805,57.9,0.00,Wellington Intl
-41.3,173.2,57.7,0.00,Nelson Aerodrome Aws
-41.167,146.417,57.4,0.00,Devonport Airport
-41.151,-71.158,43.0,0.00,San Carlos De Bariloche
-41.0,145.733,50.6,0.00,Wynyard Airport
-41.0,148.35,58.7,0.00,Larapuna (Eddystone Point)
-40.917,144.7,53.7,0.00,Marrawah
-40.9,174.983,55.3,0.00,Paraparaumu Aws
-40.9,176.2,58.5,0.00,Castlepoint
-40.869,-63.0,53.6,0.00,Gobernador Castello
-40.833,145.083,53.7,0.00,Smithton Aerodrome
-40.783,-65.1,51.8,0.00,San Antonio Oeste Aero
-40.733,148.117,60.3,0.00,Swan Island Lightho
-40.667,144.683,56.4,0.00,Cape Grim Baps
-40.55,173.0,60.9,0.00,Farewell Spit Aws
-40.35,-9.883,56.3,0.06,Gough Island
-40.317,175.6,58.5,0.00,Palmerston North Aws
-40.1,148.0,58.4,0.00,Flinders Island Airport
-39.883,143.883,56.4,0.00,King Island Airport
-39.65,-73.086,52.2,0.00,Pichoy
-39.533,173.433,62.8,0.00,Maui A Platform
-39.467,175.683,49.5,0.00,Waiouru Aws
-39.467,176.867,58.1,0.00,Napier Aerodrome Aws
-39.117,146.417,58.7,0.00,Wilsons Promontory Lighthouse
-39.017,174.183,58.5,0.00,New Plymouth Aws
-38.949,-68.156,47.2,0.08,Presidente Peron
-38.85,143.517,54.9,0.00,Cape Otway Lighthouse
-38.767,-72.637,53.6,0.00,Maquehue
-38.733,176.067,51.6,0.00,Taupo Aws
-38.725,-62.169,54.2,0.00,Comandante Espora
-38.663,177.978,57.7,0.00,Gisborne
-38.6,145.583,55.9,0.00,Wonthaggi
-38.45,144.1,56.0,0.00,Aireys Inlet
-38.45,145.3,57.3,0.00,Rhyll (Aws)
-38.4,142.233,52.4,0.00,Port Fairy Aws
-38.387,-60.33,53.1,0.00,Tres Arroyos
-38.35,145.167,54.2,0.00,Cerberus Aws
-38.317,141.467,54.1,0.00,Portland Cashmore Airport
-38.3,144.8,58.3,0.00,South Channel Is.
-38.283,142.433,55.3,0.00,Warrnambool Airport
-38.217,146.467,46.8,0.00,Latrobe Valley Airport
-38.167,144.367,52.5,0.00,Geelong Racecourse
-38.15,145.117,56.5,0.00,Frankston Aws
-38.1,144.533,55.0,0.00,Point Wilson
-38.099,147.149,48.9,0.00,East Sale
-38.067,142.767,48.9,0.00,Mortlake Racecourse
-38.033,144.467,51.2,0.00,Avalon  Airport
-37.976,145.102,54.6,0.00,Melbourne Moorabbin
-37.934,-57.573,53.2,0.00,Mar Del Plata
-37.9,144.117,54.4,0.00,Sheoaks Aws
-37.867,144.75,55.0,0.00,Laverton Raaf
-37.867,145.25,54.5,0.00,Scoresby Research Institute
-37.867,148.0,54.5,0.00,Lakes Entrance
-37.817,144.967,58.1,0.00,Melbourne Regional Office
-37.8,77.533,62.7,0.00,Martin De Vivies (Ile Amsterdam)
-37.8,149.267,59.0,0.00,Point Hicks (Lighthouse)
-37.75,147.133,53.0,0.00,Mt Moornapa
-37.733,140.783,53.4,0.00,Mount Gambier Aero
-37.728,144.902,47.4,0.00,Melbourne Essendon
-37.7,148.083,52.9,0.00,Mt Nowa Nowa
-37.673,144.843,56.0,0.00,Melbourne Intl
-37.672,176.196,61.5,0.00,Tauranga
-37.65,142.067,50.9,0.00,Hamilton Airport
-37.6,149.733,51.8,0.00,Mallacoota
-37.567,149.9,56.5,0.00,Gabo Island Lighthouse
-37.55,178.3,61.2,0.00,Hicks Bay Aws
-37.517,143.783,52.9,0.00,Ballarat Aerodrome
-37.383,144.967,52.0,0.00,Kilmore Gap
-37.333,149.017,53.3,0.00,Combienbar
-37.3,140.817,48.8,0.00,Coonawarra
-37.283,142.983,51.1,0.00,Ararat Prison
-37.25,150.05,58.5,0.00,Green Cape Aws
-37.237,-59.228,50.1,0.00,Tandil
-37.233,143.2,49.3,0.00,Ben Nevis
-37.217,148.267,47.7,0.00,Gelantipy
-37.15,146.433,39.5,0.00,Mount Buller Aws
-37.067,142.733,51.0,0.00,Stawell Aerodrome
-37.017,144.533,48.1,0.00,Redesdale
-37.008,174.792,62.8,0.00,Auckland Intl
-37.0,149.233,42.1,0.00,Bombala Aws
-37.0,174.8,62.7,0.00,Auckland Aero Aws
-36.983,140.733,51.3,0.00,Naracoorte Aerodrome
-36.967,139.717,55.7,0.00,The Limestone
-36.967,147.133,37.4,0.00,Mount Hotham
-36.95,140.733,62.0,0.00,Naracoorte
-36.883,145.183,42.9,0.00,Mangalore Airport
-36.867,147.267,37.8,0.00,Falls Creek Aws
-36.833,-59.883,51.5,0.00,Azul Aero
-36.773,-73.063,58.1,0.00,Carriel Sur Intl
-36.733,144.317,47.3,0.00,Bendigo Airport Aws
-36.667,142.3,51.9,0.00,Longerenong
-36.667,149.817,47.8,0.00,Bega Aws
-36.65,142.067,52.2,0.00,Horsham Polkemmet Rd
-36.588,-64.276,50.9,0.20,Santa Rosa
-36.582,-72.031,62.5,0.00,General Bernardo O Higgins
-36.55,145.967,51.0,0.00,Benalla (Shadforth Street)
-36.5,148.283,38.0,0.00,Thredbo Aws
-36.433,145.4,48.6,0.00,Shepparton Airport
-36.417,146.3,46.9,0.00,Wangaratta Aero
-36.35,-57.733,54.3,0.00,Dolores Airport
-36.3,148.967,40.2,0.00,Cooma Airport Aws
-36.25,150.217,58.6,0.00,Montague Island Lighhouse
-36.233,148.133,45.9,0.00,Khancoban
-36.217,147.533,48.4,0.00,Hunters Hill
-36.2,-61.067,55.1,0.00,Bolivar Aero
-36.1,140.35,58.7,0.00,Keith
-36.1,146.5,45.7,0.00,Rutherglen Research
-36.067,-59.1,58.0,0.00,Las Flores
-36.067,146.95,49.5,0.00,Albury Aeroport
-35.933,148.383,42.6,0.00,Cabramurra Smhea
-35.917,150.15,55.2,0.00,Moruya Heads Pilot Station
-35.9,175.1,63.7,0.00,Mokohinau Aws
-35.85,138.133,58.4,0.00,Cape Willoughby
-35.75,136.583,59.3,0.00,Cape Borda
-35.717,137.517,55.5,0.00,Kingstone Aero
-35.7,139.333,62.1,0.00,Meningie
-35.567,138.283,57.4,0.00,Second Valley Forest
-35.55,144.933,57.6,0.00,Deniliquin Post Off
-35.494,-69.574,47.2,0.16,Malargue
-35.433,149.783,41.5,0.00,Braidwood Racecourse Aws
-35.417,149.1,45.4,0.00,Tuggeranong Isabella Plains
-35.383,143.533,53.8,0.00,Swan Hill Aerodrome
-35.35,150.483,57.1,0.00,Ulladulla Aws
-35.333,136.117,62.5,0.00,Neptune Island
-35.333,140.517,61.2,0.00,Lameroo Comparison
-35.307,149.195,49.6,0.00,Canberra
-35.283,136.933,60.8,0.00,Stenhouse Bay
-35.165,147.466,49.2,0.00,Wagga Wagga
-35.117,137.733,58.2,0.00,Edithburgh Aws
-35.117,139.267,64.0,0.00,Murray Bridge
-35.117,174.017,63.5,0.00,Purerua
-34.967,-71.217,60.7,0.00,Curico/Gen Freire
-34.967,138.7,55.8,0.00,Mount Lofty
-34.949,150.537,53.0,0.00,Nowra
-34.945,138.531,58.0,0.00,Adelaide Intl
-34.941,117.802,59.4,0.00,Albany Airport
-34.917,138.617,60.1,0.00,Kent Town
-34.914,-54.921,60.6,0.00,El Jaguel Intl
-34.855,-55.094,60.1,0.00,Capitan Corbeta C A Curbelo Intl
-34.85,-56.2,60.5,0.00,Prado
-34.838,-56.031,59.7,0.00,Carrasco Intl
-34.822,-58.536,59.4,0.00,Ministro Pistarini
-34.817,149.733,41.9,0.00,Goulburn Airport Aws
-34.8,20.067,61.5,0.00,Struisbaai
-34.793,138.633,56.4,0.00,Adelaide Parafield
-34.733,138.933,57.7,0.00,Mt Crawford Aws
-34.703,138.621,56.8,0.00,Edinburgh
-34.633,148.033,51.0,0.00,Cootamundra Airport
-34.605,135.88,61.0,0.00,Port Lincoln
-34.6,135.883,58.5,0.00,Port Lincoln Aero
-34.588,-68.403,48.3,0.20,San Rafael
-34.583,116.35,56.4,0.00,Shannon
-34.567,117.017,56.1,0.00,Rocky Gully
-34.559,-58.416,61.9,0.00,Aeroparque Jorge Newbery
-34.546,-60.931,57.9,0.00,Junin
-34.501,-58.604,60.8,0.00,Don Torcuato
-34.483,-54.3,59.9,0.00,Rocha
-34.483,150.4,51.6,0.00,Bowral (Parry Drive)
-34.456,-57.771,60.5,0.00,Laguna De Los Patos Intl
-34.433,19.217,60.2,0.00,Hermanus
-34.433,140.6,53.2,0.00,Loxton Research Centre
-34.433,172.683,61.1,0.00,Cape Reinga Aws
-34.383,137.667,64.6,0.00,Maitland
-34.383,150.933,60.4,0.00,Bellambi Aws
-34.367,115.133,64.1,0.00,Cape Leeuwin
-34.35,18.5,59.1,0.00,Cape Point
-34.25,148.25,45.4,0.00,Young Airport
-34.2,24.833,63.6,0.00,Cape St. Francis
-34.2,140.683,56.1,0.00,Renmark Aero
-34.183,139.083,61.1,0.00,Eudunda
-34.167,140.75,59.8,0.00,Renmark
-34.139,19.023,57.3,0.00,Elgin Exp Farm
-34.09,23.328,60.0,0.00,Plettenberg Bay / Garden Route Aero
-34.05,23.083,58.2,0.00,Knysna
-34.04,150.687,54.5,0.00,Camden
-34.006,22.379,56.3,0.00,George
-33.985,25.617,62.8,0.00,Port Elizabeth Intl / Chief Dawid Stuurman Intl
-33.983,150.917,56.2,0.00,Holsworthy Control Range
-33.965,18.602,61.3,0.00,Cape Town Intl
-33.946,151.177,60.0,0.00,Sydney Intl
-33.933,120.133,60.0,0.00,Hopetown North
-33.924,150.988,57.4,0.00,Sydney Bankstown
-33.9,18.433,65.1,0.00,Cape Town - Portnet
-33.9,150.733,55.7,0.00,Badgery'S Creek Airport
-33.9,151.117,57.6,0.00,Canterbury Racecourse
-33.883,119.1,53.6,0.00,Jacup
-33.85,148.65,54.2,0.00,Cowra Airport Comparison
-33.85,151.2,60.6,0.00,Sydney (Observatory Hill)
-33.833,121.893,59.3,0.00,Esperance
-33.833,151.067,59.2,0.00,Sydney Olympic Park Aws (Archery Centre)
-33.817,138.6,52.9,0.00,Clare High School
-33.767,24.817,55.4,0.00,Patensie
-33.73,-65.387,58.7,0.39,Villa Reynolds
-33.717,150.283,46.8,0.00,Katoomba (Narrow Neck Rd)
-33.717,150.683,58.3,0.00,Penrith
-33.683,115.4,60.1,0.00,Busselton Aero
-33.683,117.55,53.9,0.00,Katanning Comparison
-33.65,134.883,57.0,0.00,Elliston
-33.633,-78.833,60.9,0.00,Juan Fernandez
-33.617,19.467,59.8,0.00,Worcester
-33.617,150.267,48.4,0.00,Mount Boyce
-33.601,150.781,56.8,0.00,Richmond
-33.6,26.883,59.5,0.00,Port Alfred
-33.6,150.783,56.3,0.00,Richmond Raaf
-33.533,115.017,61.8,0.00,Cape Naturaliste
-33.483,145.517,57.1,0.00,Hillston Airport
-33.467,18.717,58.1,0.00,Malmesbury
-33.433,18.083,58.5,0.00,Dassen Island
-33.417,149.65,44.8,0.00,Bathurst Airport Aws
-33.4,151.333,57.1,0.00,Gosford (Narara Research Station)
-33.393,-70.786,56.0,0.00,Arturo Merino Benitez Intl
-33.367,147.917,49.7,0.00,Forbes Airport
-33.35,115.65,60.2,0.00,Bunbury
-33.3,117.333,58.5,0.00,Wagin
-33.283,26.5,57.5,0.00,Grahamstown
-33.283,151.217,56.5,0.00,Mangrove Mountain Aws
-33.283,151.567,65.2,0.00,Norah Head Lighthou
-33.273,-66.356,51.6,0.51,San Luis
-33.267,151.567,61.2,0.00,Norah Head Lighthouse
-33.25,-58.067,61.7,0.00,Mercedes/Ricardo De
-33.217,-54.383,61.7,0.00,Treinta Y Tres
-33.2,20.867,56.7,0.00,Laingsburg
-33.133,135.55,61.9,0.00,Kyancutta
-33.133,148.167,48.3,0.00,Parkes (Macarthur Street)
-33.117,118.467,55.6,0.00,Lake Grace Comparison
-33.085,-64.261,61.6,0.00,Rio Cuarto Area De Material
-33.067,147.217,49.4,0.00,Condobolin Airport
-33.059,137.514,62.8,0.00,Whyalla
-33.036,27.826,63.5,0.00,East London / King Phalo
-33.017,137.517,64.1,0.00,Whyalla
-33.013,18.977,54.9,0.00,Porterville
-33.01,-58.613,62.4,0.47,Gualeguaychu
-32.969,18.16,51.0,0.00,Langebaanweg Afb
-32.917,151.783,62.3,0.00,Newcastle Nobbys Signal Station
-32.904,-60.785,63.4,0.55,Rosario
-32.9,144.283,68.7,0.00,Ivanhoe Post Office
-32.897,27.279,50.4,0.00,Bhisho
-32.832,-68.793,54.2,0.00,El Plumerillo
-32.8,-56.517,62.6,0.00,Paso De Los Toros
-32.795,151.834,61.1,0.00,Williamtown
-32.783,26.633,60.4,0.00,Fort Beaufort
-32.783,151.333,55.5,0.00,Cessnock Airport
-32.733,150.233,50.2,0.00,Nullo Mountain Aws
-32.717,116.05,56.2,0.00,Dwellingup
-32.684,-62.158,63.8,0.51,Marcos Juarez
-32.567,139.567,55.9,0.00,Yunta Airstrip
-32.567,149.617,49.4,0.00,Mudgee Airport Aws
-32.517,115.717,62.6,0.00,Mandurah
-32.517,137.717,65.4,0.00,Port Augusta Arid Lands
-32.45,123.867,60.4,0.00,Balladonia
-32.433,136.067,64.9,0.00,Mount Ive
-32.35,22.55,55.6,0.00,Beaufort West
-32.333,117.867,58.7,0.00,Corrigin
-32.303,22.664,54.8,0.00,Beaufort West(Met)
-32.217,148.567,49.8,0.00,Dubbo Airport Aws
-32.217,148.575,48.1,0.00,Dubbo
-32.2,24.55,55.0,0.00,Graaff-Reinet
-32.2,121.783,58.2,0.00,Norseman
-32.133,133.7,55.5,0.00,Ceduna Amo
-32.1,115.883,62.1,0.00,Jandakot Aero
-32.033,18.333,61.2,0.00,Lamberts Bay
-32.033,150.833,51.8,0.00,Scone Airport
-32.017,115.5,65.8,0.00,Rottnest Island
-32.017,116.133,58.6,0.00,Kalamunda Bickley
-32.0,141.467,61.1,0.00,Broken Hill Airport Aws
-31.95,115.767,64.1,0.00,Swanbourne
-31.95,116.05,61.4,0.00,Goosebery Hill
-31.945,-65.146,57.7,0.35,Villa Dolores
-31.94,115.967,63.4,0.00,Perth Intl
-31.917,115.867,63.4,0.00,Perth Metro
-31.795,-60.48,64.5,1.61,General Urquiza
-31.768,150.842,52.0,0.00,Murrurundi (Haydon Street)
-31.712,-60.812,63.8,1.57,Sauce Viejo
-31.68,128.879,59.6,0.00,Eucla
-31.668,116.015,63.9,0.00,Pearce
-31.667,-63.883,64.9,0.28,Pilar Observatorio
-31.65,117.25,62.0,0.00,Cunderdin
-31.617,117.217,59.7,0.00,Cunderdin Airfield
-31.571,-68.418,56.4,0.00,San Juan
-31.567,143.367,67.6,0.00,Wilcannia (Reid St)
-31.548,28.674,60.6,0.00,Mthatha
-31.542,159.079,70.1,0.00,Lord Howe Island Aero
-31.533,145.8,55.6,0.00,Cobar Airport Aws
-31.5,19.726,58.1,0.00,Calvinia
-31.483,145.833,63.2,0.00,Cobar Mo
-31.467,115.867,61.3,0.00,Gingin Aero
-31.467,118.267,62.3,0.00,Merredin
-31.433,-57.983,64.8,0.00,Nueva Hesperides Intl
-31.433,152.85,61.3,0.00,Port Macquarie Airport Aws
-31.324,-64.208,63.8,0.28,Ambrosio L V Taravella
-31.297,-57.997,66.5,0.00,Comodoro Pierrestegui
-31.267,149.267,50.0,0.00,Coonabarabran (Namoi Street)
-31.233,119.333,59.7,0.00,Southern Cross
-31.233,119.35,56.8,0.00,Southern Cross Airfield
-31.183,24.95,55.2,0.00,Noupoort
-31.144,136.817,65.9,0.00,Woomera
-31.083,125.65,57.2,0.00,Balgair
-31.067,30.233,69.1,0.02,Port Edward
-31.067,150.833,55.8,0.00,Tamworth Airport Aws
-31.017,115.317,65.0,0.00,Lancelin
-30.975,-55.476,64.3,0.00,Presidente General Don Oscar D Gestido
-30.917,153.083,65.4,0.00,Smoky Cape Lighthouse
-30.9,116.717,59.5,0.00,Wongan Hills
-30.85,30.333,66.9,0.03,Margate
-30.85,143.083,58.2,0.00,White Cliffs
-30.833,128.117,55.1,0.00,Forrest
-30.789,121.462,54.7,0.00,Kalgoorlie Boulder
-30.783,25.8,50.5,0.00,Venterstad
-30.717,134.583,61.9,0.00,Tarcoola
-30.667,24.017,58.0,0.00,Deaar(Ua)
-30.533,151.617,51.8,0.00,Armidale Airport Aws
-30.533,151.667,58.7,0.00,Armidale (Tree Group Nursery)
-30.401,-56.508,68.0,0.00,Artigas Intl
-30.367,-66.283,63.2,0.00,Chamical Aero
-30.345,-66.294,62.2,0.00,Chamical
-30.333,115.533,61.9,0.00,Badgingarra Research Stn
-30.321,153.116,65.2,0.00,Coffs Harbour
-30.3,115.033,63.7,0.00,Jurien Bay
-30.283,116.667,59.9,0.00,Dalwallinu
-30.272,-57.64,70.1,0.00,Monte Caseros
-30.267,-57.583,70.1,0.00,Bella Union
-30.2,17.283,63.2,0.00,Koingnaas
-30.033,145.95,56.5,0.00,Bourke Airport Aws
-30.033,148.117,56.4,0.00,Walgett Airport
-29.994,-51.171,66.0,0.00,Salgado Filho
-29.97,30.951,70.0,0.00,Durban Intl
-29.916,-71.2,62.5,0.00,La Florida
-29.9,-63.683,66.3,0.00,Villa Maria Del Rio
-29.883,-61.95,71.4,0.00,Ceres
-29.783,151.117,53.2,0.00,Inverell (Raglan St)
-29.771,31.058,74.8,0.00,Virginia
-29.733,151.733,55.6,0.00,Glen Innes Post Office
-29.7,31.05,70.0,0.00,Mount Edgecombe
-29.689,-57.152,71.5,0.00,Paso De Los Libres
-29.689,17.94,63.9,0.00,Springbok
-29.683,151.7,52.9,0.00,Glen Innes Airport
-29.667,22.733,61.0,0.00,Prieska
-29.65,138.067,65.3,0.00,Marree Comparison
-29.649,30.399,67.0,0.00,Pietermaritzburg
-29.633,30.4,65.7,0.00,Pietermaritzburg
-29.491,149.846,58.7,0.00,Moree Aero
-29.433,142.0,64.7,0.00,Tibooburra Post Office
-29.433,153.367,67.6,0.00,Yamba Pilot Station
-29.382,-66.796,65.4,0.00,La Rioja
-29.267,29.517,53.2,0.02,Giants Castle
-29.267,117.683,61.1,0.00,Paynes Find
-29.25,-177.933,62.8,0.00,Raoul Island Aws
-29.2,116.017,64.9,0.00,Morawa Airport
-29.183,-59.7,75.6,0.00,Reconquista Aero
-29.093,26.302,55.7,0.00,Bloemfontein Intl / Bram Fischer Intl
-29.083,30.6,60.6,0.00,Greytown
-29.05,152.017,61.0,0.00,Tenterfield (Federation Park)
-29.042,167.939,69.5,0.00,Norfolk Island Intl
-29.033,134.717,64.5,0.00,Coober Pedy Airport
-28.95,31.7,70.1,0.01,Mtunzini
-28.883,121.333,61.3,0.00,Leonora
-28.883,153.05,63.1,0.00,Casino Airport Aws
-28.833,153.55,65.6,0.00,Ballina Airport Aws
-28.803,24.765,60.9,0.00,Kimberley
-28.8,32.1,71.8,0.00,Richard'S Bay
-28.796,114.708,68.5,0.00,Geraldton
-28.769,17.623,71.0,0.00,Vioolsdrif
-28.705,121.891,57.8,0.00,Murrin Murrin
-28.633,153.633,68.5,0.00,Cape Byron Lighthouse
-28.617,122.417,57.4,0.00,Laverton Aero
-28.617,151.95,55.8,0.00,Applethorpe
-28.596,-65.752,63.5,0.01,Catamarca
-28.582,29.75,66.0,0.00,Ladysmith
-28.575,16.533,58.3,0.00,Alexander Bay
-28.517,150.317,60.2,0.00,Goondiwindi Airport
-28.5,32.4,71.2,0.08,Cape St. Lucia
-28.399,21.26,64.4,0.00,Upington
-28.321,31.417,67.8,0.00,Prince Mangosuthu Buthelezi
-28.3,113.6,73.6,0.00,North Island
-28.248,28.336,60.5,0.00,Bethlehem
-28.2,152.1,57.4,0.00,Warwick
-28.164,153.505,67.2,0.00,Gold Coast
-28.117,117.833,66.3,0.00,Mount Magnet Aero
-28.1,140.2,63.3,0.00,Moomba Airport
-28.067,145.683,62.6,0.00,Cunnamulla Post Office
-28.0,26.667,68.4,0.00,Welkom
-28.0,143.817,64.6,0.00,Thargomindah Post O
-27.998,26.67,67.2,0.00,Welkom
-27.933,153.433,68.4,0.00,Gold Coast Seaway
-27.85,120.7,61.9,0.00,Leinster Aero
-27.783,30.8,60.8,0.00,Vryheid
-27.771,29.977,64.6,0.00,Newcastle
-27.767,29.983,62.4,0.01,Newcastle
-27.766,-64.31,74.8,0.00,Santiago Del Estero
-27.717,114.167,75.9,0.00,Kalbarri
-27.67,-48.547,70.1,0.00,Hercilio Luz
-27.65,23.0,69.6,0.00,Sishen
-27.617,-144.333,73.6,0.00,Rapa
-27.57,153.008,65.2,0.00,Brisbane Archerfield
-27.55,135.45,66.3,0.00,Oodnadatta Airport
-27.55,151.917,59.5,0.00,Toowoomba Airport
-27.45,-59.056,78.2,0.00,Resistencia
-27.446,-58.762,78.1,0.00,Corrientes
-27.433,153.55,70.7,0.00,Point Lookout
-27.417,153.067,65.2,0.00,Brisbane Airport
-27.411,151.735,57.3,0.00,Oakey
-27.386,-55.971,77.9,0.00,Posadas
-27.383,153.117,66.0,0.00,Brisbane Arpt02 Aws
-27.3,133.617,65.1,0.00,Marla Police Station
-27.296,-70.414,66.8,0.00,Chamonate
-27.165,-109.422,71.2,0.00,Mataveri Intl
-27.15,151.267,59.8,0.00,Dalby Airport
-27.033,153.467,69.2,0.00,Cape Moreton Lighthouse Aws
-27.017,30.8,61.6,0.02,Piet Retief
-26.933,29.233,62.3,0.00,Standerton
-26.883,22.05,63.9,0.00,Van Zylsrus
-26.871,26.718,64.5,0.00,P C Pelser
-26.85,-58.317,79.8,0.00,Pilar
-26.841,-65.105,70.2,0.00,Teniente Benjamin Matienzo
-26.733,27.067,64.1,0.00,Potchefstroom
-26.65,152.933,62.8,0.00,Nambour Dpi-Hillside
-26.617,144.25,64.7,0.00,Quilpie Airport
-26.614,118.537,68.6,0.00,Meekatharra Airport
-26.6,153.1,64.6,0.00,Sunshine Coast Airport
-26.567,27.95,63.1,0.00,Vereeniging
-26.567,151.833,65.8,0.00,Kingaroy Airport
-26.566,27.961,63.0,0.00,Vereeniging
-26.55,148.783,56.7,0.00,Roma Airport
-26.54,18.111,70.0,0.00,Keetmanshoop
-26.529,31.308,69.3,0.00,Matsapha
-26.5,29.983,59.3,0.05,Ermelo
-26.496,29.98,58.7,0.00,Ermelo
-26.413,146.263,57.9,0.00,Charleville
-26.383,153.033,66.4,0.00,Tewantin Rsl Park
-26.325,26.788,62.7,0.00,Ventersdorp
-26.213,-58.228,79.1,0.00,Formosa
-26.176,26.185,66.3,0.00,Lichtenburg
-26.139,28.246,57.5,0.00,Johannesburg Intl
-26.05,22.45,72.6,0.00,Tsabong
-25.921,32.573,75.0,0.00,Maputo
-25.911,28.21,61.7,0.00,Pretoria/Irene
-25.9,139.35,65.3,0.00,Birdsville Police S
-25.89,28.171,64.3,0.00,Pretoria(Met)
-25.85,133.3,62.4,0.00,Kulgera
-25.85,148.567,54.5,0.00,Injune Post Office
-25.833,23.533,73.5,0.00,Pomfret
-25.833,29.183,61.4,0.00,Witbank
-25.832,29.192,61.7,0.00,Witbank
-25.798,25.548,65.6,0.00,Mmabatho Intl / George Dick Montshioa
-25.737,-54.473,73.5,0.00,Cataratas Del Iguazu
-25.65,27.233,65.2,0.02,Rustenburg
-25.633,151.617,66.8,0.00,Gayndah Post Office
-25.596,-54.487,70.7,0.00,Cataratas Intl
-25.528,-49.176,59.3,0.00,Afonso Pena
-25.517,31.9,72.7,0.00,Komatidraai
-25.517,152.717,65.7,0.00,Maryborough
-25.5,30.914,65.8,0.00,Nelspruit
-25.45,-54.833,76.2,0.00,Guarani Intl
-25.433,30.983,66.8,0.00,Nelspruit
-25.417,142.65,68.3,0.00,Windorah Post Office
-25.24,-57.519,78.0,0.00,Silvio Pettirossi Intl
-25.2,130.983,66.2,0.00,Yulara Aero
-25.1,30.467,62.8,0.00,Lydenburg
-25.038,46.956,76.1,0.00,Tolagnaro
-24.933,30.85,59.2,0.01,Graskop
-24.9,152.317,66.1,0.00,Bundaberg Aero
-24.888,113.67,74.8,0.00,Carnarvon Airport
-24.856,-65.486,65.9,0.00,Salta
-24.721,-60.549,78.8,0.00,Alferez Armando Rodriguez
-24.717,153.2,71.4,0.00,Sandy Cape Lighthouse
-24.602,24.691,78.9,0.00,Jwaneng
-24.6,26.517,71.7,0.01,Doornlaagte
-24.583,27.417,78.5,0.00,Thabazimbi
-24.555,25.918,72.0,0.00,Sir Seretse Khama Intl
-24.483,150.567,64.4,0.00,Thangool Airport
-24.417,145.467,70.5,0.00,Blackall
-24.4,116.3,75.2,0.00,Mount Phillip
-24.393,-65.098,70.9,0.00,Jujuy
-24.359,31.052,70.3,0.00,Hoedspruit Afb
-24.35,31.05,70.1,0.00,Hoedspruit
-24.3,131.55,65.9,0.00,Watarrka
-24.2,29.0,70.0,0.00,Kopane
-24.15,151.883,71.3,0.00,Seventeen Seventy
-24.117,152.717,71.7,0.00,Lady Elliot Island
-24.033,-54.35,73.2,0.00,Saltos Del Guaira
-24.017,21.883,83.3,0.00,Tshane
-23.967,26.917,73.4,0.00,Cumberland
-23.937,31.155,70.0,0.00,Phalaborwa / Kruger Park Gateway
-23.933,31.15,69.3,0.00,Phalaborwa
-23.867,29.45,64.4,0.00,Polokwane
-23.867,151.217,67.5,0.00,Gladstone Airport
-23.85,151.267,69.6,0.00,Gladstone Radar
-23.807,133.902,66.2,0.00,Alice Springs
-23.767,30.067,64.9,0.06,Tzaneen-Grenshoek
-23.726,27.688,72.3,0.00,Lephalale / Ellisras Airfield
-23.633,-55.833,73.3,0.00,Pedro Juan Caballero
-23.627,-46.655,66.5,0.00,Congonhas Deputado Freitas Nobre
-23.567,148.183,70.9,0.00,Emerald Airport
-23.533,151.283,72.4,0.00,Rundle Island
-23.45,151.917,70.9,0.00,Heron Island Res Stn
-23.444,-70.445,63.0,0.00,Cerro Moreno Intl / Andres Sabella Intl
-23.442,-57.427,76.9,0.00,Teniente Col Carmelo Peralta
-23.433,-46.467,65.0,0.00,Guarulhos
-23.433,144.283,71.0,0.00,Longreach Aero
-23.383,43.728,79.4,0.00,Toliara
-23.382,150.475,69.3,0.00,Rockhampton
-23.365,-149.524,80.5,0.00,Tubuai Mataura
-23.334,-51.13,65.9,0.00,Londrina / Governador Jose Richa
-23.25,155.533,74.3,0.00,Cato Island
-23.229,-45.862,64.4,0.00,Professor Urbano Ernesto Stumpf
-23.167,117.75,72.0,0.00,Paraburdoo Aero
-23.133,-134.967,76.4,0.00,Mangareva
-23.133,150.75,66.1,0.00,Yeppoon The Esplanade
-23.083,26.8,76.6,0.00,Mahalapye
-23.033,115.033,82.0,0.00,Emu Creek Station
-23.007,-47.135,68.6,0.00,Viracopos
-22.983,-43.367,75.5,0.00,Rio/Jacarepagua
-22.95,136.15,68.1,0.00,Jervois
-22.917,139.9,73.9,0.00,Boulia Airport
-22.91,-43.163,73.5,0.00,Santos Dumont
-22.883,14.433,59.4,0.00,Walvis Bay (Pelican Point)
-22.875,-43.385,69.0,0.00,Campo Delio Jardim De Mattos
-22.809,-43.244,73.2,0.00,Galeao Antonio Carlos Jobim
-22.805,47.821,77.5,0.00,Farafangana
-22.683,29.1,71.2,0.00,Alldays
-22.62,-63.794,78.4,0.00,General Enrique Mosconi Tartagal
-22.617,30.167,77.7,0.00,Tshipise
-22.589,167.456,74.4,0.00,Ile Des Pins Moue
-22.567,17.1,73.7,0.00,Windhoek/Eros(Saaf)
-22.55,-61.55,77.0,0.00,Pelayo Prat Gill
-22.55,-55.703,73.7,0.00,Ponta Pora
-22.5,18.967,66.6,0.00,Gobabis
-22.48,17.471,76.2,0.00,Hosea Kutako Intl
-22.45,133.633,67.5,0.00,Territory Grape Farm
-22.383,143.033,71.2,0.00,Winton Post Office
-22.35,149.533,71.6,0.00,St Lawrence Post Office
-22.345,-49.054,66.7,0.00,Bauru
-22.333,40.333,80.9,0.00,Ile Europa
-22.333,171.333,76.5,0.00,Matthew (Ilot)
-22.283,-57.933,81.4,0.00,Puerto Casado
-22.267,166.45,75.8,0.00,Noumea
-22.25,118.333,73.7,0.00,Wittenoom
-22.25,131.8,73.4,0.00,Yuendumu
-22.236,114.089,74.2,0.00,Learmonth
-22.217,30.0,77.6,0.00,Beitbridge
-22.175,-51.425,67.6,0.00,Presidente Prudente
-22.045,-60.622,80.3,0.00,Dr Luis Maria Argana Intl
-22.015,166.213,73.1,0.00,Noumea La Tontouta
-21.985,-47.335,67.1,0.00,Campo Fontenelle
-21.967,152.467,74.1,0.00,Gannet Cay
-21.961,-63.652,78.0,0.00,Yacuiba
-21.917,-46.383,64.4,0.00,Caldas
-21.896,-157.907,78.4,0.00,Mangaia
-21.754,43.376,81.2,0.00,Morombe
-21.717,122.217,72.5,0.00,Telfer Aero
-21.7,21.65,81.1,0.00,Ghanzi
-21.633,115.117,78.9,0.00,Onslow
-21.6,138.3,73.6,0.00,Urandangi
-21.556,-64.701,70.7,0.00,Capitan Av Oriel Lea Plaza Intl
-21.482,168.038,70.3,0.00,Mare La Roche
-21.417,25.6,76.7,0.00,Letlhakane
-21.255,-63.406,81.9,0.00,Tcnl Rafael Pabon
-21.241,-175.15,75.1,0.15,Fua Amotu Intl
-21.203,-159.806,80.4,0.00,Rarotonga Intl
-21.2,-159.783,79.1,0.00,Rarotonga
-21.183,115.967,81.4,0.00,Mardie
-21.167,149.183,68.9,0.00,Mackay Aero
-21.159,27.468,74.0,0.00,P.G. Matante International Airport
-21.133,-175.183,78.3,0.00,Nuku'Alofa
-21.133,-47.767,67.5,0.00,Leite Lopes
-21.117,149.217,69.2,0.00,Mackay Mo
-21.05,29.367,74.7,0.00,West Nicholson
-21.008,31.579,75.7,0.00,Buffalo Range
-20.933,154.4,74.2,0.00,Frederick Reef
-20.933,165.317,73.9,0.00,Poindimie (Nlle-Caledonie)
-20.917,28.45,76.5,0.00,Kezi
-20.887,55.51,79.8,0.00,St Denis Gillot / La Reunion Roland Garros
-20.783,117.15,77.4,0.00,Roebourne
-20.775,167.24,71.6,0.00,Lifou Ouanaham
-20.717,116.767,75.1,0.00,Karratha Aero
-20.667,-178.717,80.1,0.00,Ono-I-Lau Aws
-20.667,140.5,72.9,0.00,Cloncurry Airport
-20.667,141.733,69.9,0.00,Julia Creek
-20.664,139.489,73.8,0.00,Mount Isa
-20.641,166.573,73.3,0.00,Ouvea Ouloup
-20.617,116.75,82.3,0.00,Karratha (King Bay)
-20.553,26.116,80.0,0.00,Sua Pan
-20.55,147.833,70.5,0.00,Collinsville Post Office
-20.546,164.256,75.8,0.00,Koumac
-20.535,-70.181,66.3,0.00,Diego Aracena Intl
-20.533,150.383,76.0,0.00,Creal Reef
-20.495,148.552,71.2,0.00,Proserpine Whitsunday Coast
-20.469,-54.673,76.6,0.00,Campo Grande
-20.43,57.684,79.5,0.00,Sir Seewoosagur Ramgoolam Intl
-20.378,118.626,74.6,0.00,Port Hedland Intl
-20.35,148.95,74.0,0.00,Hamilton Island Airport
-20.3,57.467,73.7,0.00,Vacoas (Mauritius)
-20.285,44.318,81.2,0.00,Morondava
-20.258,-40.286,77.8,0.00,Goiabeiras / Eurico De Aguiar Salles Intl
-20.233,169.767,74.9,0.47,Aneityum
-20.2,32.617,66.2,0.00,Chipinge
-20.167,-157.35,79.8,0.00,Mauke Aws
-20.133,127.983,78.7,0.00,Balgo Hills Asa
-20.1,119.583,80.7,0.00,Pardoo Station
-20.055,30.859,66.8,0.00,Masvingo Intl
-20.05,-63.567,76.2,0.00,Camiri
-20.021,28.627,72.0,0.00,J M Nkomo Intl / Bulawayo
-20.02,148.21,74.5,0.00,Bowen Airport Aws
-19.973,23.431,79.1,0.00,Maun
-19.917,138.117,77.2,0.00,Camooweal Township
-19.9,-144.949,80.9,0.00,Hereheretue
-19.851,-43.951,67.0,0.00,Pampulha Carlos Drummond De Andrade
-19.833,48.8,77.6,0.00,Mahanoro
-19.765,-47.965,72.8,0.00,Uberaba / Mario De Almeida Franco
-19.758,63.361,79.4,0.00,Plaine Corail
-19.733,120.85,80.8,0.00,Mandora
-19.634,-43.969,70.2,0.00,Tancredo Neves Intl
-19.633,134.183,75.8,0.00,Tennant Creek Airport
-19.617,147.383,73.3,0.00,Ayr Dpi Research Stn
-19.602,18.123,76.3,0.00,Grootfontein
-19.583,119.1,79.6,0.00,Bedout Island
-19.543,-65.724,55.4,0.00,Capitan Nicolas Rojas
-19.533,-59.367,83.4,0.00,Adrian Jara
-19.45,147.483,75.5,0.00,Ayr Alva Beach
-19.436,29.862,66.0,0.00,Gweru Thornhill
-19.253,146.765,74.3,0.00,Townsville
-19.083,152.383,80.3,0.00,Marion Reef
-19.05,178.167,80.8,0.00,Vunisea
-19.012,-57.673,82.4,0.00,Corumba Intl
-19.007,-65.289,58.3,0.00,Juana Azurduy De Padilla
-18.975,-57.821,79.8,0.00,Tte De Av Salvador Ogaya G
-18.933,29.833,74.7,0.00,Kwekwe
-18.883,-48.217,71.3,0.00,Uberlandia
-18.797,47.479,65.8,0.00,Ivato
-18.65,135.95,78.5,0.00,Brunette Downs
-18.65,146.183,73.6,0.00,Ingham Composite
-18.63,27.021,68.1,0.00,Hwange National Park
-18.583,-173.967,77.5,0.00,Lupepau'U
-18.533,32.133,63.7,0.00,Rusape
-18.517,146.383,74.1,0.00,Lucinda Point Aws
-18.483,163.083,77.6,0.00,Ile Surprise
-18.367,21.85,78.1,0.00,Shakawe
-18.349,-70.339,67.0,0.00,Chacalluta
-18.317,-59.75,77.6,0.00,Robore (Civ/Mil)
-18.3,146.033,73.2,0.00,Cardwell Stoney Creek
-18.233,-178.8,78.9,0.00,Lakemba Island
-18.233,127.667,75.6,0.00,Halls Creek Airport
-18.217,28.933,70.6,0.00,Gokwe
-18.183,125.567,76.3,0.00,Fitzroy Crossing Aero
-18.11,49.393,78.8,0.08,Toamasina
-18.096,25.839,70.2,0.00,Victoria Falls Intl
-18.075,-140.946,81.7,0.00,Hao
-18.053,-70.276,62.1,0.00,Coronel Carlos Ciriani Santa Rosa Intl
-18.043,178.559,77.6,0.00,Nausori Intl
-17.963,-67.076,52.1,0.00,Juan Mendoza
-17.956,19.719,75.6,0.00,Rundu
-17.945,122.232,76.7,0.00,Broome Intl
-17.93,31.094,64.7,0.00,Robert Gabriel Mugabe Intl / Harare
-17.9,122.317,76.2,0.00,West Roebuck
-17.856,36.869,80.7,0.00,Quelimane
-17.833,-60.75,83.3,0.00,San Jose
-17.833,25.162,76.0,0.00,Kasane
-17.812,-63.171,83.4,0.00,El Trompillo
-17.755,177.443,78.8,0.00,Nadi Intl
-17.75,139.55,74.4,0.00,Burketown Post Office
-17.717,148.45,79.7,0.00,Flinders Reef
-17.699,168.32,78.7,0.39,Port Vila Bauerfield
-17.667,141.083,79.1,0.00,Normanton
-17.652,-39.253,79.4,0.00,Caravelas
-17.645,-63.135,78.8,0.00,Viru Viru Intl
-17.6,177.45,80.5,0.00,Lautoka Queens Wharf
-17.583,123.817,80.5,0.00,Curtin Aero
-17.554,-149.607,82.3,0.00,Tahiti Faa A
-17.55,133.533,74.3,0.00,Elliott
-17.533,118.95,83.1,0.00,Rowley Shoals
-17.432,32.185,67.0,0.00,Mutoko
-17.421,-66.177,64.1,0.00,Jorge Wilstermann Intl
-17.367,123.667,75.0,0.00,Derby Aero
-17.233,-178.95,82.0,0.00,Vanua Balavu Aws
-17.2,137.933,77.5,0.00,Wollogorang
-17.15,176.9,82.6,0.00,Viwa Aws
-17.117,152.0,79.1,0.00,Lihou Reef
-17.067,145.417,72.4,0.00,Mareeba Airport
-17.05,42.717,84.6,0.00,Ile Juan De Nova
-17.017,128.217,80.5,0.00,Warmun
-17.0,178.7,80.7,0.00,Nabouwalu
-16.886,145.755,74.7,0.00,Cairns Intl
-16.833,29.617,66.4,0.00,Karoi
-16.783,31.583,71.1,0.00,Mount Darwin
-16.767,145.967,74.1,0.00,Green Island
-16.7,177.583,81.1,0.00,Yasawa
-16.633,128.45,80.6,0.00,Argyle Aerodrome
-16.632,-49.221,76.8,0.00,Santa Genoveva
-16.52,28.885,80.7,0.00,Kariba Intl
-16.513,-68.192,43.8,0.00,El Alto Intl
-16.467,147.867,80.1,0.00,Holmes Reef
-16.45,59.617,80.8,0.00,St. Brandon (St. Raphael)
-16.45,123.0,74.5,0.00,Cygnet Bay
-16.433,-151.75,83.3,0.00,Bora-Bora
-16.417,167.8,80.5,1.10,Lamap/Malekoula Isl
-16.401,-61.045,81.0,0.00,San Ignacio De Velasco Airport
-16.4,131.017,76.9,0.00,Victoria River Downs
-16.383,145.567,76.4,0.00,Low Isles Lighthouse
-16.341,-71.583,61.6,0.00,Rodriguez Ballon
-16.333,-58.383,85.7,0.00,San Matias
-16.288,149.965,80.2,0.00,Willis Island
-16.267,-62.467,82.5,0.00,San Javier
-16.25,-62.1,81.8,0.00,Concepcion
-16.229,-48.964,70.9,0.00,Base Aerea / Campo Marechal Marcio De Souza E Mello
-16.183,33.583,89.6,0.00,Tete
-16.083,136.3,79.6,0.00,Borroloola
-15.933,-5.667,67.9,0.00,St. Helena Is.
-15.883,54.517,81.2,0.00,Serge-Frolow (Ile Tromelin)
-15.863,-47.913,70.9,0.00,Presidente Juscelino Kubitschek
-15.861,-52.389,82.4,0.00,Barra Do Garcas
-15.778,128.708,77.9,0.00,Kununurra
-15.75,136.8,79.4,0.00,Centre Island
-15.717,-63.1,84.5,0.00,Ascencion Guarayos
-15.667,46.352,83.0,0.00,Philibert Tsiranana
-15.653,-56.117,82.2,0.00,Marechal Rondon
-15.583,133.217,80.6,0.00,Larrimah
-15.517,123.15,80.7,0.00,Adele Island
-15.501,167.223,81.2,0.08,Santo Pekoa Intl
-15.5,147.117,80.2,0.00,Bougainville Reef
-15.483,128.117,89.7,0.00,Wyndham
-15.467,-70.158,49.3,0.00,Juliaca / Inca Manco Capac Intl
-15.433,145.183,77.5,0.00,Cooktown Mission
-15.333,28.45,62.8,0.00,Lusaka Intl
-15.106,39.282,77.3,0.00,Nampula
-14.863,-40.863,66.8,0.00,Vitoria Da Conquista
-14.819,-64.918,84.2,0.00,Tte Av Jorge Henrich Arauz
-14.816,-39.033,76.5,0.00,Ilheus / Jorge Amado
-14.521,132.378,79.9,0.00,Tindal
-14.483,-145.033,81.9,0.00,Takaroa
-14.483,-67.483,84.3,0.00,Rurrenabaque
-14.467,132.267,82.4,0.00,Katherine Country Club
-14.333,-170.833,79.1,0.00,Cape Taputapu Aws  American Samoa *
-14.331,-170.714,81.3,0.28,Tafuna/Pago Pago International Ap
-14.317,-178.117,82.2,0.00,Maopoopo / Futuna Pointe Vele
-14.3,-67.367,83.7,0.00,Reyes
-14.05,-171.45,80.8,0.00,Cape Tapaga
-13.85,167.55,81.1,0.35,Sola/Vanua Lava Isl
-13.833,131.183,78.9,0.00,Douglas River
-13.817,-171.983,81.7,0.00,Faleolo Arpt
-13.817,-171.75,79.5,0.00,Apia Wharf
-13.762,-65.435,84.6,0.00,Santa Ana Del Yacuma
-13.75,126.15,84.9,0.00,Troughton Island
-13.75,143.117,78.9,0.00,Coen Airport
-13.745,-76.22,69.9,0.00,Pisco Intl
-13.733,130.683,79.9,0.00,Mango Farm
-13.6,-172.217,80.1,0.00,Avavo
-13.536,-71.939,53.9,0.00,Teniente Alejandro Velasco Astete Intl
-13.483,-172.767,78.3,0.00,Avata
-13.333,-64.15,82.5,0.00,Magdalena
-13.262,-43.408,81.8,0.00,Bom Jesus Da Lapa
-13.238,-176.199,81.2,0.00,Wallis Hihifo
-13.167,130.117,78.4,0.00,Channel Point
-13.067,-64.667,85.4,0.00,San Joaquin
-13.05,131.017,77.6,0.00,Batchelor Aero
-12.987,40.522,81.7,0.00,Pemba
-12.911,-38.331,78.9,0.00,Deputado Luis Eduardo Magalhaes
-12.805,45.281,81.5,0.00,Dzaoudzi Pamandzi
-12.783,143.3,77.9,0.00,Lockhart River Airport
-12.694,-60.098,80.7,0.00,Vilhena
-12.683,141.917,79.5,0.00,Weipa Aero
-12.667,132.9,79.5,0.00,Jabiru Airport
-12.633,130.367,77.8,0.00,Dum In Mirrie
-12.614,-69.229,76.9,0.12,Padre Aldamiz
-12.415,130.877,78.2,0.00,Darwin Intl
-12.283,136.817,78.9,0.00,Gove Airport
-12.233,131.883,78.3,0.00,Point Stuart
-12.188,96.834,82.0,0.00,Cocos Keeling Islands
-12.05,134.217,79.9,0.00,Maningrida
-12.022,-77.114,69.5,0.00,Jorge Chavez Intl
-11.783,130.017,78.2,0.00,Cape Fourcroy
-11.65,133.383,79.6,0.00,Warruwi
-11.583,47.283,82.8,0.00,Iles Glorieuses
-11.534,43.272,83.1,0.00,Prince Said Ibrahim
-11.4,130.417,78.2,0.00,Pirlangimpi
-11.317,131.767,80.2,0.00,Cape Don Aws
-11.15,132.133,79.5,0.00,Black Point (Port Essington)
-11.05,132.983,79.4,0.00,Mccluer Island Aws
-11.04,-68.783,77.8,0.00,Heroes Del Acre / Cap Av Civ Anibal Arab Fadul Intl
-11.017,-66.117,82.1,0.00,Riberalta / Cap Av Selin Zeitun Lopez
-11.017,136.75,80.6,0.00,Cape Wessel Aws
-10.984,-37.07,82.2,0.00,Santa Maria
-10.951,142.459,61.5,0.00,Bamaga Injinoo
-10.915,-165.839,83.7,0.00,Pukapuka Arpt
-10.719,-48.4,83.8,0.00,Porto Nacional
-10.683,152.833,84.6,0.00,Misima W.O.
-10.583,142.283,78.9,0.00,Horn Island
-10.451,105.69,77.8,0.00,Christmas Island
-10.433,56.6,81.7,0.00,Agalega
-9.869,-67.894,78.6,0.00,Presidente Medici / Placido De Castro Intl
-9.866,-56.106,80.8,0.00,Alta Floresta / Piloto Osvaldo Marques Dias
-9.8,-139.033,79.9,0.00,Hiva-Oa
-9.511,-35.792,80.2,0.00,Zumbi Dos Palmares
-9.443,147.22,80.5,0.00,Port Moresby Jacksons Intl
-9.428,160.055,82.4,0.00,Honiara Intl
-9.417,159.967,82.4,0.00,Honiara
-9.401,-38.251,88.5,0.00,Paulo Afonso
-9.362,-40.569,84.8,0.00,Senador Nilo Coelho
-9.333,-54.967,80.8,0.00,Cachimbo
-9.133,-75.95,73.8,0.00,Tingo Maria
-9.083,143.2,80.8,0.00,Daru W.O.
-9.033,-158.05,84.9,0.00,Penrhyn Aws
-8.783,160.733,79.6,0.00,Auki
-8.75,116.267,84.7,0.00,Mataram-Lombok Intl Airport / Zainuddin Abdul Madjid
-8.749,115.167,82.9,0.00,Denpasar Ngurah Rai
-8.709,-63.902,81.9,0.00,Governador Jorge Teixeira De Oliveira
-8.641,122.237,83.4,0.00,Wai Oti
-8.55,126.567,83.9,0.00,Dilli/Comoro
-8.54,118.687,82.6,0.00,Muhammad Salahuddin
-8.52,140.418,83.1,0.00,Mopah
-8.517,179.217,83.2,0.00,Funafuti Intl Arpt
-8.5,179.217,82.0,0.00,Funafuti
-8.489,117.412,81.8,0.00,Sumbawa Besar
-8.378,-74.574,77.8,0.00,Cap Fap David Abensur Rengifo Intl
-8.348,-49.302,80.9,0.00,Conceicao Do Araguaia
-8.328,157.263,78.2,0.00,Munda
-8.217,114.383,84.4,0.00,Banyuwangi
-8.126,-34.924,86.1,0.00,Guararapes Gilberto Freyre Intl
-8.081,-79.109,65.1,0.00,Capitan Fap Carlos Martinez De Pinillos
-7.983,131.3,80.7,0.00,Saumlaki
-7.97,-14.394,79.9,0.00,Ascension Aux Af
-7.733,109.017,81.8,0.00,Cilacap
-7.6,-72.769,79.0,0.00,Cruzeiro Do Sul
-7.38,112.787,83.0,0.00,Surabaya Juanda
-7.3,72.4,82.2,0.00,Diego Garcia Naval Air Station
-7.27,-35.896,77.7,0.00,Presidente Joao Suassuna
-7.267,-35.883,77.4,0.00,Campinagrande
-7.217,112.717,84.6,0.00,Surabaya/Perak
-7.1,-34.867,80.0,0.00,Joao Pessoa
-6.983,110.383,81.4,0.00,Jenderal Ahmad Yani
-6.967,110.417,84.8,0.00,Semarang
-6.883,107.6,78.6,0.00,Bandung
-6.85,109.15,80.7,0.00,Tegal
-6.787,-79.828,72.3,0.00,Cap Fap Jose A Quinones Gonzales Intl
-6.75,108.267,82.2,0.00,Cirebon/Jatiwangi
-6.7,106.933,71.4,0.00,Bogor/Citeko
-6.3,106.567,83.2,0.00,Tangerang/Budiarto Arpt
-6.267,106.891,82.6,0.00,Halim Perdanakusuma Intl
-6.126,106.656,81.6,0.00,Soekarno Hatta Intl
-6.083,141.183,81.7,0.00,Kiunga W.O.
-6.068,-77.16,74.0,0.00,Juan Simons Vela / Rioja
-5.911,-35.248,79.4,0.00,Campo Augusto Severo
-5.894,-76.118,78.3,1.06,Moises Benzaquen Rengifo / Yurimaguas
-5.683,132.75,84.3,0.00,Tual/Dumatubun
-5.667,176.133,84.4,0.00,Nanumea Island
-5.531,-47.46,81.3,0.00,Prefeito Renato Moreira
-5.467,122.617,82.5,0.00,Bau-Bau/Beto Ambiri
-5.369,-49.138,78.6,0.00,Maraba / Joao Correa Da Rocha
-5.242,105.179,83.5,0.00,Radin Inten Ii
-5.207,145.789,86.4,0.00,Madang
-5.206,-80.616,79.7,0.00,Capitan Fap Guillermo Concha Iberico
-5.202,-37.364,86.3,0.00,Dix Sept Rosado
-5.183,119.483,82.2,0.00,Panakukang
-5.067,119.55,86.0,0.00,Ujang Pandang/Paotere
-5.062,119.554,81.8,0.00,Sultan Hasanuddin Intl
-5.06,-42.823,80.6,0.00,Senador Petronio Portella
-4.816,11.887,78.8,0.00,Pointe Noire / Antonio Agostinho Neto
-4.717,136.433,82.7,0.00,Kokonao/Timuka
-4.674,55.522,82.0,0.00,Seychelles Intl
-4.577,-81.254,76.8,0.00,Capitan Fap Victor Montes Intl
-4.533,129.9,86.0,0.00,Neira
-4.256,-69.936,79.6,0.00,Tabatinga
-4.252,15.253,78.9,0.00,Maya Maya
-4.242,-56.001,80.0,0.00,Itaituba
-4.193,-69.943,77.3,0.00,Alfredo Vasquez Cobo
-4.103,138.957,71.0,0.00,Wamena
-4.082,122.417,84.5,0.00,Wolter Monginsidi
-3.864,102.339,84.7,0.00,Fatmawati Soekarno
-3.855,-32.423,79.2,0.00,Fernando De Noronha
-3.786,-49.72,84.6,0.00,Tucurui
-3.785,-73.309,76.0,0.00,Coronel Francisco Secada Vignetta Intl
-3.776,-38.533,81.0,0.00,Pinto Martins Intl
-3.71,128.089,82.0,0.00,Pattimura
-3.645,133.696,85.2,0.00,Kaimana / Utarom
-3.584,143.669,82.9,0.00,Wewak Intl
-3.553,-80.381,79.9,0.00,Cap Fap Pedro Canga Rodriguez
-3.442,114.763,83.0,0.00,Syamsudin Noor
-3.417,10.65,80.0,0.00,Mayumba
-3.4,38.567,73.0,0.00,Voi
-3.4,116.217,83.6,0.00,Kotabaru/Setagen
-3.383,-64.724,79.1,0.00,Tefe / Prefeito Orlando Marinho
-3.35,128.883,81.6,0.00,Amahai
-3.25,127.083,84.1,0.00,Namlea/Buru Island
-3.146,-59.986,80.5,0.00,Campo Ponta Pelada
-3.039,-60.05,81.3,0.00,Eduardo Gomes Intl
-2.898,104.701,83.1,0.00,Sultan Mahmud Badaruddin Ii
-2.894,-41.732,81.8,0.00,Parnaiba Prefeito Dr Joao Silva Filho
-2.883,132.25,82.0,0.00,Fak-Fak / Torea / Siboru
-2.85,11.017,74.9,0.00,Tchibanga
-2.746,107.755,77.8,0.00,H As Hanandjoeddin
-2.705,111.673,84.2,0.00,Iskandar
-2.585,-44.234,79.2,0.00,Marechal Cunha Machado Intl
-2.577,140.516,83.1,0.00,Sentani
-2.567,150.817,85.7,0.00,Kavieng W.O.
-2.55,120.367,82.5,0.00,Masamba/Andi Jemma
-2.533,14.767,72.0,0.00,Djambala
-2.5,119.0,81.2,0.00,Majene
-2.422,-54.793,78.0,0.00,Santarem / Maestro Wilson Fonseca
-2.367,140.717,84.1,0.00,Jayapura/Dok Ii
-2.283,37.833,74.7,0.00,Makindu
-2.225,113.943,82.5,0.00,Palangka Raya/Tjilik Riwut
-2.17,106.13,79.1,0.00,Pangkalpinang / Depati Amir
-2.157,-79.884,83.1,0.00,Simon Bolivar Intl / Jose Joaquin De Olmedo Intl
-2.083,126.0,82.8,0.00,Sanana / Namniwel
-1.833,138.717,85.6,0.00,Sarmi/Orai
-1.817,109.963,83.6,0.00,Rahadi Oesman
-1.617,124.55,82.9,0.00,Labuha/Taliabu
-1.533,13.267,73.3,0.00,Moanda Bangombe
-1.417,120.658,83.1,0.00,Kasiguncu / Imip
-1.379,-48.476,79.4,0.00,Val De Cans Julio Cezar Ribeiro Intl
-1.322,36.815,69.8,0.00,Nairobi Wilson
-1.319,36.928,65.7,0.00,Jkia / Nairobi Jomo Kenyatta Intl
-1.19,136.108,82.1,0.00,Frans Kaisiepo
-1.133,35.833,67.9,0.00,Narok
-1.039,122.772,82.7,0.00,Bubung
-0.95,-80.683,74.6,0.00,Eloy Alfaro Intl
-0.95,114.9,89.1,0.00,Muaratewe/Beringin
-0.926,131.121,83.8,0.00,Jefman / Domine Eduard Osok
-0.907,-78.616,56.1,0.00,Alternativo Cotopaxi Intl
-0.875,100.352,81.6,0.00,Tabing
-0.712,8.754,83.2,0.00,Port Gentil
-0.704,10.246,80.9,0.00,Lambarene
-0.693,73.156,84.7,0.00,Gan Island
-0.683,119.733,82.6,0.00,Palu/Mutiara
-0.531,166.917,79.7,0.00,Nauru
-0.5,36.967,68.9,0.00,Nyeri
-0.479,104.579,79.9,0.00,Dabo
-0.464,39.648,82.5,0.00,Garissa
-0.367,35.35,64.2,0.00,Kericho
-0.35,102.333,79.9,0.00,Rengat/Japura Arpt
-0.35,111.783,83.8,0.00,Nangapinoh
-0.267,36.1,71.1,0.00,Nakuru
-0.151,109.404,83.3,0.00,Supadio
-0.141,-78.488,55.7,0.00,Mariscal Sucre Intl
-0.086,34.729,76.1,0.00,Kisumu
0.051,-51.072,78.4,0.00,Macapa / Alberto Alcolumbre
0.064,111.473,85.6,0.00,Susilo / Tebelian
0.083,37.65,74.5,0.00,Meru
0.271,34.787,69.3,0.00,Kakamega
0.459,9.412,80.1,0.00,Leon M Ba
0.461,101.445,80.9,0.00,Sultan Syarif Kasim Ii
0.483,35.3,68.0,0.00,Eldoret
0.579,12.891,70.2,0.00,Makokou
0.637,122.85,83.3,0.00,Jalaluddin / Djalaluddin
0.783,11.533,73.0,0.00,Mitzic
0.831,127.381,81.1,0.00,Babullah
0.923,104.532,83.4,0.00,Kijang
0.972,34.959,65.9,0.00,Kitale
1.0,9.6,79.1,0.00,Cocobeach
1.017,120.8,85.5,0.00,Toli-Toli/Lalos / Bolaang Mongondow
1.117,104.117,81.2,0.00,Batam/Hang Nadim
1.166,97.705,79.6,0.00,Binaka
1.35,103.994,83.5,0.00,Singapore Changi Intl
1.35,172.933,80.2,0.00,Tarawa Tide Aws
1.382,173.147,80.6,0.00,Bonriki Intl
1.433,125.183,82.3,0.00,Bitung
1.485,110.347,83.5,0.00,Kuching Intl
1.549,124.926,81.6,0.00,Sam Ratulangi
1.556,98.889,80.7,0.00,Pinang Sore / Dr Ferdinand Lumbantobing
1.616,16.038,77.0,0.00,Ouesso
1.767,109.3,86.4,0.00,Paloh
1.817,127.833,81.5,0.00,Galela/Gamarmalamu
2.033,-56.117,77.0,0.00,Sipaliwini
2.076,11.493,75.8,0.00,Bitam
2.262,111.985,80.7,0.00,Sibu
2.263,102.252,83.8,0.00,Malacca
2.846,-60.69,84.9,0.00,Boa Vista / Atlas Brasil Cantanhede
3.122,35.609,88.4,0.00,Lodwar
3.124,113.02,82.0,0.00,Bintulu
3.131,101.549,83.3,0.00,Sultan Abdul Aziz Shah Intl
3.2,106.25,83.2,0.00,Tarempa
3.533,39.05,73.7,0.00,Moyale Lower (Oda)
3.543,-76.382,72.1,0.00,Alfonso Bonilla Aragon Intl
3.558,98.672,83.9,0.00,Polonia / Kualanamu Intl
3.633,-54.033,79.3,0.00,Maripasoula
3.683,125.528,80.4,0.00,Naha
3.775,103.209,82.0,0.00,Kuantan
3.8,98.7,83.4,0.00,Medan/Belawan
3.883,-51.8,77.2,0.00,Saint Georges
4.006,9.719,81.3,0.00,Douala
4.168,-73.614,77.5,1.46,Vanguardia
4.192,73.529,84.4,0.00,Male Intl / Velana Intl
4.217,100.7,83.4,0.00,Sitiawan
4.222,15.786,76.9,0.00,Berberati
4.25,96.117,80.8,0.00,Meulaboh/Cut Nyak / Cut Nyak Dhien Nagan Raya
4.313,118.122,80.2,0.00,Tawau
4.322,113.987,83.2,0.00,Miri
4.35,-54.417,77.5,0.00,Stoelmanseiland
4.398,18.519,75.5,0.00,Bangui M Poko
4.417,-7.367,80.5,0.00,Tabou
4.422,-75.133,75.8,0.00,Perales
4.583,114.2,83.7,0.00,Kuala Belait
4.702,-74.147,56.3,0.00,El Dorado Intl
4.747,-6.661,81.4,0.00,San Pedro
4.813,-75.74,66.9,0.00,Matecana
4.82,-52.36,79.6,0.00,Rochambeau / Cayenne Felix Eboue
4.944,114.928,83.0,0.00,Brunei Intl
4.95,-6.083,79.3,0.00,Sassandra/Drewin
5.05,21.2,79.6,0.00,Alindao
5.227,96.95,81.1,0.00,Malikus Saleh
5.261,-3.926,82.4,0.00,Abidjan Felix Houphouet Boigny Intl
5.267,17.633,78.5,0.00,Bossembele
5.297,100.277,83.5,0.00,Penang Intl
5.3,-3.3,78.7,0.00,Adiake
5.301,115.25,83.8,0.00,Labuan
5.357,162.958,84.0,0.01,Kosrae
5.4,26.5,78.4,0.00,Obo
5.45,-55.183,78.5,0.00,Johan A Pengel Intl
5.453,-55.188,77.6,0.00,Johan A Pengel Intl
5.5,-54.033,79.3,0.00,St Laurent Du Maron
5.524,95.42,81.8,0.00,Sultan Iskandar Muda
5.605,-0.167,85.2,0.00,Kotoka Intl
5.62,-67.606,81.8,0.00,Cacique Aramare
5.811,-55.191,79.7,0.00,Zorg En Hoop
5.85,20.65,78.7,0.00,Bambari
5.874,95.34,82.8,0.00,Maimun Saleh
5.901,118.059,83.9,0.00,Sandakan
5.933,-0.983,83.1,0.00,Akim Oda
5.937,116.051,82.6,0.00,Kota Kinabalu Intl
5.95,-57.03,79.9,0.00,Nickerie
6.05,125.1,82.6,0.00,Gen. Santos
6.117,81.133,81.4,0.00,Hambantota
6.133,-5.95,78.2,0.00,Gagnoa
6.165,-75.423,60.5,0.00,Jose Maria Cordova
6.166,1.255,85.0,0.00,Gnassingbe Eyadema Intl
6.167,102.293,84.3,0.00,Sultan Ismail Petra
6.357,2.384,84.6,0.00,Card Bernardin Gadin De Cadjehoun Intl
6.483,17.433,80.3,0.00,Bossangoa
6.5,-58.25,78.8,0.00,Georgetown
6.52,101.743,87.4,0.00,Narathiwat
6.583,1.5,84.9,0.00,Tabligbo
6.65,-4.7,79.4,0.00,Dimbokro City
6.661,100.08,83.5,0.00,Khoun Khan
6.715,-1.591,79.8,0.00,Kumasi
6.785,101.154,83.7,0.00,Pattani
6.793,-6.473,80.9,0.00,Daloa
6.8,-58.15,84.2,0.00,Georgetown
6.903,-5.366,77.9,0.00,Yamoussoukro
6.922,122.06,79.6,0.00,Zamboanga Intl
6.933,100.393,83.8,0.00,Hat Yai Intl
7.067,38.05,72.1,0.00,Awassa (Lake) / Hawassa
7.117,171.35,81.4,0.00,Majura  Marshall Is.
7.126,125.646,82.7,0.00,Francisco Bangoy Intl
7.127,-73.185,70.5,0.00,Palonegro
7.167,2.067,86.0,0.00,Bohicon
7.181,79.866,82.2,0.00,Bandaranaike Intl Colombo
7.187,100.608,85.9,0.00,Songkhla
7.333,134.483,81.7,0.24,Babelthuap/Koror Air
7.357,13.559,68.9,0.00,Ngaoundere
7.467,151.85,80.9,1.47,Chuuk International Airport
7.509,99.617,81.0,0.00,Trang
7.533,99.05,84.9,0.00,Ko Lanta
7.583,1.117,81.4,0.00,Atakpame/Akpaka
7.733,-8.833,80.6,0.00,N'Zerekore/Konia
7.739,-5.074,80.6,0.00,Bouake
7.841,-72.44,81.0,0.00,San Antonio Del Tachira / General Cipriano Castro Intl
7.883,98.4,84.2,0.00,Phuket
7.928,-72.512,83.4,0.00,Camilo Daza
8.033,2.467,84.3,0.00,Save
8.033,79.833,83.9,0.00,Puttalam
8.05,-2.783,79.2,0.00,Bondoukou/Soko
8.086,-80.945,77.9,3.19,Ruben Cantu
8.113,98.317,82.7,0.00,Phuket Intl
8.122,-63.537,84.4,0.00,Ciudad Bolivar
8.15,125.133,75.0,0.00,Malaybalay
8.3,73.15,84.7,0.01,Minicoy
8.301,80.428,81.7,0.00,Anuradhapura
8.367,126.333,85.0,0.00,Hinatuan
8.391,-82.435,80.5,0.06,Enrique Malek Intl
8.417,124.617,80.2,0.00,Lumbia Airport
8.471,99.956,82.6,0.00,Cha Ian
8.482,76.92,82.1,0.00,Thiruvananthapuram Intl
8.483,76.95,78.5,0.12,Thiruvananthapuram
8.483,124.65,82.2,0.00,Cagayan De Oro
8.582,-71.161,71.0,0.00,Alberto Carnevalli
8.601,123.334,81.9,0.00,Dipolog
8.62,-70.221,90.1,0.00,Barinas
8.624,16.071,88.7,0.00,Moundou
8.65,111.917,83.9,0.00,Truong Sa
8.683,98.25,81.0,0.00,Takua Pa
8.683,106.6,82.8,0.00,Con Son
8.733,39.0,77.3,0.00,Harar Meda (Mil)
8.733,167.733,82.2,0.06,Bucholz Aaf Kwajalein Kmr Atol Ap
8.867,39.9,87.5,0.00,Metehara
8.917,-79.6,79.0,0.00,Howard
8.925,-67.417,82.7,0.00,Calabozo
8.95,125.483,83.3,0.00,Butuan
8.978,38.799,70.5,0.00,Bole Intl
8.983,-79.517,79.1,0.00,Marcos A. Gelabert
8.983,1.15,83.9,0.00,Sokode
9.027,-69.755,81.4,0.00,Guanare
9.071,-79.383,80.0,0.96,Tocumen Intl
9.133,99.136,79.3,0.00,Surat Thani
9.15,18.383,88.1,0.00,Sarh (Civ/Mil)
9.183,105.15,80.5,0.00,Ca Mau
9.283,103.467,83.1,0.00,Tho Chu
9.334,123.3,81.3,0.00,Dumaguete
9.35,2.617,84.3,0.00,Parakou
9.387,-5.557,78.6,0.00,Korhogo
9.467,100.05,82.2,0.00,Ko Samui
9.483,138.083,83.2,0.00,Yap International Airport
9.5,-7.567,82.8,0.00,Odienne
9.533,112.883,84.6,0.00,Yongshujiao
9.55,1.167,85.0,0.00,Kara
9.553,-69.238,77.0,0.00,Oswaldo Guevara Mujica / Batalla De Araure
9.559,31.652,80.3,0.00,Malakal
9.577,-13.612,82.9,0.00,Conakry / Ahmed Sekou Toure Intl
9.625,41.854,84.8,0.00,Dire Dawa Intl
9.664,123.853,83.1,0.00,Tagbilaran
9.742,118.759,81.5,0.00,Puerto Princesa
9.749,-63.153,81.0,0.00,Maturin / Jose Tadeo Monagas Intl
9.767,1.091,85.9,0.00,Niamtougou International
9.778,98.585,77.6,0.00,Ranong
9.783,125.483,83.1,0.00,Surigao
9.817,-70.933,81.7,0.00,Mene Grande
9.907,-67.38,80.0,0.00,San Juan De Los Morros
9.946,76.272,78.5,0.43,Cochin
9.95,-84.133,71.6,0.00,Tobias Bolanos Intl
9.958,-83.022,80.1,3.47,Limon Intl
9.967,98.583,77.0,0.00,Victoria Point
9.994,-84.209,70.8,0.18,Juan Santamaria Intl
10.0,105.083,82.7,0.00,Rach Gia
10.043,-69.359,73.6,0.00,Barquisimeto Intl
10.107,-64.689,85.6,0.00,General Jose Antonio Anzoategui Intl
10.15,-67.928,80.2,0.00,Arturo Michelena Intl
10.217,103.967,84.1,0.00,Phu Quoc
10.25,-67.649,80.7,0.00,Mariscal Sucre
10.3,-68.233,72.7,0.00,Palmichal
10.308,123.979,82.6,0.00,Mactan Cebu Intl
10.317,1.383,85.6,0.00,Natitingou
10.333,-3.183,85.0,0.00,Gaoua
10.35,37.717,62.7,0.00,Debre Marcos
10.367,0.467,89.3,0.00,Mango/Sansanne
10.383,114.367,84.6,0.00,Nansha Dao
10.442,-75.513,79.8,0.04,Rafael Nunez
10.45,-64.13,78.6,0.00,Antonio Jose De Sucre
10.558,-71.728,81.9,0.00,La Chinita Intl
10.593,-85.544,86.0,0.00,Daniel Oduber Quiros Intl
10.595,-61.337,80.4,0.00,Piarco
10.603,-66.991,77.8,0.00,Simon Bolivar Intl
10.711,99.362,78.1,0.00,Chumphon
10.713,122.541,85.2,0.00,Iloilo
10.765,78.71,86.2,0.12,Tiruchirappalli
10.819,106.652,81.2,0.00,Tan Son Nhat Intl
10.85,121.0,88.2,0.00,Cuyo
10.867,0.25,88.2,0.00,Dapaon
10.89,-74.781,79.5,0.00,Ernesto Cortissoz
10.913,-63.967,83.3,0.00,Del Caribe Intl Gen Santiago Marino
10.917,-63.967,81.4,0.00,Porlamar (Aeropuerto Int Del Caribe)
10.933,108.1,83.0,0.00,Phan Thiet
11.031,77.044,86.0,0.00,Coimbatore
11.036,125.742,83.2,0.00,Guiuan
11.083,39.717,76.7,0.00,Combolcha/Dessie
11.12,-74.231,83.3,0.00,Simon Bolivar
11.133,2.933,88.5,0.00,Kandi
11.15,-60.833,80.8,0.00,Crown Point
11.15,-1.15,87.4,0.00,Po
11.16,-4.331,83.9,0.00,Bobo Dioulasso
11.228,125.028,85.9,0.00,Daniel Z Romualdez
11.25,75.783,85.3,0.00,Kozhikode
11.35,-5.683,87.6,0.00,Sikasso
11.415,-69.681,83.6,0.00,Jose Leonardo Chirinos
11.417,-85.833,86.4,0.00,Rivas
11.417,-7.5,87.8,0.00,Bougouni
11.417,114.333,82.2,0.00,Song Tu Tay (South West Cay)
11.547,104.844,82.7,0.00,Phnom Penh Intl
11.598,122.752,82.9,0.00,Roxas
11.667,92.717,79.1,1.06,Port Blair
11.75,-2.933,90.4,0.00,Boromo
11.767,79.767,85.7,0.00,Cuddalore
11.767,102.883,84.6,0.00,Khlong Yai
11.783,124.883,83.8,0.00,Catbalogan
11.788,99.805,79.7,0.00,Prachuap
11.883,3.45,90.2,0.00,Gaya
11.991,-83.774,84.0,0.00,Bluefields
12.004,-61.786,81.3,0.00,Point Salines Intl
12.033,0.367,91.3,0.00,Fada N'Gourma
12.1,-85.367,88.8,0.00,Juigalpa
12.131,-68.269,84.0,0.01,Flamingo
12.134,15.034,95.3,0.00,Ndjamena Hassan Djamous
12.141,-86.168,85.3,0.00,Managua Intl / Augusto Cesar Sandino Intl
12.189,-68.96,84.1,0.00,Hato
12.217,120.2,83.7,0.00,Coron
12.25,109.2,83.5,0.00,Nha Trang
12.353,-1.512,92.9,0.00,Ouagadougou
12.362,121.047,83.7,0.00,San Jose
12.369,123.629,83.3,0.00,Masbate
12.383,-5.467,88.4,0.00,Koutiala
12.383,17.05,96.8,0.00,Bokoro
12.41,-16.746,75.0,0.00,Cap Skirring
12.433,98.6,74.8,0.00,Mergui
12.467,-3.483,91.7,0.00,Dedougou
12.501,-70.015,84.7,0.00,Reina Beatrix Intl
12.502,124.636,83.2,0.00,Catarman
12.534,-7.95,91.9,0.00,Senou / President Modibo Keita
12.556,-16.282,82.1,0.00,Ziguinchor
12.572,-12.22,94.4,0.00,Kedougou
12.583,122.283,83.2,0.00,Romblon
12.584,-81.711,82.1,0.06,Gustavo Rojas Pinilla
12.6,102.117,84.3,0.00,Chanthaburi
12.633,-87.133,89.2,0.00,Chinandega
12.633,53.9,87.9,0.00,Socotra
12.633,101.35,86.7,0.00,Rayong
12.636,99.952,82.8,0.00,Hua Hin
12.683,100.983,86.7,0.00,Sattahip
12.683,108.083,76.4,0.00,Banmethuot
12.7,28.433,88.7,0.00,En Nahud
12.883,-14.967,89.8,0.00,Kolda
12.917,100.867,85.5,0.00,Phatthaya
12.961,74.89,84.1,0.00,Mangalore
12.967,77.583,75.9,0.94,Bangalore
12.983,8.933,89.2,0.00,Magaria
12.994,80.181,85.5,0.00,Chennai Intl
12.999,100.067,83.8,0.00,Phetchaburi
13.067,-9.467,93.3,0.00,Kita
13.075,-59.492,80.3,0.00,Grantley Adams Intl
13.083,-85.983,76.0,0.00,Jinotega
13.144,-61.211,83.6,3.50,E T Joshua
13.153,30.233,90.8,0.00,El Obeid
13.157,123.746,82.0,0.00,Legazpi
13.167,32.667,95.3,0.00,Kosti/Rabak
13.167,100.8,84.6,0.00,Ko Sichang
13.233,11.983,93.6,0.00,Maine-Soroa
13.283,-87.667,87.7,0.00,Amapala/Los Pelonas
13.338,-16.652,74.7,0.00,Banjul Intl
13.357,-81.358,83.9,0.00,El Embrujo
13.367,100.983,87.1,0.00,Chon Buri/Sattahip / Suvarnabhumi Intl
13.373,12.627,93.7,0.00,Diffa
13.417,121.183,83.9,0.00,Calapan/Mindoro Isl
13.441,-89.056,83.5,0.00,El Salvador Intl / San Oscar A Romero And Galdamez Intl
13.467,39.533,72.3,0.00,Mekele
13.482,2.184,96.4,0.00,Diori Hamani
13.483,144.8,79.5,1.04,Guam International Airport
13.503,7.127,93.8,0.00,Maradi
13.55,33.617,91.4,0.00,Sennar
13.567,-2.417,92.2,0.00,Ouahigouya
13.567,144.917,78.3,1.06,Andersen Afb
13.576,124.206,82.1,0.00,Virac
13.615,25.325,83.9,0.00,El Fashir
13.654,124.341,79.3,0.00,Catanduanes Radar
13.7,102.504,84.6,0.00,Aranyaprathet
13.733,-60.953,81.9,0.00,Hewanorra Intl
13.733,100.567,85.4,0.00,Bangkok Metropolis
13.737,-13.653,90.7,0.00,Tambacounda
13.767,109.217,85.3,0.00,Quy Nhon
13.779,8.984,96.8,0.00,Zinder
13.8,5.25,97.3,0.00,Birni-N'Konni
13.913,100.607,85.3,0.00,Bangkok Intl / Don Mueang Intl
13.936,-90.836,84.3,0.00,San Jose
13.983,10.3,93.1,0.00,Goure
14.0,32.333,91.2,0.00,Ed Dueim
14.005,108.017,74.3,0.00,Pleiku
14.017,99.533,86.0,0.00,Kanchana Buri
14.017,121.6,80.6,0.00,Tayabas
14.033,-0.033,92.6,0.00,Dori
14.033,35.4,80.1,0.00,Gedaref/Azaza
14.047,-83.387,85.7,0.00,Puerto Cabezas
14.061,-87.217,78.1,0.00,Toncontin Intl
14.078,101.38,85.9,0.00,Khao E To
14.1,98.217,75.8,0.00,Dawei
14.1,122.017,82.7,0.00,Alabat
14.129,122.98,83.2,0.00,Daet
14.147,-16.051,82.3,0.00,Kaolack
14.167,145.25,78.6,0.00,Rota Intl/Rota Isl
14.2,1.45,96.5,0.00,Tillabery
14.233,76.433,80.6,0.00,Chitradurga
14.25,13.117,92.8,0.00,N'Guigmi
14.333,-88.167,64.3,0.00,La Esperanza
14.4,33.483,87.7,0.00,Wad Medani
14.433,-89.2,78.1,0.00,Nueva Ocotepeque
14.45,79.983,89.3,0.00,Nellore
14.467,100.133,87.8,0.00,Suphan Buri
14.5,120.9,86.2,0.00,Sangley Point
14.509,121.02,84.8,0.00,Ninoy Aquino Intl
14.513,-4.08,90.2,0.00,Ambodedjo
14.583,-90.527,69.5,0.00,La Aurora
14.583,77.633,89.6,0.00,Pbo Anantapur
14.583,120.983,86.3,0.00,Manila
14.591,-61.003,76.0,0.00,Le Lamentin
14.65,-16.233,84.0,0.00,Diourbel
14.65,49.367,86.9,0.00,Riyan
14.65,121.05,84.8,0.00,Science Garden
14.74,-17.49,72.0,0.00,Leopold Sedar Senghor Intl
14.75,98.633,81.0,0.00,Thong Phaphum
14.75,121.65,84.4,0.00,Infanta
14.783,-88.783,72.8,0.00,Santa Rosa De Copan
14.794,-92.37,85.4,0.00,Tapachula Intl
14.8,100.617,88.5,0.00,Lop Buri
14.8,120.267,87.2,0.00,Subic Bay Weather
14.876,5.265,95.6,0.00,Tahoua
14.883,103.5,84.2,0.00,Surin
14.9,-85.933,80.8,0.00,Catacamas
14.917,-92.25,84.5,0.00,Tapachula  Chis
14.935,102.079,86.3,0.00,Khorat
15.0,145.617,85.0,0.00,West Tinian
15.117,-10.567,97.6,0.00,Yelimane
15.117,145.733,82.1,0.00,Saipan/Isley (Cgs)
15.167,-87.117,86.4,0.00,Yoro
15.251,104.87,85.5,0.00,Ubon Ratchathani
15.261,-83.781,84.1,0.00,Puerto Lempira
15.267,101.2,85.6,0.00,Bua Chum
15.317,-91.467,70.4,0.00,Huehuetenango
15.317,103.683,85.7,0.00,Tha Tum
15.333,119.967,85.2,0.00,Iba/Luzon Island
15.337,-61.392,77.1,0.31,Canefield
15.383,-15.117,91.4,0.00,Linguere
15.387,36.329,93.1,0.00,Kassala
15.417,75.633,81.1,0.00,Gadag
15.453,-87.924,86.9,0.00,La Mesa Intl / Ramon Villeda Morales Intl
15.467,120.95,84.0,0.00,Cabanatuan
15.476,44.22,73.8,0.00,Sanaa Intl
15.483,73.817,84.3,0.00,Goa/Panjim
15.547,-61.3,77.6,0.00,Melville Hall
15.589,32.553,93.1,0.00,Khartoum
15.65,-13.25,93.9,0.00,Matam/Ouro Sogui
15.657,101.105,88.5,0.00,Wichian Buri
15.673,100.137,87.0,0.00,Nakhon Sawan
15.683,-96.483,83.6,0.00,Puerto Angel  Oax.
15.731,-88.584,83.4,0.00,Puerto Barrios
15.742,-86.853,83.0,0.00,Goloson Intl
15.775,-96.263,85.1,0.00,Bahias De Huatulco Intl
15.8,78.067,94.0,0.00,Kurnool
15.8,102.033,85.7,0.00,Chaiyaphum
15.859,74.618,79.5,0.00,Belgaum
15.867,2.217,97.2,0.00,Menaka
15.877,-97.089,81.5,0.00,Puerto Escondido Intl
15.967,48.783,96.8,0.00,Sayun
16.044,108.199,84.9,0.00,Danang Intl
16.051,-16.463,74.9,0.00,Saint Louis Ousmane Masseck Ndiaye
16.07,103.646,85.6,0.00,Rob Muang
16.083,120.35,84.9,0.00,Dagupan
16.2,81.15,89.6,0.00,Machilipatnam/Franchpet
16.233,-93.9,88.6,0.00,Arriaga  Chis.
16.248,-0.005,100.8,0.00,Gao
16.25,-92.133,67.5,0.00,Comitan  Chis.
16.265,-61.532,78.8,0.00,Le Raizet
16.267,122.133,83.2,0.00,Casiguran
16.317,-86.523,86.6,0.00,Juan Manuel Galvez Intl
16.375,120.62,68.6,0.00,Baguio
16.402,107.703,83.9,0.00,Phubai
16.467,102.784,86.0,0.00,Khon Kaen
16.483,99.533,90.1,0.00,Kamphaeng Phet
16.533,104.717,85.9,0.00,Mukdahan
16.533,111.617,84.6,0.00,Sanhu Dao
16.65,-14.967,95.9,0.00,Podor
16.676,101.195,86.6,0.00,Phetchabun
16.7,98.545,84.4,0.00,Mae Sot
16.733,-169.533,79.2,0.00,Johnston Atoll Airport
16.741,-22.949,74.2,0.00,Amilcar Cabral Intl
16.75,-99.75,79.1,0.00,Acapulco  Gro
16.75,-93.133,81.7,0.00,Francisco Sarabia / Tuxtla Gutierrez Intl
16.75,-92.633,59.1,0.00,Sn. Cristobal Las Casas  Chis.
16.757,-99.754,78.5,0.00,General Juan N Alvarez Intl / Acapulco Intl
16.783,100.279,88.8,0.00,Phitsanulok
16.833,112.333,85.3,0.00,Xisha Dao
16.896,99.253,90.0,0.00,Tak
16.901,42.586,87.2,0.00,King Abdullah Bin Abdulaziz
16.907,96.133,88.6,0.00,Yangon Intl
16.933,54.017,84.9,0.00,Mina Salalah
16.95,82.233,89.5,0.00,Kakinada
16.967,7.967,100.7,0.00,Agadez / Mano Dayak
16.983,73.333,82.4,0.00,Ratnagiri
17.0,-96.733,78.1,0.00,Xoxocotlan Intl / Oaxaca Intl
17.039,54.091,82.5,0.00,Salalah
17.137,-61.793,80.1,0.00,V C Bird Intl
17.14,-157.79,74.7,0.00,Sw Hawaii 215 Nm South Southwest Of Hilo
17.15,104.133,86.7,0.00,Sakon Nakhon
17.233,99.05,90.0,0.00,Bhumibol Dam
17.311,-62.719,80.7,0.03,Robert L Bradshaw
17.386,102.788,87.7,0.00,Udon Thani
17.417,104.783,86.9,0.00,Nakhon Phanom
17.439,101.722,87.4,0.00,Loei
17.452,78.461,87.7,0.35,Begumpet Airport / Hyderabad Intl
17.467,47.121,89.9,0.00,Sharurah
17.483,106.6,84.2,0.00,Dong Hoi
17.539,-88.308,82.2,0.00,Philip S W Goldson Intl
17.55,-99.5,73.0,0.00,Chilpancingo  Ro.
17.555,120.356,83.6,0.00,Vigan
17.602,-101.461,79.4,0.00,Ixtapa Zihuatanejo Intl
17.611,44.419,82.4,0.00,Nejran
17.617,100.1,89.3,0.00,Uttaradit
17.628,75.935,93.4,0.00,Solapur
17.638,121.731,84.3,0.00,Tuguegarao
17.666,54.025,86.1,0.00,Thumrait
17.7,-64.813,81.4,0.00,Christiansted/Alex.
17.7,33.967,93.7,0.00,Atbara
17.7,83.3,87.5,0.00,Cwc Vishakhapatnam/Waltair
17.867,102.75,87.8,0.00,Nong Khai
17.9,-62.85,81.9,0.00,Gustavia/St.Barthel
17.936,-76.788,82.6,0.00,Norman Manley Intl
17.983,-92.817,87.0,0.00,C P A Carlos Rovirosa Intl / Villahermosa Intl
17.988,102.563,89.4,0.00,Wattay Intl
18.008,-66.563,83.0,0.00,Mercedita
18.041,-63.109,81.7,0.16,Princess Juliana Intl
18.098,-15.948,91.5,0.00,Nouakchott
18.103,-94.581,82.5,0.00,Minatitlan
18.132,100.165,88.0,0.00,Phrae
18.167,97.933,88.4,0.00,Mae Sariang
18.178,120.532,85.6,0.00,Laoag Intl
18.183,-94.5,81.7,0.00,Coatzacoalcos  Ver
18.217,109.583,85.2,0.00,Sanya
18.24,42.657,70.9,0.00,Abha
18.25,-67.15,81.3,0.00,Eugenio Maria De Ho
18.255,-65.641,78.2,0.00,Naval Station Roosevelt Roads Ceiba
18.271,99.504,89.8,0.00,Lampang
18.297,42.804,72.2,0.00,King Khaled Ab
18.336,-64.98,78.7,0.00,Cyril E King Airport
18.35,105.9,85.7,0.00,Ha Tinh
18.367,121.633,83.5,0.00,Aparri
18.417,-66.0,79.0,0.00,San Juan Intl Arpt
18.43,-69.669,78.1,0.12,De Las Americas Intl
18.433,-69.883,82.3,0.00,Santo Domingo
18.433,-66.011,79.0,0.00,Luis Munoz Marin In
18.467,94.35,88.3,0.00,Sandoway
18.47,-69.969,82.5,0.00,Herrera Intl
18.5,-67.133,78.1,0.00,Aquadilla/Borinquen
18.504,-77.913,81.8,0.00,Sangster Intl
18.505,-88.327,83.2,0.00,Chetumal Intl
18.533,73.85,85.5,0.00,Pune
18.567,-68.363,83.1,0.00,Punta Cana Intl
18.567,99.033,90.1,0.00,Lamphun
18.654,-91.799,86.7,0.00,Ciudad Del Carmen Intl
18.737,105.671,85.5,0.00,Vinh
18.767,79.433,96.2,0.00,Ramgundam
18.767,98.963,87.8,0.00,Chiang Mai Intl
18.8,95.217,91.6,0.00,Prome
18.808,100.783,88.0,0.00,Nan
18.835,-99.262,83.6,0.00,General Mariano Matamoros / Cuernavaca Intl
18.85,-97.1,71.7,0.00,Orizaba  Ver.
19.0,-155.667,69.3,0.00,South Point  Hawaii
19.05,-104.317,78.9,0.00,Manzanillo  Col.
19.05,-69.383,81.3,0.00,Sabana De La Mar
19.083,82.033,91.2,0.00,Jagdalpur
19.089,72.868,83.7,0.00,Chhatrapati Shivaji Maharaj Intl
19.1,108.617,85.6,0.00,Dongfang
19.117,100.8,90.6,0.00,Tha Wang Pha
19.145,-104.559,80.6,0.00,Playa De Oro Intl / Manzanillo Intl
19.146,-96.187,80.9,0.00,General Heriberto Jara Intl / Veracruz Intl
19.15,-96.117,80.8,0.00,Hacienda Ylang Ylang Veracruz  Ver.
19.154,30.43,82.9,0.00,Dongola
19.158,-98.371,68.1,0.00,Hermanos Serdan Intl / Puebla Intl
19.16,-160.74,73.7,0.00,W Hawaii 205 Nm Southwest Of Honolulu  H
19.193,99.9,87.8,0.00,Phayao
19.233,110.467,84.1,0.00,Qionghai
19.277,-103.577,77.8,0.00,Colima
19.283,-99.683,54.5,0.63,Toluca  Mex.
19.3,-81.367,82.1,0.00,Owen Roberts Airport
19.301,97.976,90.7,0.00,Mae Hong Son
19.317,-98.25,67.6,0.01,Tlaxcala  Tlax.
19.337,-99.566,57.6,0.00,Licenciado Adolfo Lopez Mateos Intl / Toluca Intl
19.397,-102.039,71.6,0.00,Licenciado Y Gen Ignacio Lopez Rayon / Uruapan
19.4,-99.183,66.7,0.00,Mexico (Central)   D.F.
19.436,-99.072,66.3,0.00,Licenciado Benito Juarez Intl / Mexico City Intl
19.517,109.583,84.3,0.00,Danxian
19.533,33.317,88.4,0.00,Abu Hamed
19.55,-96.917,73.2,0.00,Jalapa  Ver.
19.567,-88.05,84.5,0.00,Felipe Carrillo Puerto  Q Roo
19.583,37.217,78.5,0.00,Port Sudan
19.7,-101.183,77.7,0.00,Morelia  Mich.
19.717,-103.467,76.1,0.00,Ciudad Guzman  Jal.
19.719,-155.053,70.9,0.44,Hilo International Airport
19.733,-156.033,75.4,0.00,Kona Intl At Keahol
19.75,-155.55,51.0,0.00,Bradshaw Aaf
19.75,-70.55,82.4,0.00,Puerto Plata
19.75,105.783,82.7,0.00,Thanh Hoa
19.758,-70.57,83.1,0.00,Gregorio Luperon Intl
19.817,-90.5,85.8,0.00,Ingeniero Alberto Acuna Ongay Intl / Campeche Intl
19.85,-101.026,78.7,0.00,General Francisco J Mujica Intl / Morelia Intl
19.863,75.398,95.6,0.00,Aurangabad
19.885,99.827,88.2,0.00,Chiang Rai
19.9,-75.15,80.0,0.00,Guantanamo Bay Naval Air Station
19.97,-75.835,80.3,0.00,Antonio Maceo Intl
19.984,42.621,88.9,0.00,Bisha
20.0,110.25,85.0,0.00,Haikou
20.083,-98.367,67.0,0.00,Tulancingo  Hgo.
20.133,92.873,89.6,0.00,Sittwe
20.133,107.717,80.2,0.00,Bach Long Vi
20.244,85.818,91.0,0.00,Bhubaneshwar / Biju Patnaik Intl
20.296,41.634,88.2,0.00,Al Baha / King Saud Bin Abdulaziz
20.365,-74.506,80.6,0.00,Gustavo Rizo
20.433,106.15,83.2,0.00,Nam Dinh
20.451,121.98,80.3,0.00,Basco
20.504,45.2,89.8,0.00,Wadi Al Dawasir
20.517,-86.917,84.2,0.00,Cozumel Intl
20.522,-103.311,73.5,0.00,Don Miguel Hidalgo Y Costilla Intl / Guadalajara Intl
20.603,-97.461,81.5,0.00,Tajin / Poza Rica
20.617,-100.186,73.9,0.00,Queretaro Intercontinental
20.654,-74.922,80.2,0.00,Orestes Acosta
20.667,116.717,84.0,0.00,Dongsha Dao
20.675,58.89,86.0,0.00,Masirah
20.68,-105.254,77.0,0.00,Licenciado Gustavo Diaz Ordaz Intl / Puerto Vallarta Intl
20.683,-88.2,83.3,0.00,Valladolid  Yuc.
20.783,-156.95,74.5,0.00,Lanai
20.786,-76.315,79.2,0.00,Frank Pais Intl
20.8,106.633,79.6,0.00,Phu Lien
20.8,121.85,80.0,0.00,Itbayat
20.833,95.833,94.6,0.00,Meiktila
20.9,-156.429,72.9,0.00,Kahului Airport
20.9,70.367,82.3,0.00,Veraval
20.933,-17.03,77.4,0.00,Nouadhibou
20.937,-89.658,86.5,0.00,Licenciado Manuel Crescencio Rejon Int / Merida Intl
20.95,-156.667,72.6,0.00,Kapalua
20.95,-97.4,81.4,0.00,Tuxpan.Ver.
20.983,-101.483,79.6,0.00,Guanajuato Intl / Leon Intl
20.988,-76.936,82.1,0.00,Hermanos Ameijeiras
21.0,-101.283,75.7,0.00,Guanajuato  Gto.
21.033,-86.867,79.5,0.00,Cancun Intl
21.15,-157.1,73.8,0.00,Molokai (Amos)
21.2,72.833,85.6,0.00,Surat
21.217,110.4,83.0,0.00,Zhanjiang
21.221,105.807,83.5,0.00,Noibai Intl
21.3,-89.65,81.3,0.00,Progreso  Yuc.
21.317,-158.067,74.1,0.00,Kalaeloa Arpt
21.317,-98.817,79.7,0.00,Matlapa  S.L.P.
21.324,-157.929,75.8,0.00,Honolulu International Airport
21.333,103.9,82.4,0.00,Son La
21.383,93.95,82.3,0.00,Mindat
21.419,-104.843,78.0,0.00,Tepic
21.42,-77.848,76.0,0.00,Ignacio Agramonte Intl
21.433,39.767,92.8,0.00,Makkah
21.45,-157.768,74.5,0.00,Kaneohe Mcas
21.483,40.544,79.2,0.00,Taif
21.483,109.1,84.0,0.00,Beihai
21.5,101.583,82.8,0.00,Mengla
21.517,86.933,92.3,0.00,Balasore
21.517,107.967,79.4,0.00,Mong Cai
21.616,-81.546,81.4,0.00,Vilo Acuna Intl
21.68,39.157,81.7,0.00,King Abdulaziz Intl
21.705,-102.318,78.3,0.00,Jesus Teran Intl / Aguascalientes Intl
21.733,112.767,81.7,0.00,Shangchuan Dao
21.817,31.483,82.1,0.00,Halfa (Wadi)
21.833,106.767,76.8,0.00,Lang Son
21.835,-82.784,82.6,0.00,Rafael Cabrera
21.867,111.967,81.5,0.00,Yangjiang
21.9,-159.6,75.3,0.00,Port Allen Arpt
21.95,108.617,81.5,0.00,Qinzhou
21.983,96.1,93.2,0.00,Mandalay
21.984,-159.341,74.1,0.01,Lihue Airport
22.0,100.783,84.8,0.00,Jinghong
22.0,120.75,80.2,0.00,Hengchun
22.027,-78.79,77.6,0.00,Maximo Gomez
22.033,121.55,73.8,0.00,Lan Yu
22.15,-80.414,78.8,0.00,Jaime Gonzalez
22.15,113.592,80.8,0.00,Macau Intl
22.217,-159.45,71.2,0.00,Princeville  Kauai  Hawaii
22.25,91.813,89.2,0.00,Shah Amanat Intl
22.254,-100.931,68.6,0.04,Ponciano Arriaga Intl / San Luis Potosi Intl
22.296,-97.866,80.9,0.00,General Francisco Javier Mina Intl / Tampico Intl
22.309,70.78,91.5,0.00,Rajkot
22.309,113.915,83.6,0.00,Hong Kong Intl
22.312,114.173,81.0,0.00,Kowloon
22.35,110.933,83.9,0.00,Xinyi
22.367,106.75,77.7,0.00,Longzhou
22.417,120.55,82.0,0.00,Chia Tung
22.433,41.75,92.6,0.00,Muwaih
22.5,103.967,83.4,0.00,Lao Cai
22.533,59.483,91.6,0.00,Sur
22.567,99.933,77.8,0.00,Lancang
22.577,120.35,81.5,0.00,Kaohsiung Intl
22.608,108.172,75.8,0.00,Wuxu
22.617,101.817,77.1,0.00,Jiangcheng
22.639,113.811,83.3,0.00,Baoan Intl
22.655,88.447,90.0,0.00,Netaji Subhash Chandra Bose Intl
22.667,106.25,77.4,0.00,Cao Bang
22.672,120.462,81.4,0.00,Pingtung South
22.683,121.5,74.7,0.00,Lu-Tao
22.7,120.482,81.5,0.00,Pingtung North
22.722,75.801,92.4,0.00,Devi Ahilyabai Holkar
22.75,121.15,78.8,0.00,Taidong
22.755,121.102,77.1,0.00,Taitung / Fongnian
22.767,100.983,77.6,0.00,Simao
22.783,-102.567,65.9,0.00,Zacatecas  Zac. (La Bufa  Zac.)
22.783,115.367,78.5,0.00,Shanwei
22.783,120.262,78.0,0.00,Gangshan
22.793,121.182,78.3,0.00,Jhihhang
22.8,5.433,81.9,0.00,Tamanrasset
22.8,5.45,81.3,0.00,Tamanrasset
22.897,-102.687,73.9,0.00,General Leobardo C Ruiz Intl / Zacatecas Intl
22.933,97.75,83.8,0.00,Lashio
22.95,120.206,80.1,0.00,Tainan
22.989,-82.409,79.9,0.00,Jose Marti Intl
23.0,120.217,81.3,0.00,Tainan
23.034,-81.435,78.5,0.00,Juan Gualberto Gomez Intl
23.05,112.467,81.6,0.00,Gaoyao
23.067,57.633,74.9,0.00,Saiq
23.077,72.635,89.0,0.00,Ahmedabad / Sardar Vallabhbhai Patel Intl
23.152,-109.721,79.4,0.00,Los Cabos Intl / San Jose Del Cabo Intl
23.161,-106.266,76.6,0.00,General Rafael Buelna Intl / Mazatlan Intl
23.167,-82.35,78.3,0.00,Casa Blanca   La Habana
23.178,80.052,93.7,0.00,Jabalpur
23.2,-106.417,76.8,0.00,Colonia Juan Carrasco Mazatlan  Sin.
23.267,119.667,80.0,0.00,Dongshi
23.287,77.337,93.0,0.00,Bhopal / Raja Bhoj
23.288,69.67,92.0,0.00,Bhuj
23.3,105.95,75.8,0.00,Napo
23.392,113.299,83.0,0.00,Baiyun Intl
23.4,110.083,77.7,0.00,Guiping
23.4,116.683,76.3,0.00,Shantou / Chaoshan
23.43,-162.21,73.7,0.00,Nw Hawaii 170 Nm West Northwest Of Kauai
23.45,103.333,79.5,0.00,Mengzi
23.462,120.393,76.4,0.00,Chiayi
23.483,111.3,79.4,0.00,Wuzhou
23.55,99.4,78.7,0.00,Gengma
23.569,119.628,76.2,0.00,Magong / Penghu
23.593,58.284,90.6,0.00,Seeb Intl / Muscat Intl
23.6,101.983,91.0,0.00,Yuanjiang
23.633,-103.65,71.7,0.00,Sombrerete  Zac.
23.7,-15.867,66.8,0.00,Villa Cisneros(Mil)
23.704,-98.957,87.0,0.00,General Pedro Jose Mendez Intl / Ciudad Victoria Intl
23.742,-99.17,82.7,0.00,Ciudad Victoria   Tamps.
23.767,-98.2,85.3,0.00,Soto La Marina   Tamps.
23.8,114.733,81.5,0.00,Heyuan
23.843,90.398,90.3,0.00,Hazrat Shahjalal Intl
23.883,113.517,81.9,0.00,Fogang
23.887,91.24,88.9,0.00,Agartala
23.9,106.6,75.4,0.00,Baise
23.95,100.217,74.2,0.00,Lincang
24.0,97.85,80.0,0.00,Ruili
24.023,121.618,75.2,0.00,Hualien
24.05,-104.6,73.8,0.00,Durango  Dgo.
24.067,105.067,73.3,0.00,Guangnan
24.073,-110.362,76.4,0.00,General Manuel Marquez De Leon Intl / La Paz Intl
24.124,-104.528,75.3,0.00,Durango Intl
24.144,38.063,84.5,0.00,Yenbo / Prince Abdulmohsin Bin Abdulaziz
24.15,120.683,80.6,0.00,Taizhong
24.167,-110.3,74.9,0.00,La Paz  Bcs
24.167,96.333,90.1,0.00,Katha
24.179,23.314,76.4,0.00,Kufra
24.186,120.654,78.9,0.00,Taichung
24.2,110.517,73.5,0.00,Mengshan
24.262,55.609,92.2,0.00,Al Ain Intl
24.265,120.621,74.6,0.00,Taichung Intl / Ching Chuang Kang Ab
24.267,97.2,88.4,0.00,Bhamo
24.283,116.067,79.8,0.00,Mei Xian
24.29,153.979,78.6,0.00,Minami Torishima
24.293,9.452,85.1,0.00,Tiska
24.345,124.187,75.7,0.00,New Ishigaki
24.35,109.4,72.0,0.00,Liuzhou
24.367,114.483,80.3,0.00,Lianping
24.428,54.458,84.4,0.00,Al Bateen Executive
24.428,118.359,71.5,0.00,Shang Yi / Kinmen
24.433,54.651,85.6,0.00,Abu Dhabi Intl / Zayed Intl
24.467,56.65,84.0,0.00,Sohar Majis
24.467,122.978,78.1,0.00,Yonaguni
24.467,123.017,76.2,0.00,Yonagunijima
24.533,103.767,74.7,0.00,Luxi
24.544,118.128,74.0,0.00,Gaoqi
24.553,39.705,90.7,0.00,Prince Mohammad Bin Abdulaziz
24.557,-81.755,78.8,0.00,Key West International Airport
24.583,-81.683,77.6,0.00,Key West Nas
24.65,77.317,93.9,0.00,Guna
24.667,113.6,77.7,0.00,Shaoguan
24.7,108.05,70.2,0.00,Hechi
24.722,46.725,89.9,0.00,King Salman Ab
24.733,-81.05,77.2,0.00,Florida Keys Maratho
24.765,-107.475,85.2,0.00,Culiacan Intl
24.783,125.295,75.1,0.00,Miyako
24.784,141.323,79.6,0.00,Iwoto
24.8,112.367,75.1,0.00,Lianzhou
24.818,120.939,77.3,0.00,Hsinchu
24.827,125.145,75.8,0.00,Shimojishima
24.907,67.161,92.3,0.00,Jinnah Intl
24.933,121.3,76.7,0.00,Pa Kuei/Bakuai
24.95,115.65,75.1,0.00,Xunwu
24.958,46.699,88.1,0.00,King Khaled Intl
24.983,98.5,68.4,0.00,Tengchong
24.992,102.744,74.9,0.00,Wujiaba / Changshui
25.0,-111.633,69.4,0.00,Ciudad Constitucion  Bcs
25.01,-80.38,77.9,0.00,Molasses Reef  Fl
25.017,101.517,74.9,0.00,Chuxiong
25.033,121.517,79.2,0.00,Taibei
25.039,-77.466,77.1,0.00,Nassau Intl / Lynden Pindling Intl
25.056,121.243,77.5,0.00,Taoyuan
25.068,61.805,88.0,0.00,Jiwani
25.069,121.552,77.5,0.00,Songshan
25.078,121.233,78.2,0.00,Chiang Kai Shek Intl / Taoyuan Intl
25.112,56.324,91.6,0.00,Fujairah Intl
25.117,99.183,71.6,0.00,Baoshan
25.146,10.143,82.6,0.00,Ghat
25.17,-94.42,74.7,0.00,W Gulf 240 Nm South-Southeast Of Sabine
25.218,110.039,67.1,0.00,Liangjiang
25.255,55.364,85.9,0.00,Dubai Intl
25.261,51.565,85.8,0.00,Doha Intl
25.285,49.485,87.5,0.00,Al Ahsa
25.3,117.4,74.5,0.00,Zhang Ping
25.329,55.517,85.5,0.00,Sharjah Intl
25.367,-101.017,71.8,0.00,Plan De Guadalupe Intl / Saltillo Intl
25.367,97.4,89.2,0.00,Myitkyina
25.383,68.417,91.4,0.00,Hyderabad Airport
25.433,105.183,67.7,0.00,Xingren
25.433,106.767,73.9,0.00,Luodian
25.45,30.533,78.1,0.00,Kharga
25.483,-80.383,77.8,0.00,Homestead Afb Airport
25.5,28.967,78.0,0.00,Dakhla
25.517,69.783,91.2,0.00,Chhor
25.517,119.783,66.8,0.00,Pingtan
25.568,-103.411,83.7,0.00,Torreon Intl
25.583,103.833,69.0,0.00,Zhanyi
25.613,55.939,86.4,0.00,Ras Al Khaimah Intl
25.633,122.067,73.9,0.00,Pengjia Yu
25.65,-80.433,77.6,0.00,Kendall Tamiami Exec
25.671,32.707,80.3,0.00,Luxor Intl
25.673,21.091,74.7,0.00,Tazerbo
25.685,-109.081,76.9,0.00,Valle Del Fuerte Intl / Los Mochis Intl
25.7,100.183,70.6,0.00,Dali
25.717,118.1,58.8,0.00,Jiuxian Shan
25.733,-100.3,78.6,0.00,Monterrey  N.L.
25.733,101.867,86.2,0.00,Yuanmou
25.733,112.967,65.6,0.00,Chenzhou
25.77,-97.525,82.9,0.00,General Servando Canales Intl / Matamoros Intl
25.778,-100.107,77.2,0.00,General Mariano Escobedo Intl / Monterrey Intl
25.788,-80.317,80.1,0.00,Miami International Airport
25.833,107.55,61.6,0.00,Dushan
25.84,-89.66,76.3,0.00,Mid Gulf 180 Nm South Of Southwest Pass
25.847,131.263,73.0,0.00,Minami Daito
25.85,114.95,73.3,0.00,Ganzhou
25.85,116.367,72.1,0.00,Changting
25.866,-100.237,81.2,0.00,Del Norte Intl
25.9,-80.283,79.8,0.00,Opa Locka
25.914,-97.423,79.5,0.00,Brownsville/S Padre Island Intl Ap
25.967,108.533,68.0,0.00,Rongjiang
25.967,117.35,74.5,0.00,Yong'An
25.989,-111.348,72.2,0.00,Loreto Intl
26.009,-98.229,82.7,0.00,General Lucio Blanco Intl / Reynosa Intl
26.01,-85.91,78.2,0.00,E Gulf 260 Nm South Of Panama City  Fl
26.072,-80.154,79.6,0.00,Fort Lauderdale Hol
26.083,119.283,67.7,0.00,Fuzhou
26.106,91.586,84.5,0.00,Guwahati Intl / Lokpriya Gopinath Bordoloi Intl
26.133,34.25,75.4,0.00,Kosseir
26.155,-81.775,78.9,0.00,Naples Municipal Airport
26.16,119.958,61.4,0.00,Nangan
26.167,109.783,64.1,0.00,Tongdao
26.167,119.933,61.7,0.00,Mazu
26.184,-98.254,81.6,0.00,Mc Allen Miller Intl Arpt
26.196,127.646,74.6,0.00,Naha
26.199,36.476,74.7,0.00,Wejh
26.2,-80.167,80.4,0.00,Fort Lauderdale Exec
26.2,127.683,74.6,0.00,Naha
26.217,56.25,85.2,0.00,Khasab Port
26.219,68.39,87.4,0.00,Nawabshah
26.224,120.003,63.6,0.00,Beigan
26.228,-97.654,80.2,0.00,Valley International Arpt
26.233,111.617,64.4,0.00,Lingling
26.25,-80.117,79.8,0.00,Pompano Beach Airpar
26.265,50.152,87.0,0.00,King Abdulaziz Ab
26.267,127.75,72.1,0.00,Okinawa Marine Corps Air Station
26.271,50.634,85.8,0.00,Bahrain Intl
26.293,78.228,94.0,0.00,Gwalior
26.35,127.767,74.6,0.00,Kadena Ab
26.364,126.714,74.4,0.00,Kumejima
26.4,103.25,63.3,0.00,Huize
26.533,-81.75,79.5,0.00,Southwest Florida I
26.539,106.801,63.0,0.00,Longdongbao
26.559,-78.696,81.8,0.00,Grand Bahama Intl
26.585,-81.861,80.7,0.00,Page Field Airport
26.6,12.783,80.1,0.00,Obari
26.617,92.783,75.9,0.00,Tezpur
26.633,118.15,70.0,0.00,Nanping
26.65,102.25,74.5,0.00,Huili
26.685,-80.099,79.0,0.00,Palm Beach International Airport
26.7,-79.0,78.2,0.00,Settlement Point  Gbi
26.724,8.623,81.1,0.00,Illizi Takhamalt / Ibrahim Ghouma
26.733,110.633,63.0,0.00,Wugang
26.74,83.45,90.1,0.00,Gorakhpur
26.824,75.812,93.0,0.00,Jaipur
26.833,100.217,65.8,0.00,Lijing
26.85,116.333,69.8,0.00,Guangchang
26.867,104.283,56.3,0.00,Weining
26.9,70.917,93.6,0.00,Jaisalmer
26.92,-81.983,79.8,0.00,Charlotte Co
26.933,-105.667,74.3,0.00,Hidalgo Del Parral   Chih.
26.95,-96.7,74.9,0.00,Corpus Christi  Tx. 50Nm Southeast Of Co
26.956,-101.47,78.0,0.01,Monclova Intl
26.967,108.667,60.4,0.00,Sansui
26.987,14.473,80.3,0.00,Sebha
27.047,31.012,73.5,0.00,Asyut Intl
27.05,27.983,76.6,0.00,Farafra
27.092,142.191,75.2,0.06,Chichi Jima Bonin Island
27.117,114.967,69.1,0.00,Ji'An
27.152,-13.219,68.3,0.00,Hassan I
27.178,33.799,75.7,0.00,Hurghada Intl
27.183,111.45,64.8,0.00,Shaoyang
27.218,56.378,88.9,0.00,Bandar Abbas Intl
27.233,2.5,82.5,0.00,In-Salah
27.3,105.233,60.5,0.00,Bijie
27.3,112.7,52.3,0.00,Nanyue
27.333,97.417,70.6,0.00,Putao
27.333,103.75,61.0,0.00,Zhaotong
27.333,117.467,69.8,0.00,Shaowu
27.333,120.2,62.3,0.00,Fuding
27.383,-82.55,75.6,0.00,Sarasota Bradenton
27.393,-109.833,75.2,0.00,Santa Rosalia  Bcs
27.426,128.701,72.5,0.00,Okierabu
27.438,41.686,83.4,0.00,Hail
27.444,-99.57,84.9,0.00,Quetzalcoatl Intl / Nuevo Laredo
27.45,109.683,64.6,0.00,Zhijiang
27.55,-99.467,80.9,0.00,Laredo Intl Airport
27.583,116.65,67.1,0.00,Nancheng
27.653,-80.243,76.3,0.06,Vero Beach Muni
27.683,-97.283,76.4,0.00,Corpus Christi Nas
27.697,85.359,76.8,0.00,Tribhuvan Intl
27.7,-8.167,83.5,0.00,Tindouf
27.7,106.883,62.1,0.00,Zunyi
27.733,89.083,43.8,0.00,Pagri
27.741,-98.025,79.4,0.00,Alice International Arpt
27.765,-82.628,78.0,0.00,Albert Whitted Airport
27.767,118.033,68.5,0.00,Wuyishan
27.774,-97.512,77.7,0.00,Corpus Christi International Airport
27.8,114.383,67.4,0.00,Yichun
27.815,-17.887,66.9,0.00,Hierro
27.83,-97.05,74.5,0.00,Port Aransas  Tx
27.833,66.633,80.2,0.00,Khuzdar
27.836,128.881,75.2,0.00,Tokunoshima
27.838,-0.186,85.0,0.00,Touat Cheikh Sidi Mohamed Belkebir
27.85,-82.517,76.5,0.00,Mac Dill Afb Airport
27.9,-82.683,76.5,0.00,St Petersburg Clear
27.9,102.267,74.5,0.00,Xichang
27.901,45.528,91.0,0.00,King Khaled Military City / King Saud Ab
27.917,118.533,65.8,0.00,Pucheng
27.932,-15.387,71.0,0.00,Gran Canaria
27.95,-110.767,71.7,0.00,Empalme  Son.
27.95,-81.783,83.4,0.00,Bartow Muni
27.95,108.25,65.2,0.00,Sinan
27.962,-82.54,76.5,0.00,Tampa International Airport
27.967,34.383,78.8,0.00,Sharm El Sheikh Int
27.969,-110.925,76.0,0.00,General Jose Maria Yanez Intl / Guaymas Intl
27.983,-82.017,81.6,0.00,Lakeland Linder Rgn
28.017,120.667,61.8,0.00,Wenzhou
28.044,-16.572,70.4,0.00,Tenerife Sur
28.05,-81.75,78.9,0.00,Winter Haven
28.052,9.643,74.6,0.00,In Amenas
28.083,-97.05,76.3,0.00,Aransas Co
28.083,30.733,69.7,0.00,Minya
28.101,-80.644,77.2,0.00,Melbourne Intl Ap
28.117,112.783,65.2,0.00,Changsha
28.2,-177.383,69.5,0.00,Henderson Field Airport
28.209,33.646,71.9,0.00,El Tor
28.233,-80.6,78.1,0.00,Patrick Afb Airport
28.284,68.45,93.6,0.00,Shahbaz Ab
28.335,46.125,85.6,0.00,Al Qaisumah Intl
28.365,36.619,77.5,0.00,Tabuk / Prince Sultan Bin Abdulaziz
28.394,129.553,70.2,0.00,Naze/Funchatoge
28.417,92.467,53.3,0.00,Lhunze
28.431,129.713,73.8,0.00,Amami
28.434,-81.325,77.9,0.00,Orlando International Airport
28.45,-16.25,72.6,0.00,Sta. Cruz De Tenerife
28.45,98.883,52.0,0.00,Deqen
28.45,119.917,64.2,0.00,Lishui
28.45,121.883,59.2,0.00,Dachen Dao
28.453,-13.864,67.6,0.00,Fuerteventura
28.457,-99.218,79.5,0.02,Cotulla-La Salle Co Arpt
28.467,110.4,66.1,0.00,Yuanling
28.474,-82.455,75.5,0.00,Hernando Co
28.483,-16.342,66.0,0.00,Tenerife Norte
28.517,-80.8,80.3,0.00,Space Coast Rgnl
28.519,-80.166,76.0,0.00,Canaveral 20 Nm East Of Cape Canaveral
28.545,-81.333,79.0,0.21,Executive Airport
28.567,77.103,92.0,0.00,Indira Gandhi Intl
28.585,77.206,92.0,0.00,Safdarjung
28.615,-80.694,77.3,0.00,Nasa Shuttle Landing
28.626,-17.756,68.8,0.00,La Palma
28.627,-100.535,72.1,0.98,Piedras Negras Intl
28.633,-106.083,70.8,0.37,Chihuahua  Chih.
28.633,87.083,47.2,0.00,Tingri
28.65,70.683,91.2,0.00,Khanpur
28.703,-105.965,77.1,0.00,General R Fierro Villalobos Intl / Chihuahua Intl
28.725,-96.254,76.1,0.00,Palacios Municipal Airport
28.78,-81.244,78.0,0.00,Orlando Sanford Airport
28.8,104.6,65.4,0.00,Yibin
28.817,62.75,83.3,0.00,Nokkundi
28.833,108.767,61.6,0.00,Youyang
28.85,121.133,61.3,0.00,Linhai (Replaced By 58652 - Xianju)
28.861,-96.93,75.5,0.00,Victoria Regional Airport
28.865,115.9,66.7,0.00,Changbei Intl
28.883,105.433,65.0,0.00,Luzhou
28.892,53.723,72.1,0.00,Fasa
28.9,-89.43,74.1,0.00,Southwest Pass  La
28.9,-78.55,74.6,0.00,Canaveral East 120Nm East Of Cape Canave
28.945,-13.605,69.4,0.00,Lanzarote
28.95,50.85,87.2,0.00,Bushehr
28.967,118.867,60.5,0.00,Qu Xian
29.0,101.5,57.6,0.00,Jiulong
29.0,135.0,70.1,0.00,Moored Buoy 21004
29.033,114.583,66.7,0.00,Xiushui
29.05,100.3,51.9,0.00,Daocheng
29.05,111.683,66.9,0.00,Changde
29.084,58.45,80.3,0.00,Bam
29.096,-111.048,74.0,0.00,General Ignacio P Garcia Intl / Hermosillo Intl
29.117,-95.467,77.2,0.00,Brazoria Co
29.117,15.95,73.3,0.00,Hon
29.167,-82.217,75.5,0.00,Ocala Intl J Taylor
29.179,75.755,93.7,0.00,Hisar
29.183,-81.048,76.5,0.00,Daytona Beach Intl
29.2,25.483,76.8,0.00,Siwa
29.2,121.95,57.6,0.00,Shipu
29.227,47.969,88.5,0.00,Kuwait Intl
29.233,56.567,63.4,0.00,Baft
29.237,0.276,80.8,0.00,Timimoun
29.25,88.883,56.9,0.00,Xigaze
29.273,-94.859,75.3,0.00,Scholes Intl At Glston Apt
29.3,117.2,64.9,0.00,Jingdezhen
29.339,-98.472,74.3,0.25,Stinson Minicipal Airport
29.36,-99.174,73.4,0.07,Hondo Municipal Airport
29.367,-100.783,69.7,3.75,Laughlin Afb Airport
29.369,-10.18,63.8,0.00,Sidi Ifni
29.378,-100.927,67.4,0.35,Del Rio International Airport
29.383,-98.583,74.8,0.54,Lackland Air Force Base (Kelly Field Annex)
29.383,113.083,64.4,0.00,Yueyang
29.4,110.167,68.6,0.00,Sangzhi
29.467,55.717,66.7,0.00,Sirjan
29.476,60.907,70.2,0.00,Zahedan Intl
29.517,103.333,40.6,0.00,Emei Shan
29.533,-98.262,74.6,0.35,Randolph Afb Airport
29.539,52.589,73.1,0.00,Shiraz Shahid Dastghaib Intl
29.544,-98.484,73.4,0.44,San Antonio International Airport
29.561,34.96,79.4,0.00,Eilat
29.567,-90.66,79.4,0.00,Houma-Terrebonne
29.567,94.467,54.0,0.00,Nyingchi
29.583,105.05,63.5,0.00,Neijiang
29.583,115.983,53.7,0.00,Lu Shan
29.6,120.817,59.2,0.00,Shengxian
29.612,35.018,76.6,0.00,Aqaba King Hussein Intl
29.617,-95.65,80.8,0.00,Suger Land Rgnl
29.617,-95.167,77.0,0.00,Ellington Field Airport
29.626,43.491,86.2,0.00,Rafha
29.633,-83.105,74.4,0.00,Cross City Airport
29.638,-95.282,76.9,0.00,William P Hobby
29.667,91.133,58.1,0.00,Lhasa / Gonggar
29.67,-94.05,73.9,0.00,Sabine  Tx
29.692,-82.276,73.9,0.00,Gainesville Rgnl
29.709,-98.046,73.8,0.21,New Braunfels Municipal Ap
29.717,-91.333,75.3,0.00,Harry P Williams Mem
29.719,106.642,66.6,0.00,Jiangbei
29.733,-85.033,76.2,0.00,Apalachicola Muni Airport
29.785,40.1,84.6,0.00,Al Jouf
29.817,-90.017,77.9,0.00,New Orleans Nas
29.86,-81.26,73.8,0.00,St. Augustine  Fl
29.883,69.717,83.6,0.00,Bar Khan
29.9,-97.867,74.9,0.00,San Marcos Muni
29.94,34.936,69.3,0.00,Ovda
29.951,-94.021,76.5,0.00,Southeast Texas Regional Airport
29.98,-95.36,78.4,0.00,G Bush Intercontinental Ap/Houston Ap
29.983,103.0,61.4,0.00,Ya'An
29.997,-90.278,77.6,0.00,Louis Armstrong New Orleans Intl Ap
30.0,99.1,63.3,0.00,Batang
30.0,100.267,45.8,0.00,Litang
30.033,-91.883,75.9,0.00,New Iberia/Acadiana
30.033,122.117,57.8,0.00,Dinghai
30.049,-90.029,80.5,0.00,Lakefront Airport
30.05,101.967,51.6,0.00,Kangding
30.067,-95.55,77.5,0.00,Houston/D.W. Hooks
30.067,-85.583,77.0,0.00,Tyndall Afb Airport
30.09,-88.77,75.2,0.00,Biloxi 22 Nm South-Southeast Of Biloxi
30.122,31.406,71.3,0.00,Cairo Intl
30.125,-93.228,77.2,0.00,Lake Charles Regional Airport
30.133,-2.167,84.2,0.00,Beni-Abbes
30.133,118.15,50.6,0.00,Huang Shan
30.152,9.715,69.4,0.00,Ghadames East
30.167,35.783,70.9,0.00,Ma'An
30.183,-97.68,74.7,0.04,Bergstrom Afb/Austi
30.2,-85.683,80.7,0.00,Panama City Bay Co
30.203,71.419,82.3,0.00,Multan Intl
30.205,-91.988,78.2,0.00,Lafayette Regional Airport
30.21,-93.143,80.6,0.00,Chennault International Ap
30.217,-81.883,71.4,0.00,Cecil Fld
30.228,120.432,58.2,0.00,Xiaoshan
30.233,-81.667,75.8,0.00,Jacksonville Nas
30.25,-88.07,74.3,0.00,Dauphin Island  Al
30.251,66.938,62.6,0.00,Quetta
30.274,56.951,73.6,0.00,Kerman
30.283,109.467,68.1,0.00,Enshi
30.321,-97.76,75.3,0.03,Austin/Mueller Muni
30.325,-9.413,66.4,0.00,Al Massira
30.333,-81.517,70.9,0.00,Jacksonville/Craig
30.333,112.183,66.4,0.00,Jiangling
30.34,-89.83,78.5,0.00,Slidell Wsfo
30.35,-95.417,76.3,0.00,Montgomery Co
30.35,-87.317,75.5,0.00,Pensacola Nas
30.371,48.228,85.5,0.00,Abadan
30.383,13.583,61.0,0.00,Gariat El-Sharghia
30.386,130.659,67.0,0.00,Yakushima
30.393,-84.353,78.5,0.00,Tallahassee Regional Airport
30.4,-89.067,76.0,0.00,Gulfport Biloxi Int
30.4,-86.471,76.7,0.00,Destin Ft. Walton
30.4,-81.417,72.0,0.02,Mayport Naf
30.4,30.35,75.2,0.00,Wadi El Natroon
30.417,-88.917,77.9,0.00,Keesler Air Force Base
30.417,-86.683,77.5,0.00,Hurlburt Field Airport
30.467,-88.533,75.0,0.00,Trent Lott Intl
30.478,-87.187,76.9,0.00,Pensacola Regional Airport
30.483,-86.517,78.0,0.00,Valparaiso/Eglin Af
30.495,-81.694,70.3,0.00,Jacksonville International Airport
30.511,-99.766,63.0,0.00,Kimble County Airport
30.537,-91.147,79.0,0.00,Baton Rouge Metro R
30.547,130.95,71.8,0.00,Tanegashima
30.571,2.86,74.2,0.00,El Golea
30.579,103.947,62.9,0.00,Shuangliu
30.589,-96.365,75.9,0.00,Easterwood Fld
30.6,32.25,68.4,0.00,Ismailia
30.617,116.967,62.5,0.00,Anqing
30.626,-88.068,75.0,0.00,Mobile Downtown Airport
30.667,51.583,61.4,0.00,Yasoge
30.683,-97.683,72.7,0.00,Georgetown Muni
30.683,107.8,68.3,0.00,Liangping
30.688,-88.246,75.9,0.00,Mobile Regional Airport
30.717,130.983,68.4,0.00,Tanegashima
30.733,-98.233,68.9,0.13,Burnet Muni Kate Cr
30.733,-95.583,76.4,0.00,Huntsville
30.733,111.367,70.9,0.00,Yichang
30.733,122.45,57.7,0.00,Shengsi
30.75,106.133,63.1,0.00,Gaoping
30.783,-86.517,76.1,0.04,Bob Sikes Airport
30.783,-83.277,72.6,0.00,Valdosta Regional Airport
30.784,114.208,64.0,0.00,Tianhe
30.907,41.138,85.6,0.00,Arar
30.917,-102.917,60.4,0.01,Fort Stockton Pecos
30.939,-6.909,75.1,0.00,Ouarzazate
30.95,88.633,40.6,0.00,Xainza
30.967,-83.2,72.2,0.00,Moody Afb/Valdosta
30.983,101.117,59.2,0.00,Dawu
31.017,109.533,70.4,0.00,Fengjie
31.033,-114.85,69.5,0.00,San Felipe  Bcn
31.033,35.467,80.0,0.00,Ghor Safi
31.05,-93.183,77.9,0.00,Polk Army Airfield
31.067,-97.833,70.7,0.00,Robert Gray Aff Airport
31.073,33.836,64.6,0.00,El Arish Intl
31.083,-97.683,72.9,0.00,Killeen Muni (Awos)
31.133,114.95,63.8,0.00,Macheng
31.15,-97.4,74.1,0.00,Draughon Miller Cen
31.15,97.167,52.6,0.00,Qamdo
31.15,118.583,60.1,0.00,Wuhuxian
31.152,-81.391,66.9,1.90,Malcolm Mc Kinnon Airport
31.167,112.633,64.3,0.00,Zhongxiang
31.183,-90.471,76.2,0.00,Mcom/Pike Co/J E Lws Fd Ap
31.183,52.667,61.2,0.00,Abadeh
31.184,29.949,69.0,0.00,Alexandria Intl
31.198,121.336,61.0,0.00,Hongqiao Intl
31.2,16.583,64.1,0.00,Sirte
31.2,107.5,69.4,0.00,Da Xian
31.236,-94.754,76.0,0.00,Angelina County Airport
31.25,-81.467,70.5,0.00,Brunswick Golden Is
31.267,-85.717,77.1,0.00,Cairns Army Airfield (Fort Rucker)
31.267,32.3,67.8,0.00,Port Said
31.267,130.3,65.9,0.00,Makurazaki
31.283,32.233,67.8,0.00,Port Said/El Gamil
31.287,34.723,65.4,0.00,Teyman
31.317,-92.55,78.7,0.00,Alexandria Int
31.317,-85.45,79.1,0.00,Dothan Rgnl
31.325,27.222,66.0,0.00,Mersa Matruh
31.352,-100.495,59.7,0.09,San Angelo Regional/Maths Field Ap
31.367,90.017,40.4,0.00,Baingoin
31.368,130.845,66.7,0.00,Kanoya
31.395,-92.291,76.3,0.00,Esler Regional Airport
31.399,-9.683,57.6,0.00,Essaouira / Mogador Intl
31.4,116.333,60.7,0.00,Huoshan
31.4,121.467,60.4,0.00,Shanghai
31.412,37.279,77.5,0.00,Guriat
31.417,-87.05,75.0,0.00,Middleton Fld
31.417,95.6,45.6,0.00,Dengqen
31.433,119.483,59.1,0.00,Liyang
31.45,104.733,62.1,0.00,Mianyang
31.458,-109.606,57.0,0.00,Bisbee Douglas Intl
31.467,-89.333,70.8,0.00,Hattiesburg Laurel
31.483,-97.317,76.3,0.00,Mc Gregor Executive
31.483,92.067,37.9,0.00,Nagqu
31.514,10.598,60.6,0.00,Nalut
31.522,74.404,89.2,0.00,Allama Iqbal Intl
31.536,-84.194,71.3,0.00,Sw Georgia Regional Arpt
31.536,-82.507,65.0,0.35,Alma/Bacon Co.
31.55,31.1,66.9,0.00,Baltim
31.55,74.333,87.8,0.00,Lahore City
31.55,130.55,68.7,0.00,Kagoshima
31.567,25.133,71.0,0.00,Sallum Plateau
31.578,-94.71,77.9,0.00,A L Mangham Jr Rgnl
31.583,105.967,62.1,0.00,Langzhong
31.583,131.4,64.2,0.00,Aburatsu
31.607,-8.036,70.3,0.00,Menara
31.617,-91.3,74.7,0.00,Natchez/Hardy(Awos)
31.617,100.0,53.3,0.00,Garze
31.619,-97.228,71.8,0.00,Waco Regional Airport
31.636,-106.429,71.7,0.00,Abraham Gonzalez Intl / Ciudad Juarez Intl
31.646,-2.27,75.7,0.00,Bechar / Boudghene Ben Ali Lotfi
31.673,6.14,72.6,0.00,Oued Irara / Krim Belkacem
31.693,38.731,74.8,0.00,Turaif
31.704,9.255,73.1,0.00,El Borma
31.723,35.993,68.0,0.00,Queen Alia Intl
31.733,98.567,54.6,0.00,Dege
31.733,131.083,65.0,0.00,Miyakonojo
31.742,118.862,59.9,0.00,Lukou
31.78,-103.202,61.2,0.00,Winkler County Airport
31.78,117.298,61.2,0.00,Luogang / Xinqiao
31.803,130.719,65.4,0.00,Kagoshima
31.811,-106.376,66.5,0.00,El Paso International Airport
31.865,35.219,64.0,0.00,Jerusalem
31.867,35.217,65.1,0.00,Jerusalem Airport
31.877,131.449,67.2,0.00,Miyazaki
31.883,-81.567,65.3,0.00,Ft Stewart/Wright
31.883,93.783,45.8,0.00,Sog Xian
31.9,102.233,56.7,0.00,Barkam
31.905,54.277,76.6,0.00,Yazd Shahid Sadooghi
31.909,70.897,84.6,0.00,D I Khan
31.917,5.413,70.7,0.00,Ouargla / Ain Beida
31.933,131.417,66.1,0.00,Miyazaki
31.948,-102.209,56.6,0.08,Midland International Airport
31.948,-4.398,73.1,0.00,Moulay Ali Cherif
31.973,35.992,70.6,0.00,Marka Intl
32.0,-75.083,65.0,0.00,S Hatteras - 250 Nm East Of Charleston
32.009,-81.146,64.6,0.38,Hunter Aaf
32.011,34.887,68.1,0.00,Ben Gurion
32.033,-96.4,73.6,0.01,C David Campbell Fld
32.033,110.767,65.2,0.00,Fangxian
32.033,130.2,61.7,0.00,Akune
32.04,12.313,58.2,0.00,Yefren
32.067,108.033,63.9,0.00,Wanyuan
32.067,121.6,58.7,0.00,Lusi
32.084,131.451,64.6,0.00,Nyutabaru
32.097,20.269,67.0,0.00,Benina Airport
32.1,23.933,74.7,0.00,Tobruk
32.1,34.783,67.9,0.00,Sde-Dov (Tel-Aviv)
32.131,-110.955,62.4,0.00,Tucson International Airport
32.131,-81.202,64.0,0.00,Savannah/Hilton Head Intl Airport
32.133,114.05,59.0,0.00,Xinyang
32.15,112.667,62.4,0.00,Zaoyang
32.161,37.149,78.7,0.00,Prince Hasan
32.167,-110.883,63.1,0.00,Davis-Monthan Afb Airport
32.167,115.617,60.0,0.00,Gushi
32.2,130.033,64.4,0.00,Ushibuka
32.217,130.75,62.5,0.00,Hitoyoshi
32.243,15.021,63.6,0.00,Misurata
32.25,-107.717,67.1,0.00,Deming Muni
32.283,-9.233,63.8,0.00,Safi
32.283,100.333,44.8,0.00,Sertar
32.297,50.842,57.1,0.00,Shahre Kord
32.3,-86.408,71.8,0.09,Montgomery Rgnl (Dannelly Fd) Ap
32.306,10.382,66.8,0.00,Remada
32.321,-90.078,71.6,0.00,Jackson International Airport
32.334,-104.258,58.9,0.20,Cavern City Air Trml Arpt
32.335,-88.744,69.7,0.03,Key Field Airport
32.35,-95.4,74.6,0.26,Tyler Pounds Rgnl
32.35,-91.033,72.0,0.00,Vicksburg\Tallulah
32.35,-85.0,69.6,0.00,Lawson Aaf Airport
32.356,36.259,70.1,0.00,King Hussein
32.367,-64.683,64.2,0.35,Naval Atlantic Meterology & Oceanography Facility
32.367,-6.4,66.9,0.00,Beni-Mellal
32.383,-86.35,73.3,0.05,Maxwell Afb Airport
32.384,3.794,70.7,0.00,Noumerat Moufdi Zakaria
32.385,-94.712,74.8,0.00,East Texas Regional Arpt
32.4,-115.183,71.8,0.00,Ejido Nuevo Leon Bc.
32.401,14.143,64.3,0.00,El Khoms
32.411,-99.682,55.3,0.05,Abilene Regional Airport
32.417,-105.993,57.9,0.00,Oro Grande - Exercise
32.417,104.517,58.8,0.00,Pingwu
32.433,111.733,67.5,0.00,Laohekou
32.447,-93.824,75.5,0.00,Shreveport Regional Airport
32.483,-80.717,61.9,0.31,Beaufort Mcas
32.5,-93.667,74.8,0.00,Barksdale Air Force Base
32.5,80.083,36.9,0.00,Shiquanhe
32.516,-92.041,70.3,0.00,Monroe Regional Airport
32.516,-84.942,70.2,0.00,Columbus Metro Airport
32.533,-6.283,70.0,0.00,Kasba-Tadla
32.539,38.195,77.9,0.00,H4
32.54,-93.745,74.8,0.00,Shreveport Downtown
32.541,-116.97,60.0,0.00,General Abelardo L Rodriguez Intl / Tijuana Intl
32.55,-88.567,69.3,0.00,Meridian Nas/Mc Cain Fd Ap
32.55,35.85,71.0,0.00,Irbid (Met)
32.555,12.056,64.7,0.00,Zuara
32.567,-116.967,57.5,0.00,Brown Fld Muni
32.583,131.65,64.6,0.00,Nobeoka
32.6,36.1,74.5,0.00,Dara'A
32.616,-85.433,68.4,0.00,Auburn Opelika Robe
32.631,-115.242,71.2,0.00,General Rodolfo Sanchez Taboada Intl / Mexicali Intl
32.633,-83.6,66.4,0.01,Robins Afb Airport
32.633,-16.9,65.1,0.00,Funchal
32.65,-114.617,67.9,0.00,Yuma Mcas
32.664,13.159,60.4,0.00,Tripoli Intl
32.666,128.833,63.3,0.00,Fukue
32.667,-114.6,67.9,0.00,Yuma Marine Corps Air Station/Yuma Intl Airport
32.667,-97.1,71.2,0.04,Arlington Muni
32.667,103.6,48.1,0.00,Songpan
32.68,-79.89,63.6,0.00,Folly Island  Sc
32.683,-96.867,70.5,0.07,Dallas Executive
32.683,-16.767,66.8,0.00,Funchal/S.Catarina
32.683,-4.733,62.2,0.00,Midelt
32.685,-83.653,66.6,0.00,Middle Georgia Regional Airport
32.693,-103.213,60.0,0.07,Lea County Regional Airport
32.7,-117.2,59.0,0.00,North Island Nas
32.7,128.833,60.9,0.00,Fukue
32.717,-96.267,74.0,0.17,Terrell Muni
32.717,109.033,65.7,0.00,Ankang
32.717,133.017,65.8,0.00,Shimizu
32.733,129.867,61.8,0.00,Nagasaki
32.733,130.267,55.3,0.00,Unzendake
32.734,-117.183,59.1,0.00,San Diego International Airport
32.751,51.862,64.0,0.00,Esfahan Shahid Beheshti Intl
32.767,-97.45,68.3,0.01,Fort Worth Naval Air Station Jrb/Carswell Field
32.767,-0.6,73.7,0.00,Ain-Sefra
32.782,-98.06,65.1,0.05,Mineral Wells Airport
32.783,22.583,75.1,0.00,Derna
32.809,35.043,68.2,0.00,Haifa
32.816,-117.14,58.0,0.00,Montgomery Fld
32.817,130.7,62.6,0.00,Kumamoto
32.819,-97.361,66.6,0.01,Fort Worth Meacham
32.833,-116.967,63.2,0.00,Gillespie Fld
32.833,-105.983,60.0,0.00,Alamogordo White Sa
32.834,-115.579,69.3,0.00,Imperial Co
32.837,130.855,63.7,0.00,Kumamoto
32.85,-109.633,61.6,0.00,Safford Rgnl
32.85,-106.1,59.6,0.06,Holloman Afb
32.85,-104.467,59.1,0.00,Artesia Muni
32.85,117.3,62.5,0.00,Bengbu
32.85,120.283,59.8,0.00,Dongtai
32.852,-96.856,72.0,0.08,Dallas Love Fld
32.867,-117.133,56.6,0.00,San Diego/Miramar N
32.867,115.733,61.4,0.00,Fuyang
32.883,131.067,50.7,0.00,Asosan
32.898,-97.019,69.9,0.02,Dallas/Ft Worth International Ap
32.898,59.266,68.3,0.00,Birjand
32.899,-80.041,62.1,0.55,Charleston Afb/International Airport
32.9,95.3,42.7,0.00,Zadoi
32.917,129.914,65.5,0.00,Nagasaki
32.917,132.7,64.2,0.00,Sukumo
32.933,73.717,84.8,0.00,Jhelum
32.933,113.917,61.0,0.00,Zhumadian
32.95,-111.767,63.7,0.00,Casa Grande Muni
32.967,-96.833,73.5,0.00,Addison
32.983,-97.317,66.6,0.14,Fort Worth Alliance
33.017,96.95,51.3,0.00,Yushu
33.023,-118.588,56.7,0.00,Nalf/F. Sherman Fld Arpt
33.039,-116.915,53.3,0.00,Ramona
33.067,107.033,56.3,0.00,Hanzhong
33.068,6.089,70.6,0.00,Sidi Mahdi / Nesrat Hachani
33.073,-16.35,64.9,0.00,Porto Santo
33.1,112.483,65.6,0.00,Nanyang
33.115,139.786,68.2,0.00,Hachijojima
33.117,139.783,65.3,0.08,Hachijojima
33.128,-117.28,57.0,0.00,Mc Clellan Palomar
33.15,130.302,64.7,0.00,Saga
33.167,129.733,61.4,0.03,Sasebo
33.183,-96.583,71.7,0.04,Collin Co Rgnl
33.183,-86.783,68.3,0.24,Birmingham
33.2,126.267,61.4,0.00,Mosulpo (Kor-Afb)
33.201,-97.198,65.3,0.10,Denton Muni
33.212,-87.616,69.4,0.23,Tuscaloosa Municipal Arpt
33.221,-92.814,67.4,0.00,S. Ar Rgnl At Gdwin Fld Ap
33.233,131.617,62.1,0.00,Oita
33.233,132.55,60.9,0.00,Uwajima
33.237,-107.268,57.9,0.00,Trh Or Conseqces Muni Arpt
33.25,126.567,63.0,0.00,Seogwipo
33.25,134.183,64.3,0.00,Murotomisaki
33.267,-111.817,72.1,0.00,Chandler Muni
33.267,130.3,59.8,0.00,Saga
33.294,126.163,60.0,0.00,Gosan
33.3,-117.35,56.3,0.00,Marine Corps Air Station
33.3,-111.667,69.3,0.00,Williams Gateway Airport
33.308,-104.508,55.3,0.38,Roswell International Air Center Ap
33.317,-84.767,63.3,0.00,Newnan Coweta Co
33.317,130.933,58.6,0.00,Hita
33.35,10.483,67.3,0.00,Medenine
33.357,-84.572,64.2,0.00,Peachtree City Falco
33.364,-81.963,63.8,0.00,Augusta Regional At Bush Field Ap
33.367,-7.59,61.6,0.00,Mohammed V
33.367,129.55,58.2,0.00,Hirado
33.4,104.917,51.6,0.00,Wudu
33.412,36.516,75.4,0.00,Damascus Intl
33.417,-112.383,72.1,0.00,Phoenix Goodyear
33.428,-112.004,67.7,0.00,Phoenix Sky Harbor Intl Airport
33.45,-88.583,68.3,0.00,Golden Triangle Rgnl
33.45,-80.867,63.3,0.01,Orangeburg Muni
33.45,135.75,65.7,0.00,Shionomisaki
33.456,-93.988,66.3,1.04,Texarkana Regional Airport-Webb Field
33.467,-105.533,45.4,0.00,Sierra Blanca Rgnl
33.467,-82.039,63.0,0.00,Daniel Field
33.479,131.737,62.9,0.00,Oita
33.483,-90.985,71.5,0.00,Mid Delta Rgnl
33.49,-77.59,62.6,0.00,Frying Pan Shoals  Nc
33.496,-90.087,67.0,0.00,Greenwood Leflore
33.511,6.777,71.1,0.00,Guemar
33.511,126.493,59.4,0.00,Jeju Intl
33.517,126.533,61.2,0.00,Jeju
33.527,-112.295,71.6,0.00,Glendale Muni
33.536,-0.242,65.2,0.00,Mecheria
33.546,133.669,68.2,0.00,Kochi
33.55,-112.367,71.3,0.00,Luke Afb Airport
33.557,-7.66,63.2,0.00,Anfa
33.566,-86.745,68.6,0.07,Birmingham International Airport
33.567,-91.717,63.1,0.00,Monticello Muni
33.567,133.55,66.6,0.00,Kochi
33.583,102.967,39.4,0.00,Ruo'Ergai
33.583,130.383,59.1,0.03,Fukuoka
33.586,130.451,59.1,0.00,Fukuoka
33.587,-85.856,65.9,0.06,Anniston Metropolitan Arpt
33.6,119.033,63.1,0.00,Qingjiang
33.617,73.099,80.6,0.00,Chaklala
33.619,-114.714,66.6,0.02,Blythe Airport
33.623,-111.911,67.0,0.00,Scottsdale
33.627,-116.159,71.1,0.00,Desert Resorts Rgnl Arpt
33.63,-84.442,63.9,0.00,Hartsfield-Jackson Atlanta Intl Ap
33.633,-95.45,73.8,0.00,Cox Fld
33.65,-88.45,70.4,1.45,Columbus Afb Airport
33.65,130.7,56.4,0.00,Iizuka
33.662,135.364,64.8,0.00,Nanki Shirahama
33.666,-101.823,52.5,0.25,Lubbock International Airport
33.68,-117.866,58.9,0.00,J. Wayne Apt-Orange Co Apt
33.683,-78.933,60.9,0.00,Myrtle Beach Intl Airport
33.685,131.04,57.3,0.00,Tsuiki
33.688,-112.083,65.9,0.00,Phoenix Deer Valley
33.717,1.083,71.2,0.00,El-Bayadh
33.72,-96.67,66.7,0.00,Sherman-Denison
33.749,129.785,61.2,0.00,Iki
33.75,-119.08,54.9,0.00,Santa Monica Basin - 33Nm West Southwest
33.75,99.65,40.9,0.00,Darlag
33.75,120.3,60.9,0.00,Sheyang
33.767,-84.517,65.4,0.00,Fulton Co Arpt Brow
33.783,-118.05,62.4,0.00,Los Alamitos Aaf
33.783,114.517,64.2,0.00,Xihua
33.783,115.733,64.8,0.00,Boxian
33.802,-118.342,59.3,0.00,Torrance Airport
33.812,-118.146,58.4,0.00,Long Beach / Daugherty Field / Airport
33.816,-78.72,65.0,0.00,Grand Strand Airport
33.817,35.85,70.6,0.00,Houche-Al-Oumara
33.821,35.488,67.8,0.00,Rafic Hariri Intl
33.827,132.7,60.4,0.00,Matsuyama
33.833,-116.5,67.1,0.00,Palm Springs Intl
33.836,130.947,60.6,0.00,Kitakyushu
33.85,132.783,61.0,0.00,Matsuyama
33.867,-117.983,58.5,0.00,Fullerton Municipal
33.867,-84.3,63.9,0.00,Dekalb Peachtree
33.867,70.083,75.4,0.00,Parachinar
33.875,10.775,65.9,0.00,Zarzis / Djerba
33.877,10.103,66.6,0.00,Gabes / Matmata
33.879,-5.515,60.7,0.00,Bassatine
