lat,lon,temp,precip,name
-90.0,0.0,-83.0,0.00,Amundsen-Scott
-89.983,0.0,-83.2,0.00,South Pole Station
-89.0,-1.017,-77.5,0.00,Henry
-89.0,89.667,-82.8,0.00,Nico
-84.6,-115.817,-16.0,0.00,Theresa
-82.617,-137.083,-17.8,0.00,Elizabeth
-82.517,-174.45,-26.8,0.00,Lettau
-81.65,-148.783,-7.9,0.00,Siple Dome
-80.37,77.37,-94.4,0.00,Dome Plateau Dome A
-79.983,-178.6,-39.5,0.00,Gill
-79.9,169.983,-13.5,0.00,Schwerdtfeger
-78.467,168.383,-13.4,0.00,Linda
-78.45,106.867,-92.7,0.00,Vostok
-77.867,-34.617,11.5,0.00,Base Belgrano Ii
-77.85,166.667,-13.0,0.00,Mcmurdo
-77.433,163.75,-9.2,0.00,Marble Point
-76.42,77.02,-62.7,0.00,Dome Plateau Eagle
-76.05,65.017,-54.9,0.00,Davis Lgb 35 Aws
-75.867,-59.15,-40.0,0.00,Univ. Wi Id 8925 (Limbert Aws)
-75.61,-26.272,1.2,0.00,Halley
-75.117,123.367,-68.9,0.00,Dome C Ii
-74.95,163.683,-16.7,0.00,Manuela
-74.017,43.05,-72.1,0.00,Relay Stat
-73.2,-127.05,15.0,0.00,Mount Siple
-72.2,-60.167,-18.5,0.00,Univ. Wi Id 8902 (Butler Island)
-71.883,171.2,-3.4,0.00,Possession Is
-71.7,-2.8,9.7,0.00,S.A.N.A.E. Aws
-71.6,111.267,-52.8,0.00,Casey (Traverse Gc41)
-71.3,59.217,-44.8,0.00,Mawson (Lgb10 Aws)
-70.9,69.867,-15.9,0.00,G3
-70.833,77.067,-24.3,0.00,Davis (Lgb 69)
-70.767,11.833,24.9,0.00,Novolazarevskaja
-70.667,-8.25,14.2,0.00,Neumayer
-69.383,76.383,-4.6,0.00,Progress
-69.0,39.583,13.8,0.00,Syowa
-68.583,77.967,-8.2,0.00,Davis
-68.5,102.183,-26.4,0.00,Casey (Traverse Gf08)
-68.4,112.217,-13.6,0.00,Ao28 Aws  South Of Law Dome
-68.117,-67.133,11.9,0.02,Base San Martin
-67.6,62.867,-1.8,0.00,Mawson
-67.567,-68.117,16.1,0.00,Rothera
-67.017,-61.467,-13.3,0.00,Univ. Wi Id 8926 (Larsen Ice Shelf)
-66.733,112.833,-3.5,0.00,Law Dome Summit
-66.7,111.5,6.1,0.00,Casey (Upper Peterson Runway)
-66.667,140.017,9.7,0.00,Dumont D'Urville
-66.583,110.7,15.8,0.00,Haupt Nunatak
-66.55,93.017,2.4,0.00,Mirnyj
-66.55,107.75,14.2,0.00,Snyder Rocks
-66.283,110.533,17.7,0.00,Casey
-66.283,110.8,11.7,0.00,Casey Skiway
-65.85,113.067,13.4,0.00,Cape Poinsett
-64.766,-64.083,23.8,0.00,Palmer Station
-64.233,-56.717,1.2,0.08,Base Marambio (Centro Met. Antartico)
-64.067,-61.617,-14.9,0.00,Univ. Wi Id 8947 (Racer Rock)
-63.4,-56.983,13.8,0.00,Base Esperanza
-63.317,-56.683,22.2,0.00,Base Bernardo O'Higgins
-62.233,-58.633,27.5,0.00,Base Carlini
-62.217,-58.967,27.0,0.00,Great Wall
-62.217,-58.75,27.1,0.00,King Sejong
-62.183,-58.983,27.2,0.08,Centro Met. Antartico Pdte. Eduardo Frei
-62.183,-58.883,27.3,0.04,Bellingshausen Aws
-62.183,-58.85,26.8,0.00,Dinamet-Uruguay
-60.733,-44.733,21.7,0.20,Base Orcadas
-59.45,-27.317,30.6,0.00,South Thule Is.
-54.843,-68.296,49.7,0.00,Ushuaia Malvinas Argentinas
-54.499,158.937,43.2,0.08,Macquarie Island
-54.433,3.283,32.3,0.00,Bouvet Island
-53.778,-67.749,50.9,0.00,Rio Grande
-53.1,73.717,39.2,0.00,Heard Island (The Spit)
-53.017,73.4,35.9,0.00,Heard Island (Atlas Cove)
-53.003,-70.855,47.5,0.00,Carlos Ibanez Del Campo Intl
-52.55,169.15,47.8,0.02,Cambell Island Aws
-52.433,-59.083,46.3,0.00,Sea Lion Island
-51.9,-60.917,47.3,0.00,Weddell Island
-51.823,-58.447,44.3,0.00,Mount Pleasant
-51.609,-69.313,44.3,0.00,Rio Gallegos
-51.317,-59.6,47.5,0.00,Pebble Island
-50.483,166.3,48.7,0.00,Enderby Island Aws
-50.267,-72.05,39.2,0.00,El Calafate Aero
-49.35,70.25,42.3,0.00,Port-Aux-Francais (Iles Kerguelen)
-49.307,-67.803,50.0,0.00,San Julian
-47.735,-65.904,55.0,0.00,Puerto Deseado
-47.267,167.45,49.9,0.03,South West Cape Aws
-46.875,37.86,39.3,0.28,Marion Island
-46.433,51.85,46.1,0.04,Alfred Faure (Iles Crozet)
-46.417,168.333,45.6,0.02,Invercargill Airport Aws
-46.15,166.6,52.4,0.00,Puysegur Point Aws
-45.917,170.183,42.2,0.04,Dunedin Aerodrome Aws
-45.916,-71.689,41.7,0.00,Balmaceda
-45.785,-67.466,52.6,0.00,Comodoro Rivadavia
-45.217,166.883,51.6,0.00,Secretary Island Aws
-45.017,168.733,40.1,0.00,Queenstown Aerodrome
-44.3,171.233,41.4,0.00,Timaru Aerodrome Aws
-43.95,-176.567,46.5,0.28,Chatham Islands Aws
-43.867,169.0,46.1,0.00,Haast Aws
-43.65,146.267,54.5,0.03,Maatsuyker Island Lighthouse
-43.5,147.15,57.3,0.00,Cape Bruny Lighthouse
-43.489,172.532,39.0,0.00,Christchurch Intl
-43.483,147.15,56.9,0.00,Cape Bruny (Cape Bruny)
-43.483,172.517,38.5,0.00,Christchurch Aero Aws
-43.233,148.0,55.3,0.00,Tasman Island
-43.211,-65.27,41.7,0.00,Almirante Zar
-43.2,146.767,45.0,0.04,Hartz Mountains
-43.067,146.7,50.9,0.04,Warra
-43.05,146.267,50.5,0.09,Scotts Peak Dam
-42.983,145.5,57.3,0.00,Low Rocky Point (Aws)
-42.983,147.067,52.1,0.00,Grove (Research Station)
-42.908,-71.139,37.6,0.00,Esquel
-42.9,147.233,40.4,0.00,Mt Wellington
-42.883,147.333,55.5,0.00,Hobart (Ellerslie Road)
-42.836,147.51,56.6,0.00,Hobart
-42.759,-65.103,50.6,0.00,El Tehuelche
-42.717,146.9,52.5,0.00,Bushy Park (Bushy Park Estates)
-42.717,170.983,44.8,0.00,Hokitika Aerodrome Aws
-42.683,147.417,52.9,0.00,Campania (Kinkora)
-42.667,148.017,57.1,0.01,Maria Island (Point Lesueur)
-42.483,146.717,53.4,0.00,Ouse Fire Station
-42.45,147.467,50.2,0.00,Tunnak Fire Station
-42.417,173.7,46.3,0.28,Kaikoura
-42.199,145.17,56.7,0.00,Cape Sorell
-42.15,145.283,55.6,0.21,Strahan Aerodrome
-42.0,148.283,55.1,0.00,Friendly Beaches
-41.9,146.667,43.2,0.00,Liawenee Aws
-41.85,145.533,43.0,0.60,Mount Read
-41.733,147.083,49.1,0.00,Cressy Research Station
-41.733,171.567,45.2,0.00,Westport Aerodrome
-41.717,174.267,48.4,0.21,Cape Campbell Aws
-41.633,147.967,46.7,0.02,Fingal (Legge Street)
-41.55,147.217,51.3,0.00,Launceston Airport
-41.545,147.214,51.3,0.01,Launceston
-41.439,-73.094,44.8,0.00,El Tepual Intl
-41.417,147.117,51.3,0.00,Launceston (Ti Tree Bend)
-41.383,146.317,52.0,0.01,Sheffield School Farm
-41.333,148.267,53.6,0.00,St Helens Aerodrome
-41.333,174.8,48.5,0.57,Wellington Aero Aws
-41.327,174.805,49.5,0.00,Wellington Intl
-41.3,173.2,48.5,0.00,Nelson Aerodrome Aws
-41.25,-68.733,37.7,0.00,Maquinchao
-41.167,146.417,55.9,0.00,Devonport Airport
-41.167,147.483,51.7,0.00,Scottsdale ( West Minstone Road)
-41.151,-71.158,39.3,0.00,San Carlos De Bariloche
-41.15,145.15,52.1,0.04,Luncheron Hill Forestry
-41.05,146.783,59.2,0.00,Low Head
-41.0,145.733,53.9,0.00,Wynyard Airport
-41.0,148.35,57.0,0.00,Larapuna (Eddystone Point)
-40.917,144.7,57.0,0.03,Marrawah
-40.9,174.983,45.1,0.40,Paraparaumu Aws
-40.9,176.2,46.0,0.53,Castlepoint
-40.869,-63.0,45.4,0.03,Gobernador Castello
-40.833,145.083,52.3,0.02,Smithton Aerodrome
-40.783,-65.1,41.6,0.00,San Antonio Oeste Aero
-40.717,148.117,58.7,0.00,Swan Island Aws
-40.667,144.683,57.6,0.00,Cape Grim Baps
-40.611,-73.061,54.4,0.00,Canal Bajo Carlos Hott Siebert
-40.6,-73.05,52.7,0.00,Osorno
-40.55,173.0,49.7,0.00,Farewell Spit Aws
-40.35,-9.883,58.0,1.06,Gough Island
-40.317,175.6,44.1,0.07,Palmerston North Aws
-40.1,148.0,59.8,0.00,Flinders Island Airport
-40.075,-71.137,44.4,0.00,Aviador C Campos
-39.883,143.883,57.3,0.01,King Island Airport
-39.467,175.683,36.4,0.06,Waiouru Aws
-39.467,176.867,47.7,0.35,Napier Aerodrome Aws
-39.217,146.983,59.2,0.00,Hogan Island
-39.117,146.417,58.5,0.00,Wilsons Promontory Lighthouse
-39.017,174.183,46.3,0.01,New Plymouth Aws
-38.949,-68.156,42.7,0.00,Presidente Peron
-38.85,143.517,55.4,0.00,Cape Otway Lighthouse
-38.767,-72.637,50.6,0.00,Maquehue
-38.733,176.067,45.8,0.01,Taupo Aws
-38.725,-62.169,45.0,0.08,Comandante Espora
-38.663,177.978,46.8,0.64,Gisborne
-38.45,144.1,54.6,0.00,Aireys Inlet
-38.45,145.3,58.0,0.00,Rhyll (Aws)
-38.433,141.55,54.3,0.00,Cape Nelson Lighthouse
-38.4,142.233,53.6,0.00,Port Fairy Aws
-38.387,-60.33,47.7,0.01,Tres Arroyos
-38.35,145.167,52.2,0.00,Cerberus Aws
-38.317,141.467,50.8,0.00,Portland Cashmore Airport
-38.283,142.45,50.3,0.00,Warrnambool Airport Ndb
-38.233,143.783,53.6,0.00,Mt Gellibrand
-38.217,146.467,58.9,0.00,Latrobe Valley Airport
-38.167,144.367,53.9,0.00,Geelong Racecourse
-38.15,145.117,56.8,0.00,Frankston Aws
-38.1,144.533,58.7,0.00,Point Wilson
-38.099,147.149,62.1,0.00,East Sale
-38.067,142.767,48.2,0.01,Mortlake Racecourse
-38.039,144.469,54.8,0.00,Avalon
-38.033,144.467,54.4,0.00,Avalon  Airport
-37.976,145.102,55.9,0.00,Melbourne Moorabbin
-37.934,-57.573,50.8,0.00,Mar Del Plata
-37.9,144.117,53.7,0.00,Sheoaks Aws
-37.883,147.567,61.2,0.00,Bairnsdale Airport
-37.867,144.75,59.0,0.00,Laverton Raaf
-37.867,145.25,57.2,0.00,Scoresby Research Institute
-37.867,145.333,51.9,0.00,Ferny Creek
-37.833,146.267,50.0,0.00,Mt Baw Baw
-37.817,144.967,60.6,0.00,Melbourne Regional Office
-37.8,77.533,55.6,0.00,Martin De Vivies (Ile Amsterdam)
-37.75,147.133,57.0,0.00,Mt Moornapa
-37.733,140.783,51.1,0.00,Mount Gambier Aero
-37.733,144.9,58.3,0.00,Essendon Airport
-37.733,145.1,58.0,0.00,Viewbank (Arpnsa)
-37.728,144.902,57.7,0.00,Melbourne Essendon
-37.7,148.083,58.8,0.00,Mt Nowa Nowa
-37.683,148.467,61.9,0.00,Orbost
-37.673,144.843,59.0,0.00,Melbourne Intl
-37.672,176.196,48.5,0.00,Tauranga
-37.65,142.067,52.1,0.00,Hamilton Airport
-37.6,149.733,63.4,0.00,Mallacoota
-37.567,149.9,64.3,0.00,Gabo Island Lighthouse
-37.55,178.3,46.4,0.20,Hicks Bay Aws
-37.517,143.783,55.2,0.00,Ballarat Aerodrome
-37.383,144.967,53.8,0.00,Kilmore Gap
-37.333,149.017,57.9,0.06,Combienbar
-37.3,140.817,49.7,0.00,Coonawarra
-37.237,-59.228,41.5,0.00,Tandil
-37.233,143.2,49.4,0.00,Ben Nevis
-37.217,145.833,60.2,0.00,Eildon Fire Tower
-37.217,148.267,58.2,0.00,Gelantipy
-37.183,139.8,49.9,0.00,Robe Airfield
-37.15,146.433,51.4,0.00,Mount Buller Aws
-37.117,141.8,54.8,0.00,Kanagulk
-37.1,147.6,60.7,0.00,Omeo
-37.067,142.733,57.1,0.00,Stawell Aerodrome
-37.05,-12.317,71.7,0.00,Tristan Da Cunha
-37.05,147.333,53.7,0.00,Mt Hotham Airport
-37.017,144.533,60.9,0.00,Redesdale
-37.008,174.792,51.0,0.00,Auckland Intl
-37.0,149.233,59.3,0.08,Bombala Aws
-37.0,174.8,51.0,0.00,Auckland Aero Aws
-36.983,140.733,50.8,0.00,Naracoorte Aerodrome
-36.967,139.717,54.1,0.00,The Limestone
-36.967,147.133,49.1,0.00,Mount Hotham
-36.917,149.9,63.8,0.03,Merimbula Airport
-36.883,145.183,62.8,0.00,Mangalore Airport
-36.867,147.267,51.1,0.00,Falls Creek Aws
-36.833,-59.883,43.2,0.00,Azul Aero
-36.773,-73.063,58.8,0.00,Carriel Sur Intl
-36.733,144.317,63.3,0.00,Bendigo Airport Aws
-36.667,142.167,56.3,0.00,Horsham Aerodrome
-36.667,142.3,56.7,0.00,Longerenong
-36.667,149.817,64.8,0.00,Bega Aws
-36.65,140.517,52.3,0.00,Padthaway South
-36.588,-64.276,44.3,0.00,Santa Rosa
-36.5,148.283,48.3,0.00,Thredbo Aws
-36.433,145.267,63.6,0.00,Tatura Inst Sustainable Ag
-36.433,145.4,64.7,0.00,Shepparton Airport
-36.417,146.3,61.4,0.00,Wangaratta Aero
-36.416,146.307,61.4,0.00,Wangaratta
-36.35,-57.733,44.7,0.00,Dolores Airport
-36.333,145.067,64.9,0.00,Kyabram (Inst Sustainable Ag)
-36.317,141.633,55.0,0.01,Nhill Aerodrome
-36.3,148.967,54.2,0.00,Cooma Airport Aws
-36.283,143.35,63.3,0.00,Charlton
-36.25,150.217,66.7,0.00,Montague Island Lighhouse
-36.233,148.133,59.6,0.00,Khancoban
-36.217,147.533,61.9,0.00,Hunters Hill
-36.2,-61.067,47.7,0.00,Bolivar Aero
-36.1,140.317,50.7,0.00,Munkora
-36.1,146.5,62.8,0.00,Rutherglen Research
-36.067,-59.1,50.2,0.00,Las Flores
-36.067,146.95,64.2,0.00,Albury Aeroport
-36.017,146.033,64.4,0.00,Yarrawonga
-35.933,148.383,55.5,0.00,Cabramurra Smhea
-35.917,150.15,66.3,0.16,Moruya Heads Pilot Station
-35.9,150.15,65.6,0.12,Moruya Airport
-35.9,175.1,55.2,0.00,Mokohinau Aws
-35.85,138.133,59.7,0.00,Cape Willoughby
-35.75,136.583,58.7,0.00,Cape Borda
-35.75,136.6,54.8,0.00,Cape Borda Aws
-35.717,137.517,52.1,0.00,Kingstone Aero
-35.717,142.35,59.9,0.00,Hopetoun Airport
-35.567,138.283,52.5,0.02,Second Valley Forest
-35.567,144.95,65.1,0.00,Deniliquin Airport Aws
-35.517,138.817,57.4,0.00,Hindmarsh Island Aws
-35.494,-69.574,31.8,0.04,Malargue
-35.433,149.783,56.7,0.01,Braidwood Racecourse Aws
-35.417,149.1,57.5,0.00,Tuggeranong Isabella Plains
-35.383,143.533,65.3,0.00,Swan Hill Aerodrome
-35.378,140.538,55.1,0.00,Austin Plains
-35.35,150.483,66.6,0.00,Ulladulla Aws
-35.333,136.117,61.0,0.00,Neptune Island
-35.307,149.195,59.5,0.00,Canberra
-35.283,136.933,60.6,0.00,Stenhouse Bay
-35.283,138.9,56.1,0.00,Strathalbyn Racecourse
-35.167,138.5,59.7,0.00,Noarlunga
-35.167,138.667,53.7,0.00,Kuitpo Forest Reserve
-35.165,147.466,68.8,0.00,Wagga Wagga
-35.117,137.733,60.5,0.00,Edithburgh Aws
-35.117,142.0,59.8,0.00,Walpeup Research
-35.117,174.017,52.4,0.00,Purerua
-35.083,150.8,68.2,0.00,Pt Perpendicular Aws
-34.972,-57.895,46.6,0.04,La Plata
-34.967,138.7,54.7,0.00,Mount Lofty
-34.95,116.717,57.6,0.00,North Walpole
-34.949,150.537,65.4,0.00,Nowra
-34.945,138.531,58.3,0.00,Adelaide Intl
-34.941,117.802,55.8,0.00,Albany Airport
-34.917,138.617,60.8,0.00,Kent Town
-34.867,-55.1,54.3,0.12,Laguna Del Sauce
-34.855,-55.094,55.0,0.00,Capitan Corbeta C A Curbelo Intl
-34.838,-56.031,54.0,0.08,Carrasco Intl
-34.822,-58.536,46.4,0.04,Ministro Pistarini
-34.817,149.733,60.4,0.00,Goulburn Airport Aws
-34.8,20.067,59.4,0.00,Struisbaai
-34.793,138.633,61.5,0.00,Adelaide Parafield
-34.789,-56.265,54.7,0.08,Angel S Adami
-34.75,137.517,58.1,0.00,Minlaton Aero
-34.733,138.933,54.0,0.01,Mt Crawford Aws
-34.703,138.621,60.0,0.00,Edinburgh
-34.65,150.85,69.4,0.00,Kiama (Bombo Headland)
-34.617,146.433,72.5,0.00,Yanco Agricultural Institute
-34.61,-58.613,49.4,0.00,El Palomar
-34.605,135.88,75.7,0.00,Port Lincoln
-34.6,135.883,61.6,0.00,Port Lincoln Aero
-34.588,-68.403,41.6,0.16,San Rafael
-34.583,116.35,53.7,0.00,Shannon
-34.567,117.017,55.0,0.00,Rocky Gully
-34.567,150.783,64.4,0.00,Wollongong Airport
-34.559,-58.416,50.1,0.08,Aeroparque Jorge Newbery
-34.546,-60.931,47.1,0.00,Junin
-34.533,144.867,69.1,0.00,Hay Aws
-34.517,138.683,58.5,0.00,Roseworthy Ag College
-34.517,150.417,59.1,0.00,Moss Vale Aws
-34.501,-58.604,50.5,0.00,Don Torcuato
-34.483,-54.3,53.8,0.00,Rocha
-34.483,139.0,58.8,0.00,Nuriootpa Viticultural
-34.456,-57.771,54.6,0.20,Laguna De Los Patos Intl
-34.453,-58.59,50.6,0.00,San Fernando
-34.433,19.217,62.2,0.00,Hermanus
-34.433,140.6,59.3,0.00,Loxton Research Centre
-34.433,147.517,68.5,0.00,Temora Airport
-34.433,172.683,55.6,0.00,Cape Reinga Aws
-34.383,135.367,59.9,0.00,Coles Point
-34.383,137.667,60.3,0.00,Maitland
-34.383,150.933,69.1,0.00,Bellambi Aws
-34.367,115.133,62.9,0.00,Cape Leeuwin
-34.25,116.15,54.7,0.01,Manjimup
-34.25,146.067,69.9,0.00,Griffith Airport Aws
-34.25,148.25,61.1,0.00,Young Airport
-34.2,140.683,61.2,0.00,Renmark Aero
-34.183,22.15,62.0,0.00,Mossel Bay (Lgt-H)
-34.183,139.083,58.1,0.00,Eudunda
-34.139,19.023,57.6,0.00,Elgin Exp Farm
-34.135,-63.362,44.6,0.00,Laboulaye
-34.083,-56.233,50.5,0.47,Florida
-34.05,23.083,59.0,0.00,Knysna
-34.04,150.687,62.6,0.00,Camden
-34.033,115.1,55.7,0.00,Witchcliffe
-34.006,22.379,57.4,0.00,George
-33.985,25.617,61.5,0.00,Port Elizabeth Intl / Chief Dawid Stuurman Intl
-33.983,150.917,63.0,0.00,Holsworthy Control Range
-33.965,18.602,60.2,0.01,Cape Town Intl
-33.95,116.133,51.6,0.00,Bridgetown
-33.946,151.177,68.5,0.00,Sydney Intl
-33.933,120.133,65.8,0.00,Hopetown North
-33.933,147.2,70.8,0.00,West Wyalong Airport Aws
-33.924,150.988,64.2,0.00,Sydney Bankstown
-33.9,18.433,62.9,0.00,Cape Town - Portnet
-33.9,150.733,63.5,0.00,Badgery'S Creek Airport
-33.9,151.117,64.2,0.00,Canterbury Racecourse
-33.883,119.1,61.8,0.01,Jacup
-33.85,148.65,64.1,0.00,Cowra Airport Aws
-33.85,150.85,64.8,0.00,Horsley Equestrian Centre
-33.85,151.2,67.8,0.00,Sydney (Observatory Hill)
-33.833,121.893,64.7,0.00,Esperance
-33.833,151.067,67.0,0.00,Sydney Olympic Park Aws (Archery Centre)
-33.83,151.267,68.5,0.00,Wedding Cake West
-33.817,138.6,59.4,0.00,Clare High School
-33.783,138.217,60.3,0.00,Rayville Park
-33.767,24.817,57.2,0.00,Patensie
-33.73,-65.387,41.5,0.00,Villa Reynolds
-33.717,136.5,60.5,0.00,Cleve Aerodrome
-33.717,150.283,61.4,0.00,Katoomba (Narrow Neck Rd)
-33.717,150.683,64.9,0.00,Penrith
-33.683,115.4,56.7,0.00,Busselton Aero
-33.683,117.6,59.4,0.00,Katanning
-33.683,121.833,64.8,0.00,Esperance Aero
-33.683,151.233,66.2,0.00,Terrey Hills Aws
-33.65,-71.617,57.3,0.00,Santo Domingo
-33.65,115.317,57.5,0.00,Busselton
-33.65,134.883,60.2,0.00,Elliston
-33.633,-78.833,59.8,0.00,Juan Fernandez
-33.617,19.467,58.5,0.00,Worcester
-33.617,150.267,60.8,0.01,Mount Boyce
-33.601,150.781,62.0,0.00,Richmond
-33.6,150.783,62.0,0.01,Richmond Raaf
-33.55,120.7,63.8,0.01,Munglinup West
-33.533,115.017,59.8,0.00,Cape Naturaliste
-33.493,-70.698,65.2,0.00,Los Cerrillos
-33.467,18.717,57.9,0.00,Malmesbury
-33.417,149.65,57.2,0.00,Bathurst Airport Aws
-33.4,151.333,62.4,0.00,Gosford (Narara Research Station)
-33.393,-70.786,59.3,0.00,Arturo Merino Benitez Intl
-33.383,149.133,56.8,0.00,Orange Airport
-33.367,116.167,53.4,0.00,Collie East
-33.367,147.917,67.7,0.00,Forbes Airport
-33.359,-56.499,52.7,0.00,Santa Bernardina Intl
-33.35,115.65,57.3,0.02,Bunbury
-33.283,26.5,54.2,0.00,Grahamstown
-33.283,151.217,63.0,0.00,Mangrove Mountain Aws
-33.273,-66.356,45.9,0.02,San Luis
-33.267,151.567,67.3,0.00,Norah Head Lighthouse
-33.25,-58.067,49.2,0.12,Mercedes/Ricardo De
-33.217,-54.383,54.8,0.03,Treinta Y Tres
-33.2,20.867,54.8,0.00,Laingsburg
-33.133,135.55,62.0,0.00,Kyancutta
-33.133,148.167,70.2,0.00,Parkes (Macarthur Street)
-33.133,148.233,65.2,0.00,Parkes Airport
-33.117,118.833,65.2,0.00,Newdegate Res. Station
-33.1,118.467,64.8,0.00,Lake Grace
-33.085,-64.261,44.7,0.00,Rio Cuarto Area De Material
-33.083,-68.417,43.9,0.04,San Martin
-33.067,147.217,69.1,0.00,Condobolin Airport
-33.059,137.514,64.1,0.00,Whyalla
-33.05,135.45,65.4,0.00,Wudinna Aero
-33.036,27.826,61.0,0.00,East London / King Phalo
-33.033,-71.633,59.4,0.00,Punta Angeles
-33.013,18.977,58.8,0.00,Porterville
-33.01,-58.613,48.6,0.12,Gualeguaychu
-32.983,121.617,64.6,0.00,Salmon Gums Res. Stn
-32.969,18.16,59.5,0.00,Langebaanweg Afb
-32.917,151.783,65.9,0.00,Newcastle Nobbys Signal Station
-32.904,-60.785,46.3,0.12,Rosario
-32.897,27.279,55.7,0.00,Bhisho
-32.883,144.317,74.9,0.00,Ivanhoe Aerodrome Aws
-32.85,135.15,65.7,0.00,Minnipa Dpi
-32.832,-68.793,42.9,0.08,El Plumerillo
-32.8,-56.517,50.2,0.00,Paso De Los Toros
-32.795,151.834,61.3,0.00,Williamtown
-32.783,26.633,55.7,0.00,Fort Beaufort
-32.783,151.333,59.7,0.01,Cessnock Airport
-32.733,150.233,58.0,0.00,Nullo Mountain Aws
-32.717,116.05,56.0,0.00,Dwellingup
-32.684,-62.158,44.5,0.00,Marcos Juarez
-32.683,-57.633,51.7,0.00,Young
-32.667,116.667,57.7,0.00,Wandering
-32.633,151.583,61.8,0.00,Tocal Aws
-32.567,139.567,67.1,0.00,Yunta Airstrip
-32.567,149.617,58.9,0.00,Mudgee Airport Aws
-32.517,115.717,62.9,0.01,Mandurah
-32.517,137.717,68.0,0.00,Port Augusta Arid Lands
-32.385,-65.187,45.5,0.00,Valle Del Conlara
-32.365,-58.061,51.8,0.03,Tydeo Larre Borges Intl
-32.35,22.55,54.1,0.00,Beaufort West
-32.338,-54.217,53.0,0.00,Cerro Largo
-32.333,117.867,63.4,0.00,Corrigin
-32.233,115.683,63.9,0.00,Garden Island Hsf
-32.217,121.75,69.9,0.00,Norseman Aero
-32.217,148.567,63.0,0.00,Dubbo Airport Aws
-32.217,148.575,63.1,0.00,Dubbo
-32.2,24.55,51.3,0.00,Graaff-Reinet
-32.2,127.533,65.5,0.01,Red Rocks Point
-32.133,133.7,60.1,0.00,Ceduna Amo
-32.1,115.883,58.6,0.00,Jandakot Aero
-32.033,18.333,57.9,0.00,Lamberts Bay
-32.033,150.833,60.1,0.00,Scone Airport
-32.017,115.5,64.7,0.00,Rottnest Island
-32.017,116.133,59.8,0.00,Kalamunda Bickley
-32.0,141.467,72.0,0.00,Broken Hill Airport Aws
-31.983,147.95,65.7,0.00,Trangie Research Station
-31.95,115.767,61.8,0.00,Swanbourne
-31.945,-65.146,43.4,0.00,Villa Dolores
-31.94,115.967,59.4,0.00,Perth Intl
-31.917,26.883,49.0,0.00,Queenstown
-31.917,115.867,61.6,0.00,Perth Metro
-31.889,152.514,62.4,0.00,Taree
-31.883,152.517,61.9,0.00,Taree Airport Aws
-31.795,-60.48,47.1,0.08,General Urquiza
-31.749,-55.926,56.3,0.00,Tacuarembo
-31.733,150.8,63.1,0.00,Murrurundi Gap Aws
-31.718,-52.328,59.4,0.00,Pelotas / Joao Simoes Lopes Neto
-31.712,-60.812,49.2,0.08,Sauce Viejo
-31.68,128.879,64.6,0.00,Eucla
-31.668,116.015,59.5,0.00,Pearce
-31.667,-63.883,45.2,0.00,Pilar Observatorio
-31.617,117.217,65.5,0.00,Cunderdin Airfield
-31.571,-68.418,44.8,0.00,San Juan
-31.548,28.674,57.8,0.00,Mthatha
-31.542,159.079,69.4,0.10,Lord Howe Island Aero
-31.533,145.8,71.7,0.00,Cobar Airport Aws
-31.517,143.383,73.2,0.00,Wilcannia Aerodrome Aws
-31.5,19.726,50.5,0.00,Calvinia
-31.483,145.833,73.2,0.00,Cobar Mo
-31.467,115.867,58.7,0.00,Gingin Aero
-31.45,130.9,64.3,0.00,Nullarbor
-31.433,-57.983,50.6,0.16,Nueva Hesperides Intl
-31.433,152.85,63.6,0.00,Port Macquarie Airport Aws
-31.391,-54.112,61.5,0.00,Comandante Gustavo Kraemer
-31.324,-64.208,46.1,0.00,Ambrosio L V Taravella
-31.317,149.267,66.7,0.00,Coonabarabran Airport Aws
-31.297,-57.997,50.6,0.24,Comodoro Pierrestegui
-31.233,119.35,70.4,0.00,Southern Cross Airfield
-31.183,24.95,51.2,0.00,Noupoort
-31.144,136.817,74.1,0.00,Woomera
-31.083,141.7,75.0,0.00,Fowlers Gap Aws
-31.067,30.233,66.7,0.15,Port Edward
-31.067,150.833,62.4,0.00,Tamworth Airport Aws
-31.067,152.767,63.8,0.00,Kempsey Airport Aws
-31.017,115.317,62.3,0.00,Lancelin
-30.983,148.383,68.6,0.00,Coonamble Airport
-30.975,-55.476,51.4,0.12,Presidente General Don Oscar D Gestido
-30.95,150.25,63.9,0.00,Gunnedah Airport Aws
-30.85,30.333,65.5,0.00,Margate
-30.833,128.117,66.3,0.00,Forrest
-30.789,121.462,72.6,0.00,Kalgoorlie Boulder
-30.717,134.583,74.6,0.00,Tarcoola
-30.667,24.017,54.9,0.00,Deaar(Ua)
-30.533,151.617,54.5,0.00,Armidale Airport Aws
-30.483,136.883,73.4,0.00,Olympic Dam Aerodrome
-30.467,20.483,52.1,0.00,Brandvlei
-30.401,-56.508,52.5,0.00,Artigas Intl
-30.367,-66.283,46.0,0.08,Chamical Aero
-30.333,115.533,64.6,0.00,Badgingarra Research Stn
-30.321,153.116,64.9,0.00,Coffs Harbour
-30.317,149.817,68.0,0.00,Narrabri Airport Aws
-30.3,115.033,62.0,0.00,Jurien Bay
-30.283,116.667,67.4,0.00,Dalwallinu
-30.272,-57.64,52.9,0.00,Monte Caseros
-30.267,-57.583,52.9,0.00,Bella Union
-30.2,17.283,59.0,0.00,Koingnaas
-30.15,30.067,56.4,0.01,Ixopo
-30.033,145.95,72.1,0.00,Bourke Airport Aws
-30.033,148.117,69.0,0.00,Walgett Airport
-29.994,-51.171,59.5,0.00,Salgado Filho
-29.97,30.951,67.6,0.00,Durban Intl
-29.916,-71.2,58.1,0.00,La Florida
-29.9,-63.683,48.2,0.16,Villa Maria Del Rio
-29.883,-61.95,48.6,0.16,Ceres
-29.783,151.083,62.6,0.00,Inverell Research Centre
-29.782,-57.038,53.9,0.00,Rubem Berta
-29.7,31.05,65.9,0.00,Mount Edgecombe
-29.689,-57.152,53.3,0.02,Paso De Los Libres
-29.689,17.94,52.8,0.00,Springbok
-29.683,151.7,55.7,0.01,Glen Innes Airport
-29.667,22.733,58.6,0.00,Prieska
-29.667,138.067,76.4,0.00,Marree Aero
-29.633,30.4,62.2,0.00,Pietermaritzburg
-29.617,152.967,66.0,0.00,Grafton Research Stn
-29.491,149.846,67.9,0.00,Moree Aero
-29.451,142.058,76.8,0.00,Tibooburra
-29.382,-66.796,45.6,0.16,La Rioja
-29.267,29.517,48.2,0.00,Giants Castle
-29.267,117.683,76.5,0.00,Paynes Find
-29.25,-177.933,65.2,0.01,Raoul Island Aws
-29.21,-59.68,51.7,0.00,Reconquista
-29.2,116.017,70.5,0.00,Morawa Airport
-29.183,-59.7,52.1,0.55,Reconquista Aero
-29.183,153.4,67.2,0.00,Evans Head Raaf Bombing Range
-29.093,26.302,56.4,0.00,Bloemfontein Intl / Bram Fischer Intl
-29.083,30.6,56.7,0.00,Greytown
-29.042,167.939,64.8,0.00,Norfolk Island Intl
-29.033,134.717,77.3,0.00,Coober Pedy Airport
-28.95,31.7,68.5,0.00,Mtunzini
-28.883,121.333,74.3,0.00,Leonora
-28.883,153.05,64.4,0.00,Casino Airport Aws
-28.833,153.26,63.4,0.00,Lismore Airport Aws
-28.833,153.55,65.3,0.00,Ballina Airport Aws
-28.817,27.9,52.9,0.00,Ficksburg
-28.803,24.765,51.3,0.00,Kimberley
-28.796,114.708,66.0,0.00,Geraldton
-28.705,121.891,65.5,0.00,Murrin Murrin
-28.633,153.633,68.1,0.00,Cape Byron Aws
-28.617,122.417,74.1,0.00,Laverton Aero
-28.596,-65.752,46.0,0.75,Catamarca
-28.575,16.533,59.3,0.00,Alexander Bay
-28.567,29.767,59.0,0.02,Ladysmith
-28.517,150.317,68.1,0.00,Goondiwindi Airport
-28.399,21.26,54.7,0.00,Upington
-28.367,29.383,52.8,0.00,Van Reenen
-28.35,150.95,67.5,0.00,Iglevood Forest
-28.333,23.067,48.9,0.00,Postmasburg
-28.248,28.336,52.0,0.00,Bethlehem
-28.2,32.417,71.0,0.00,Charters Creek
-28.2,152.1,65.1,0.00,Warwick
-28.164,153.505,69.0,0.13,Gold Coast
-28.117,117.833,80.2,0.00,Mount Magnet Aero
-28.05,148.6,69.1,0.00,St George Airport
-28.0,26.667,55.7,0.00,Welkom
-27.986,143.811,77.8,0.00,Thargomindah
-27.933,153.433,70.5,0.09,Gold Coast Seaway
-27.85,120.7,81.4,0.00,Leinster Aero
-27.783,30.8,56.3,0.00,Vryheid
-27.767,29.983,58.9,0.00,Newcastle
-27.766,-64.31,51.1,0.00,Santiago Del Estero
-27.717,114.167,73.4,0.00,Kalbarri
-27.67,-48.547,70.0,0.00,Hercilio Luz
-27.65,25.617,53.9,0.00,Bloemhof
-27.641,152.712,68.2,0.00,Amberley
-27.617,-144.333,71.7,0.00,Rapa
-27.57,153.008,68.7,0.00,Brisbane Archerfield
-27.55,24.767,54.9,0.00,Taung
-27.55,135.45,77.5,0.00,Oodnadatta Airport
-27.55,151.917,65.3,0.00,Toowoomba Airport
-27.55,152.333,69.9,0.00,University Of Queensland Gatton
-27.483,153.033,69.8,0.00,Brisbane
-27.45,-59.056,55.0,1.10,Resistencia
-27.446,-58.762,54.9,0.10,Corrientes
-27.417,31.6,68.0,0.02,Pongola
-27.417,141.817,78.8,0.00,Ballera Gas Field
-27.417,153.067,68.9,0.00,Brisbane Airport
-27.411,151.735,66.3,0.00,Oakey
-27.386,-55.971,57.5,1.46,Posadas
-27.317,-55.833,58.5,1.61,Encarnacion
-27.217,153.1,69.9,0.00,Redcliffe
-27.165,-109.422,68.7,0.00,Mataveri Intl
-27.033,153.467,72.7,0.00,Cape Moreton Lighthouse Aws
-27.017,30.8,55.4,0.02,Piet Retief
-26.95,152.967,67.0,0.00,Beerburrum Forest Station
-26.933,29.233,53.4,0.16,Standerton
-26.93,29.22,52.5,0.00,Standerton
-26.883,22.05,56.9,0.00,Van Zylsrus
-26.871,26.718,51.4,0.00,P C Pelser
-26.85,-58.317,57.3,2.28,Pilar
-26.841,-65.105,48.5,0.42,Teniente Benjamin Matienzo
-26.833,-55.333,57.8,0.47,Capitan Meza
-26.733,-60.483,53.3,0.02,Presidencia Roque Saenz Pena Aero
-26.733,27.067,53.6,0.06,Potchefstroom
-26.667,-57.15,60.8,1.42,San Juan Bautista
-26.667,152.467,62.7,0.00,Jimna Forestry
-26.65,150.183,67.2,0.00,Miles Constance Street
-26.65,152.933,66.2,0.00,Nambour Dpi-Hillside
-26.614,118.537,81.4,0.00,Meekatharra Airport
-26.6,153.1,68.9,0.00,Sunshine Coast Airport
-26.567,27.95,57.7,0.16,Vereeniging
-26.567,151.833,64.3,0.00,Kingaroy Airport
-26.566,27.961,56.4,0.00,Vereeniging
-26.55,148.783,67.2,0.00,Roma Airport
-26.54,18.111,61.8,0.00,Keetmanshoop
-26.529,31.308,62.9,0.28,Matsapha
-26.5,29.983,56.1,0.43,Ermelo
-26.413,146.263,71.0,0.00,Charleville
-26.383,153.033,70.0,0.02,Tewantin Rsl Park
-26.325,26.788,55.3,0.01,Ventersdorp
-26.267,132.183,71.5,0.00,Pukatja
-26.248,28.398,56.2,0.00,Springs
-26.243,28.151,63.3,0.00,Rand
-26.213,-58.228,58.1,1.30,Formosa
-26.183,-56.367,61.2,0.79,Caazapa
-26.183,152.633,66.1,0.01,Gympie
-26.176,26.185,55.4,0.00,Lichtenburg
-26.139,28.246,57.7,1.10,Johannesburg Intl
-26.133,126.583,77.7,0.00,Warburton Airfield
-26.05,22.45,62.8,0.00,Tsabong
-25.986,28.14,54.5,0.00,Grand Central
-25.967,152.867,69.3,0.01,Toolara (Kelly)
-25.939,27.926,60.9,0.00,Lanseria
-25.933,153.183,73.1,0.00,Double Island Point Lighthouse
-25.921,32.573,71.8,0.04,Maputo
-25.911,28.21,60.8,0.02,Pretoria/Irene
-25.9,113.583,73.3,0.00,Shark Bay Airport
-25.898,139.348,79.2,0.00,Birdsville
-25.89,28.171,61.8,0.00,Pretoria(Met)
-25.85,148.567,63.4,0.00,Injune Post Office
-25.833,29.183,59.4,0.13,Witbank
-25.798,25.548,58.6,0.00,Mmabatho Intl / George Dick Montshioa
-25.783,122.967,83.6,0.00,Carnegie (Carnegie)
-25.767,-56.433,60.5,0.67,Villarrica
-25.737,-54.473,61.5,0.79,Cataratas Del Iguazu
-25.65,27.233,61.1,0.00,Rustenburg
-25.644,27.271,61.3,0.00,Rustenburg
-25.617,151.617,68.9,0.00,Gayndah Airport
-25.596,-54.487,61.4,0.00,Cataratas Intl
-25.528,-49.176,66.0,0.00,Afonso Pena
-25.517,31.9,71.4,0.68,Komatidraai
-25.5,30.914,60.5,0.12,Nelspruit
-25.45,-54.833,60.8,0.69,Aeropuerto Int. Guarani
-25.45,25.417,65.4,0.00,Good Hope
-25.417,142.65,78.1,0.00,Windorah Post Office
-25.317,152.883,69.3,0.01,Hervey Bay Airport
-25.267,23.25,63.4,0.00,Werda
-25.24,-57.519,59.0,2.56,Silvio Pettirossi Intl
-25.2,130.983,77.1,0.00,Yulara Aero
-25.1,30.467,60.6,0.01,Lydenburg
-25.067,-130.1,70.8,0.00,Pitcairn Island Aws
-25.038,46.956,76.4,0.00,Tolagnaro
-25.033,128.3,78.7,0.00,Giles Meteorological Office
-24.933,30.85,60.8,0.01,Graskop
-24.9,152.317,69.3,0.00,Bundaberg Aero
-24.888,113.67,73.4,0.00,Carnarvon Airport
-24.856,-65.486,44.6,0.43,Salta
-24.75,-58.833,55.8,1.54,Gral. Bruguez
-24.667,-56.433,60.4,2.68,San Estanislao
-24.605,17.925,64.2,0.00,Mariental
-24.602,24.691,66.0,0.00,Jwaneng
-24.583,27.417,66.5,0.00,Thabazimbi
-24.555,25.918,64.8,0.00,Sir Seretse Khama Intl
-24.5,17.867,65.1,0.00,Mariental
-24.417,145.433,72.4,0.00,Blackall Airport
-24.393,-65.098,49.4,0.00,Jujuy
-24.35,31.05,71.2,0.18,Hoedspruit
-24.2,29.0,69.4,0.00,Kopane
-24.15,151.883,73.2,0.00,Seventeen Seventy
-24.117,152.717,75.1,0.00,Lady Elliot Island
-24.067,-57.083,58.5,2.32,San Pedro
-24.033,-54.35,61.7,2.09,Saltos Del Guaira
-24.017,21.883,75.8,0.00,Tshane
-23.933,31.15,72.6,0.01,Phalaborwa
-23.925,-46.288,77.5,0.00,Base Aerea De Santos
-23.867,29.433,65.1,0.00,Pietersburg
-23.867,29.45,65.7,0.04,Polokwane
-23.867,151.217,72.2,0.00,Gladstone Airport
-23.85,151.267,73.9,0.00,Gladstone Radar
-23.807,133.902,72.2,0.00,Alice Springs
-23.767,30.067,70.1,0.36,Tzaneen-Grenshoek
-23.726,27.688,70.7,0.00,Lephalale / Ellisras Airfield
-23.633,-55.833,59.4,2.01,Pedro Juan Caballero
-23.627,-46.655,70.4,0.00,Congonhas Deputado Freitas Nobre
-23.57,15.05,64.6,0.00,Gobabeb
-23.567,148.183,72.6,0.00,Emerald Airport
-23.533,151.283,73.8,0.00,Rundle Island
-23.5,-58.783,59.4,0.28,Pozo Colorado
-23.45,151.917,75.4,0.08,Heron Island Res Stn
-23.444,-70.445,69.1,0.00,Cerro Moreno Intl / Andres Sabella Intl
-23.442,-57.427,60.0,3.19,Teniente Col Carmelo Peralta
-23.433,-46.467,68.6,0.00,Guarulhos
-23.433,144.283,74.2,0.00,Longreach Aero
-23.417,119.8,77.3,0.00,Newman Aero
-23.383,43.728,76.2,0.00,Toliara
-23.382,150.475,72.3,0.00,Rockhampton
-23.365,-149.524,72.5,0.02,Tubuai Mataura
-23.334,-51.13,70.5,0.00,Londrina / Governador Jose Richa
-23.25,155.533,74.8,0.00,Cato Island
-23.229,-45.862,71.2,0.00,Professor Urbano Ernesto Stumpf
-23.217,-45.867,71.6,0.00,Sao Jose Dos Campos Aero
-23.167,117.75,83.3,0.00,Paraburdoo Aero
-23.153,-64.329,54.8,0.00,Oran
-23.133,-134.967,74.9,0.00,Mangareva
-23.133,150.75,72.8,0.00,Yeppoon The Esplanade
-23.083,26.8,75.4,0.00,Mahalapye
-23.067,30.383,77.0,0.79,Thohoyandou
-23.033,115.033,88.7,0.00,Emu Creek Station
-23.007,-47.135,70.3,0.00,Viracopos
-22.98,14.645,58.2,0.00,Walvis Bay
-22.95,136.15,77.1,0.00,Jervois
-22.922,-42.074,69.2,0.00,Cabo Frio
-22.91,-43.163,79.4,0.00,Santos Dumont
-22.883,14.433,57.7,0.00,Walvis Bay (Pelican Point)
-22.809,-43.244,79.9,0.00,Galeao Antonio Carlos Jobim
-22.805,47.821,79.5,0.00,Farafangana
-22.767,-64.317,52.9,0.72,Bermejo
-22.733,150.65,69.5,0.01,Samuel Hill Aero
-22.62,-63.794,53.0,0.12,General Enrique Mosconi Tartagal
-22.617,30.167,76.4,0.01,Tshipise
-22.612,17.08,58.9,0.00,Eros
-22.589,167.456,71.2,0.12,Ile Des Pins Moue
-22.567,17.1,63.3,0.00,Windhoek/Eros(Saaf)
-22.55,-61.55,54.9,0.43,Pelayo Prat Gill
-22.55,-55.703,56.2,0.00,Ponta Pora
-22.55,45.4,76.8,0.08,Ranohira
-22.5,-68.9,54.8,0.04,Calama
-22.5,18.967,64.8,0.00,Gobabis
-22.498,-68.904,54.7,0.00,El Loa
-22.48,17.471,60.0,0.00,Hosea Kutako Intl
-22.383,143.033,72.6,0.00,Winton Post Office
-22.367,143.083,75.4,0.00,Winton Airport
-22.35,149.517,71.3,0.00,St Lawrence
-22.35,149.533,70.8,0.00,St Lawrence Post Office
-22.345,-49.054,70.7,0.00,Bauru
-22.333,40.333,79.1,0.00,Ile Europa
-22.283,-57.933,63.3,4.09,Puerto Casado
-22.267,166.45,72.6,0.04,Noumea
-22.25,131.8,79.4,0.00,Yuendumu
-22.236,114.089,81.8,0.00,Learmonth
-22.217,30.0,78.1,0.16,Beitbridge
-22.151,-65.578,49.3,0.00,La Quiaca / Dr Guillermo Eugenio Snopek
-22.058,27.829,73.9,0.00,Selebi Phikwe
-22.05,27.817,73.2,0.20,Selebi-Phikwe
-22.045,-60.622,56.3,0.01,Dr Luis Maria Argana Intl
-22.018,35.313,81.6,0.00,Vilankulo
-22.015,166.213,70.9,0.00,Noumea La Tontouta
-21.967,152.467,76.4,0.00,Gannet Cay
-21.961,-63.652,49.7,0.00,Yacuiba
-21.833,140.883,75.9,0.00,Trepell Airport
-21.8,139.917,78.8,0.00,The Monument Airport
-21.717,122.217,82.2,0.00,Telfer Aero
-21.715,122.229,82.2,0.00,Telfer
-21.7,21.65,70.7,0.04,Ghanzi
-21.667,115.117,80.6,0.00,Onslow Airport
-21.667,150.267,72.7,0.01,Middle Percy Island
-21.6,138.3,83.9,0.00,Urandangi
-21.556,-64.701,51.1,0.00,Capitan Av Oriel Lea Plaza Intl
-21.482,168.038,73.5,0.02,Mare La Roche
-21.45,115.017,80.8,0.00,Thevenard Island
-21.442,47.112,70.2,0.08,Fianarantsoa
-21.417,25.6,72.7,0.31,Letlhakane
-21.321,55.425,79.8,0.00,St Pierre Pierrefonds
-21.255,-63.406,55.3,0.00,Tcnl Rafael Pabon
-21.241,-175.15,74.4,0.00,Fua Amotu Intl
-21.203,-159.806,77.1,0.00,Rarotonga Intl
-21.2,-159.783,77.0,0.00,Rarotonga
-21.183,115.967,85.1,0.00,Mardie
-21.183,119.75,85.2,0.00,Marble Bar
-21.167,149.183,73.5,0.12,Mackay Aero
-21.159,27.468,72.4,0.07,P.G. Matante International Airport
-21.117,149.217,73.4,0.09,Mackay Mo
-21.05,29.367,71.5,0.00,West Nicholson
-21.008,31.579,76.7,0.00,Buffalo Range
-20.933,165.317,72.4,0.00,Poindimie (Nlle-Caledonie)
-20.917,28.45,72.0,0.08,Kezi
-20.887,55.51,78.2,0.00,St Denis Gillot / La Reunion Roland Garros
-20.883,115.4,82.9,0.00,Barrow Island Airport
-20.817,144.233,75.2,0.00,Hughenden Airport
-20.775,167.24,75.1,0.35,Lifou Ouanaham
-20.75,117.15,83.2,0.00,Roebourne Aero
-20.717,116.767,83.6,0.00,Karratha Aero
-20.702,143.115,77.0,0.00,Richmond
-20.667,-178.717,75.5,0.00,Ono-I-Lau Aws
-20.667,140.5,81.2,0.00,Cloncurry Airport
-20.667,141.733,78.0,0.00,Julia Creek
-20.664,139.489,77.5,0.00,Mount Isa
-20.65,115.567,83.7,0.00,Varanus Island
-20.641,166.573,75.8,0.08,Ouvea Ouloup
-20.553,26.116,81.6,0.00,Sua Pan
-20.546,164.256,72.3,0.00,Koumac
-20.535,-70.181,71.9,0.00,Diego Aracena Intl
-20.533,150.383,77.2,0.00,Creal Reef
-20.495,148.552,72.9,0.10,Proserpine Whitsunday Coast
-20.469,-54.673,72.9,0.00,Campo Grande
-20.433,16.667,65.9,0.00,Otjiwarongo
-20.43,57.684,77.7,0.12,Sir Seewoosagur Ramgoolam Intl
-20.378,118.626,82.8,0.00,Port Hedland Intl
-20.367,116.85,87.0,0.00,Legendre Island
-20.358,148.952,74.1,0.00,Hamilton Island
-20.35,148.95,74.4,0.17,Hamilton Island Airport
-20.3,57.467,74.9,0.00,Vacoas (Mauritius)
-20.285,44.318,80.1,0.00,Morondava
-20.258,-40.286,79.9,0.00,Goiabeiras / Eurico De Aguiar Salles Intl
-20.233,-58.167,69.3,0.75,Bahia Negra
-20.233,169.767,77.0,0.03,Aneityum
-20.2,32.617,73.6,0.00,Chipinge
-20.183,130.017,81.1,0.00,Rabbit Flat
-20.114,16.154,68.6,0.00,Outjo
-20.07,16.13,68.9,0.00,Outjo
-20.055,30.859,69.9,0.00,Masvingo Intl
-20.05,-63.567,53.7,0.20,Camiri
-20.021,28.627,76.1,0.00,J M Nkomo Intl / Bulawayo
-20.02,148.21,74.2,0.02,Bowen Airport Aws
-19.973,23.431,77.3,0.00,Maun
-19.917,138.117,82.0,0.00,Camooweal Township
-19.9,-144.949,80.5,0.20,Hereheretue
-19.833,48.8,78.7,0.00,Mahanoro
-19.817,47.067,68.0,0.03,Antsirabe
-19.796,34.908,80.9,0.59,Beira
-19.783,-63.917,51.3,0.24,Monteagudo
-19.758,63.361,76.4,0.20,Plaine Corail
-19.717,163.65,74.0,0.02,Ile Art (Belep)
-19.634,-43.969,72.3,0.00,Tancredo Neves Intl
-19.634,134.183,80.8,0.00,Tennant Creek
-19.633,134.183,80.7,0.00,Tennant Creek Airport
-19.617,-43.967,72.4,0.00,Confins (Aero)
-19.617,147.383,74.6,0.00,Ayr Dpi Research Stn
-19.602,18.123,72.6,0.00,Grootfontein
-19.583,119.1,86.0,0.00,Bedout Island
-19.543,-65.724,45.3,0.12,Capitan Nicolas Rojas
-19.533,-59.367,56.4,0.71,Adrian Jara
-19.455,169.224,75.2,0.24,Tanna
-19.45,147.483,76.0,0.00,Ayr Alva Beach
-19.436,29.862,69.5,0.00,Gweru Thornhill
-19.417,146.533,69.1,0.00,Woolshed
-19.253,146.765,77.7,0.00,Townsville
-19.151,33.429,85.4,0.00,Chimoio
-19.133,179.75,78.0,0.00,Matuku Aws
-19.083,152.383,77.7,0.00,Marion Reef
-19.05,178.167,76.0,0.40,Vunisea
-19.012,-57.673,64.2,0.00,Corumba Intl
-19.007,-65.289,46.0,1.10,Juana Azurduy De Padilla
-18.975,-57.821,63.1,0.71,Tte De Av Salvador Ogaya G
-18.933,29.833,73.3,0.00,Kwekwe
-18.797,47.479,69.3,0.00,Ivato
-18.75,138.7,84.5,0.00,Century Mine
-18.65,135.95,84.7,0.00,Brunette Downs
-18.533,25.633,80.8,0.00,Pandamatenga
-18.533,32.133,70.2,0.00,Rusape
-18.517,146.383,76.9,0.01,Lucinda Point Aws
-18.483,163.083,77.5,0.00,Ile Surprise
-18.467,-64.1,48.5,0.35,Vallegrande
-18.367,21.85,81.7,0.00,Shakawe
-18.349,-70.339,70.8,0.00,Chacalluta
-18.333,130.633,80.9,0.00,Lajamanu
-18.317,-59.75,56.3,1.96,Robore (Civ/Mil)
-18.3,143.533,78.4,0.00,Georgetown Airport
-18.3,143.55,78.6,0.00,Georgetown Post Office
-18.27,25.633,81.4,0.00,Pandamatenga
-18.233,127.667,85.0,0.00,Halls Creek Airport
-18.217,28.933,74.6,0.00,Gokwe
-18.183,31.467,75.1,0.00,Grasslands
-18.183,125.567,83.6,0.00,Fitzroy Crossing Aero
-18.133,178.433,77.9,0.00,Suva Kings Wharf
-18.11,49.393,79.1,0.00,Toamasina
-18.096,25.839,79.5,0.00,Victoria Falls Intl
-18.075,-140.946,83.1,0.00,Hao
-18.053,-70.276,71.2,0.00,Coronel Carlos Ciriani Santa Rosa Intl
-18.043,178.559,77.2,0.40,Nausori Intl
-17.963,-67.076,52.2,0.02,Juan Mendoza
-17.956,19.719,79.0,0.00,Rundu
-17.945,122.232,84.3,0.00,Broome Intl
-17.93,31.094,71.7,0.00,Robert Gabriel Mugabe Intl / Harare
-17.883,15.95,77.8,0.00,Ondangwa
-17.878,15.953,78.2,0.00,Ondangwa
-17.856,36.869,86.2,0.00,Quelimane
-17.833,-60.75,58.2,0.10,San Jose
-17.833,25.162,80.1,0.00,Kasane
-17.812,-63.171,55.5,0.79,El Trompillo
-17.757,168.3,78.5,0.00,Point Vita/Ntf/Aws
-17.755,177.443,78.7,0.14,Nadi Intl
-17.75,139.533,82.5,0.00,Burketown Airport
-17.717,148.45,78.7,0.00,Flinders Reef
-17.699,168.32,77.0,0.12,Port Vila Bauerfield
-17.683,141.067,84.1,0.00,Normanton Airport
-17.652,-39.253,82.8,0.00,Caravelas
-17.645,-63.135,59.1,0.83,Viru Viru Intl
-17.617,27.333,85.3,0.00,Binga
-17.6,146.0,74.9,0.20,South Johnstone Exp Stn
-17.6,177.45,80.3,0.00,Lautoka Queens Wharf
-17.583,-69.45,50.5,0.00,Charana
-17.583,123.817,85.0,0.00,Curtin Aero
-17.581,123.828,85.2,0.00,Curtin
-17.554,-149.607,81.7,0.12,Tahiti Faa A
-17.533,118.95,85.6,0.00,Rowley Shoals
-17.432,32.185,76.6,0.00,Mutoko
-17.421,-66.177,56.5,0.39,Jorge Wilstermann Intl
-17.367,123.667,85.0,0.00,Derby Aero
-17.233,-178.95,78.3,0.00,Vanua Balavu Aws
-17.15,176.9,79.9,0.00,Viwa Aws
-17.133,152.15,75.3,0.00,Lihou Reef Lighthouse
-17.117,152.0,78.4,0.00,Lihou Reef
-17.067,145.433,71.0,0.00,Mareeba Airport Aws
-17.05,42.717,82.6,0.00,Ile Juan De Nova
-17.0,178.7,78.0,0.20,Nabouwalu
-16.886,145.755,75.0,0.36,Cairns Intl
-16.833,29.617,73.6,0.00,Karoi
-16.783,31.583,78.0,0.00,Mount Darwin
-16.767,145.967,76.1,0.00,Green Island
-16.667,139.167,80.6,0.00,Mornington Island
-16.633,128.45,85.3,0.00,Argyle Aerodrome
-16.632,-49.221,75.5,0.00,Santa Genoveva
-16.52,28.885,86.4,0.00,Kariba Intl
-16.513,-68.192,45.8,0.02,El Alto Intl
-16.467,147.867,78.3,0.00,Holmes Reef
-16.45,59.617,81.9,0.00,St. Brandon (St. Raphael)
-16.433,-151.75,83.6,0.00,Bora-Bora
-16.433,136.067,82.9,0.00,Mcarthur River Mine
-16.417,167.8,80.5,0.59,Lamap/Malekoula Isl
-16.401,-61.045,57.8,0.28,San Ignacio De Velasco Airport
-16.4,131.017,82.6,0.00,Victoria River Downs
-16.383,145.567,76.0,0.44,Low Isles Lighthouse
-16.341,-71.583,58.4,0.00,Rodriguez Ballon
-16.333,-58.383,67.9,0.41,San Matias
-16.29,149.96,79.5,0.00,Willis Island Coimp
-16.288,149.965,79.1,0.00,Willis Island
-16.267,-62.467,54.0,0.16,San Javier
-16.25,-62.1,57.2,0.06,Concepcion
-16.25,133.367,81.5,0.00,Daly Waters Aws
-16.183,33.583,91.0,0.00,Tete
-16.133,-179.983,80.1,0.00,Udu Point Aws
-16.083,136.3,80.2,0.00,Borroloola
-16.0,144.067,75.4,0.00,Palmerville
-15.933,-5.667,68.0,0.02,St. Helena Is.
-15.883,54.517,82.2,0.00,Serge-Frolow (Ile Tromelin)
-15.863,-47.913,71.7,0.00,Presidente Juscelino Kubitschek
-15.778,128.708,82.9,0.00,Kununurra
-15.75,131.917,84.2,0.00,Delamere Weapons Range
-15.75,136.8,82.7,0.00,Centre Island
-15.717,-63.1,58.0,0.00,Ascencion Guarayos
-15.667,46.352,82.3,0.00,Philibert Tsiranana
-15.653,-56.117,77.3,0.00,Marechal Rondon
-15.501,167.223,80.5,0.00,Santo Pekoa Intl
-15.5,128.15,85.6,0.00,Wyndham Aero
-15.5,147.117,78.2,0.00,Bougainville Reef
-15.483,141.75,79.3,0.00,Kowanyama Airport
-15.467,-70.158,53.4,0.00,Juliaca / Inca Manco Capac Intl
-15.45,145.183,76.4,0.21,Cooktown Airport
-15.333,28.45,77.8,0.00,Lusaka Intl
-15.106,39.282,82.7,0.00,Nampula
-14.967,-65.633,63.8,0.19,San Ignacio De Moxo
-14.967,145.317,78.1,0.17,Cape Flattery
-14.95,130.8,87.5,0.00,Bradshaw
-14.883,47.983,84.6,0.00,Antsohihy
-14.867,-66.75,67.0,1.18,San Borja/Capt Germ
-14.854,-74.962,81.1,0.00,Maria Reiche Neuman
-14.819,-64.918,64.1,0.04,Tte Av Jorge Henrich Arauz
-14.816,-39.033,77.9,0.00,Ilheus / Jorge Amado
-14.733,-68.417,67.9,0.09,Apolo
-14.521,132.378,83.4,0.00,Tindal
-14.483,-145.033,84.1,0.03,Takaroa
-14.483,-67.483,68.6,0.98,Rurrenabaque
-14.331,-170.714,83.4,0.82,Tafuna/Pago Pago International Ap
-14.317,-178.117,81.5,1.73,Maopoopo / Futuna Pointe Vele
-14.3,-67.367,67.3,0.04,Reyes
-14.3,126.633,81.9,0.00,Kalumburu
-14.279,50.175,80.6,0.12,Sambava
-14.25,129.533,82.9,0.00,Port Keats Airport
-14.117,123.533,89.9,0.00,Browse Island Aws
-14.083,126.383,84.0,0.00,Truscott
-13.975,136.46,80.6,0.23,Groote Eylandt
-13.85,167.55,82.8,0.16,Sola/Vanua Lava Isl
-13.833,131.183,83.6,0.00,Douglas River
-13.817,-171.75,81.4,0.00,Apia Wharf
-13.767,143.117,76.6,0.00,Coen Airport
-13.762,-65.435,66.1,0.91,Santa Ana Del Yacuma
-13.75,126.15,87.0,0.00,Troughton Island
-13.745,-76.22,75.7,0.00,Pisco Intl
-13.667,134.333,82.5,0.00,Bulman Aws
-13.65,136.933,77.2,0.00,North East Island
-13.536,-71.939,53.2,0.00,Teniente Alejandro Velasco Astete Intl
-13.333,-64.15,68.8,0.00,Magdalena
-13.333,133.083,81.0,0.00,Central Arnhem Plateau
-13.312,48.315,83.2,0.00,Fascene
-13.3,-64.7,67.3,0.33,San Ramon
-13.274,35.266,69.5,0.00,Lichinga
-13.238,-176.199,82.0,0.63,Wallis Hihifo
-13.155,-74.204,68.7,0.00,Coronel Fap Alfredo Mendivil Duarte
-13.067,-64.667,69.6,0.39,San Joaquin
-13.05,131.017,82.9,0.00,Batchelor Aero
-12.987,40.522,82.9,0.00,Pemba
-12.911,-38.331,83.6,0.00,Deputado Luis Eduardo Magalhaes
-12.809,15.761,74.8,0.00,Huambo
-12.805,45.281,83.9,0.00,Dzaoudzi Pamandzi
-12.783,143.3,77.1,0.69,Lockhart River Airport
-12.694,-60.098,73.3,0.00,Vilhena
-12.683,141.917,78.1,0.03,Weipa Aero
-12.667,132.9,84.6,0.01,Jabiru Airport
-12.633,130.367,84.0,0.00,Dum In Mirrie
-12.614,-69.229,77.9,0.00,Padre Aldamiz
-12.6,131.3,82.3,0.00,Middle Point Aws
-12.5,177.05,82.2,0.39,Rotuma Island
-12.42,130.88,83.4,0.00,Darwin Ap Comparison
-12.415,130.877,83.4,0.00,Darwin Intl
-12.349,49.292,83.0,0.00,Arrachart
-12.283,136.817,81.2,0.09,Gove Airport
-12.269,136.818,81.1,0.00,Gove
-12.233,131.883,82.2,0.00,Point Stuart
-12.188,96.834,83.2,0.24,Cocos Keeling Islands
-12.117,134.9,81.5,0.01,Milingimbi Aws
-12.05,134.233,81.0,0.13,Maningrida Aero
-12.022,-77.114,75.1,0.00,Jorge Chavez Intl
-12.0,135.567,82.3,0.00,Ngayawili
-11.783,130.017,82.7,0.00,Cape Fourcroy
-11.768,19.898,78.2,0.00,Luena
-11.583,47.283,83.6,0.00,Iles Glorieuses
-11.534,43.272,83.0,0.00,Prince Said Ibrahim
-11.05,132.983,83.2,0.00,Mccluer Island Aws
-11.04,-68.783,81.2,0.00,Heroes Del Acre / Cap Av Civ Anibal Arab Fadul Intl
-11.017,-66.117,78.2,0.00,Riberalta / Cap Av Selin Zeitun Lopez
-11.017,136.75,81.0,0.02,Cape Wessel Aws
-10.951,142.459,67.9,0.00,Bamaga Injinoo
-10.817,-65.35,80.1,0.00,Guayaramerin
-10.7,165.8,81.5,0.04,Santa Cruz Island
-10.683,35.583,76.3,0.00,Songea
-10.683,152.833,82.8,0.00,Misima W.O.
-10.617,125.983,85.2,0.00,Northern Endeavour
-10.583,142.283,80.9,0.00,Horn Island
-10.451,105.69,79.9,0.00,Christmas Island
-10.433,56.6,83.9,1.69,Agalega
-10.339,40.182,85.5,0.00,Mtwara
-10.317,150.333,79.4,0.08,Gurney W.O.
-10.172,123.671,82.7,0.00,El Tari
-10.05,143.067,81.6,0.00,Coconut Island
-9.967,149.383,71.0,0.35,Agaun
-9.869,-67.894,77.9,0.00,Presidente Medici / Placido De Castro Intl
-9.866,-56.106,83.9,0.00,Alta Floresta / Piloto Osvaldo Marques Dias
-9.8,-139.033,80.3,0.00,Hiva-Oa
-9.669,120.302,81.5,0.00,Mau Hau
-9.511,-35.792,79.2,0.00,Zumbi Dos Palmares
-9.443,147.22,79.7,0.00,Port Moresby Jacksons Intl
-9.43,159.97,80.8,0.00,Honiara/Ntf/Aws
-9.428,160.055,80.1,0.20,Honiara Intl
-9.133,-75.95,75.4,0.24,Tingo Maria
-8.933,33.467,69.7,0.00,Mbeya
-8.858,13.231,78.5,0.00,Luanda 4 De Fevereiro
-8.783,160.733,79.6,0.67,Auki
-8.75,116.267,81.7,0.00,Mataram-Lombok Intl Airport / Zainuddin Abdul Madjid
-8.749,115.167,82.7,0.00,Denpasar Ngurah Rai
-8.748,115.167,85.3,0.00,Bali Intl / I Gusti Ngurah Rai
-8.709,-63.902,79.5,0.00,Governador Jorge Teixeira De Oliveira
-8.633,120.45,73.8,0.00,Ruteng/Satar Tacik
-8.54,118.687,83.5,0.00,Muhammad Salahuddin
-8.52,140.418,81.3,0.00,Mopah
-8.517,179.217,84.8,0.00,Funafuti Intl Arpt
-8.5,179.217,84.5,0.00,Funafuti
-8.489,117.412,83.9,0.00,Sumbawa Besar
-8.378,-74.574,79.3,0.00,Cap Fap David Abensur Rengifo Intl
-8.328,157.263,83.8,0.12,Munda
-8.217,114.383,82.4,0.00,Banyuwangi
-8.217,124.567,84.4,0.00,Alor/Mali/Kalabahi
-8.126,-34.924,84.1,0.00,Guararapes Gilberto Freyre Intl
-8.081,-79.109,75.8,0.00,Capitan Fap Carlos Martinez De Pinillos
-7.983,131.3,84.4,0.00,Saumlaki
-7.97,-14.394,81.6,0.00,Ascension Aux Af
-7.967,31.63,72.4,0.00,Sumbawanga
-7.733,109.017,83.8,0.83,Cilacap
-7.669,35.752,76.5,0.00,Iringa
-7.6,-72.769,80.0,0.00,Cruzeiro Do Sul
-7.38,112.787,85.4,0.00,Surabaya Juanda
-7.3,72.4,82.1,1.51,Diego Garcia Naval Air Station
-7.217,112.717,85.6,0.00,Surabaya/Perak
-7.217,113.717,87.3,0.00,Surabaya/Gedangan
-7.139,-78.489,63.1,0.00,Gen Fap Armando Revoredo Iglesias
-7.05,113.967,83.5,0.00,Kalianget (Madura Is)
-6.983,110.383,84.8,0.00,Jenderal Ahmad Yani
-6.878,39.203,82.9,0.12,Mwalimu Julius K Nyerere Intl
-6.85,109.15,84.3,1.81,Tegal
-6.833,37.65,80.0,0.20,Morogoro (Met)
-6.787,-79.828,78.4,0.00,Cap Fap Jose A Quinones Gonzales Intl
-6.7,106.933,72.2,0.00,Bogor/Citeko
-6.7,156.383,84.6,0.91,Taro Island
-6.57,146.726,81.8,1.30,Nadzab
-6.509,-76.373,80.2,0.04,Cadete Guillermo Del Castillo Paredes
-6.3,106.567,82.6,0.00,Tangerang/Budiarto Arpt
-6.267,106.891,86.4,0.00,Halim Perdanakusuma Intl
-6.222,39.225,82.8,0.91,Zanzibar / Abeid Amani Karume Intl
-6.17,35.753,78.9,0.00,Dodoma
-6.126,106.656,84.3,0.00,Soekarno Hatta Intl
-6.117,-50.0,77.3,0.00,Carajas
-6.117,106.133,82.4,0.00,Serang
-6.1,106.867,86.2,0.00,Jakarta/Tanjung Priok
-5.911,-35.248,81.2,0.00,Campo Augusto Severo
-5.85,112.633,84.7,0.00,Sangkapura (Bawean Is.)
-5.683,132.75,83.5,0.00,Tual/Dumatubun
-5.597,12.188,84.9,0.00,Cabinda
-5.369,-49.138,80.0,0.00,Maraba / Joao Correa Da Rocha
-5.242,105.179,79.0,0.12,Radin Inten Ii
-5.206,-80.616,80.2,0.00,Capitan Fap Guillermo Concha Iberico
-5.083,32.833,82.7,0.00,Tabora Airport
-5.067,119.55,84.4,0.00,Ujang Pandang/Paotere
-5.062,119.554,82.7,0.00,Sultan Hasanuddin Intl
-5.06,-42.823,81.7,0.00,Senador Petronio Portella
-4.883,29.633,84.3,0.00,Kigoma
-4.816,11.887,80.6,0.00,Pointe Noire / Antonio Agostinho Neto
-4.717,136.433,77.3,0.24,Kokonao/Timuka
-4.674,55.522,83.3,0.16,Seychelles Intl
-4.533,129.9,85.6,0.16,Neira
-4.386,15.445,80.4,0.00,Ndjili Intl
-4.319,55.691,81.5,0.24,Praslin
-4.256,-69.936,86.4,0.00,Tabatinga
-4.252,15.253,83.1,0.00,Maya Maya
-4.193,-69.943,84.8,0.00,Alfredo Vasquez Cobo
-4.035,39.594,80.2,0.00,Mombasa Moi Intl
-3.864,102.339,84.1,0.00,Fatmawati Soekarno
-3.8,130.833,86.9,0.00,Geser
-3.785,-73.309,80.5,0.55,Coronel Francisco Secada Vignetta Intl
-3.776,-38.533,83.9,0.00,Pinto Martins Intl
-3.71,128.089,82.1,0.00,Pattimura
-3.645,133.696,85.5,0.00,Kaimana / Utarom
-3.584,143.669,84.3,0.00,Wewak Intl
-3.553,-80.381,83.3,0.00,Cap Fap Pedro Canga Rodriguez
-3.442,114.763,83.7,0.00,Syamsudin Noor
-3.429,37.074,80.6,0.00,Kilimanjaro Intl
-3.4,38.567,81.7,0.00,Voi
-3.4,116.217,82.0,0.00,Kotabaru/Setagen
-3.383,-64.724,82.3,0.00,Tefe / Prefeito Orlando Marinho
-3.368,36.633,73.5,0.00,Arusha
-3.35,128.883,83.8,0.00,Amahai
-3.25,127.083,84.8,0.00,Namlea/Buru Island
-3.229,40.102,83.5,0.83,Malindi
-3.146,-59.986,81.7,0.00,Campo Ponta Pelada
-3.039,-60.05,82.6,0.00,Eduardo Gomes Intl
-2.898,104.701,81.4,0.00,Sultan Mahmud Badaruddin Ii
-2.883,132.25,81.1,0.32,Fak-Fak / Torea / Siboru
-2.746,107.755,85.4,0.00,H As Hanandjoeddin
-2.705,111.673,80.9,0.00,Iskandar
-2.7,141.317,84.4,0.00,Vanimo
-2.585,-44.234,80.5,0.00,Marechal Cunha Machado Intl
-2.577,140.516,81.7,0.00,Sentani
-2.55,120.367,83.0,0.00,Masamba/Andi Jemma
-2.5,119.0,84.9,0.00,Majene
-2.444,32.933,82.6,0.00,Mwanza
-2.422,-54.793,81.0,0.00,Santarem / Maestro Wilson Fonseca
-2.417,147.383,81.2,0.00,Lombrum  Manus Island
-2.283,37.833,83.9,0.00,Makindu
-2.252,40.913,86.6,0.00,Lamu Manda
-2.225,113.943,84.3,0.00,Palangka Raya/Tjilik Riwut
-2.17,106.13,83.6,0.00,Pangkalpinang / Depati Amir
-2.157,-79.884,81.9,0.00,Simon Bolivar Intl / Jose Joaquin De Olmedo Intl
-2.062,147.424,81.0,0.00,Momote
-2.05,147.417,81.9,0.00,Momote W.O.
-1.969,30.139,77.0,0.00,Kigali Intl
-1.845,11.057,82.2,0.63,Mouilla Ville / Raphael Boubala
-1.65,13.433,80.2,0.00,Franceville Mvengue
-1.638,103.644,84.1,0.00,Sultan Thaha
-1.5,33.8,81.2,0.00,Musoma
-1.379,-48.476,79.7,0.00,Val De Cans Julio Cezar Ribeiro Intl
-1.333,31.817,79.6,0.00,Bukoba
-1.322,36.815,72.4,0.00,Nairobi Wilson
-1.319,36.928,70.2,0.00,Jkia / Nairobi Jomo Kenyatta Intl
-1.3,36.75,69.0,0.00,Nairobi/Dagoretti
-1.268,116.894,83.4,0.00,Sultan Aji Muhammad Sulaiman Sepinggan
-1.19,136.108,81.4,0.00,Frans Kaisiepo
-1.133,35.833,69.5,0.00,Narok
-1.039,122.772,83.7,0.00,Bubung
-0.95,-80.683,80.8,0.00,Eloy Alfaro Intl
-0.95,114.9,85.5,0.00,Muaratewe/Beringin
-0.926,131.121,80.7,0.00,Jefman / Domine Eduard Osok
-0.907,-78.616,59.8,0.00,Alternativo Cotopaxi Intl
-0.875,100.352,82.4,0.00,Tabing
-0.712,8.754,81.4,0.00,Port Gentil
-0.704,10.246,80.8,0.00,Lambarene
-0.693,73.156,85.8,0.00,Gan Island
-0.683,119.733,85.4,0.00,Palu/Mutiara
-0.531,166.917,100.2,0.00,Nauru
-0.517,166.917,81.2,0.00,Nauru Arc-2
-0.5,36.967,66.9,0.04,Nyeri
-0.5,37.45,72.2,0.00,Embu
-0.485,117.157,82.1,0.00,Temindung
-0.479,104.579,83.5,0.00,Dabo
-0.464,39.648,89.0,0.00,Garissa
-0.367,35.35,67.2,0.00,Kericho
-0.35,102.333,81.6,0.31,Rengat/Japura Arpt
-0.35,111.783,88.1,0.00,Nangapinoh
-0.267,36.1,69.2,0.03,Nakuru
-0.151,109.404,79.9,0.00,Supadio
-0.141,-78.488,56.3,0.00,Mariscal Sucre Intl
-0.086,34.729,79.7,0.00,Kisumu
0.0,-153.913,82.3,0.00,Buoy 51028
0.042,32.444,76.3,0.00,Entebbe Intl
0.051,-51.072,77.5,0.00,Macapa / Alberto Alcolumbre
0.064,111.473,87.2,0.00,Susilo / Tebelian
0.083,37.65,68.7,0.00,Meru
0.45,33.183,82.2,0.00,Jinja
0.459,9.412,81.0,1.18,Leon M Ba
0.461,101.445,84.3,0.00,Sultan Syarif Kasim Ii
0.483,35.3,66.3,0.00,Eldoret
0.579,12.891,79.9,0.31,Makokou
0.637,122.85,82.8,0.00,Jalaluddin / Djalaluddin
0.683,34.167,84.0,0.00,Tororo
0.783,11.533,78.8,0.31,Mitzic
0.831,127.381,80.5,0.39,Babullah
0.923,104.532,82.3,0.47,Kijang
0.972,34.959,69.4,0.20,Kitale
1.017,120.8,82.4,0.00,Toli-Toli/Lalos / Bolaang Mongondow
1.117,104.117,84.9,0.00,Batam/Hang Nadim
1.166,97.705,83.0,0.00,Binaka
1.217,111.45,83.0,0.00,Sri Aman / Simanggan
1.35,103.994,86.6,0.00,Singapore Changi Intl
1.35,172.933,83.3,0.00,Tarawa Tide Aws
1.36,103.91,87.5,0.00,Paya Lebar
1.417,103.868,86.3,0.00,Seletar
1.433,125.183,84.7,0.00,Bitung
1.485,110.347,81.6,0.10,Kuching Intl
1.549,124.926,81.2,0.00,Sam Ratulangi
1.556,98.889,80.4,0.12,Pinang Sore / Dr Ferdinand Lumbantobing
1.641,103.67,83.7,0.00,Sultan Ismail / Senai Intl
1.733,40.092,88.5,0.00,Wajir
1.883,73.5,85.8,0.00,Kadhdhoo
1.986,-157.35,81.2,0.00,Christmas Island
2.076,11.493,78.9,0.04,Bitam
2.15,117.433,81.9,0.00,Kalimarau
2.262,111.985,83.9,0.00,Sibu
2.263,102.252,84.9,0.00,Malacca
2.3,37.9,71.9,0.08,Marsabit
2.45,103.833,84.1,0.00,Mersing
2.567,-72.633,80.7,0.00,San Jose Del Guavia
2.846,-60.69,84.7,0.00,Boa Vista / Atlas Brasil Cantanhede
2.85,117.333,85.1,0.00,Tanjung Selor
2.95,-75.294,85.2,0.00,Benito Salas
3.124,113.02,82.9,0.00,Bintulu
3.131,101.549,85.8,2.39,Sultan Abdul Aziz Shah Intl
3.2,106.25,83.4,0.00,Tarempa
3.333,117.567,82.8,0.00,Tarakan/Juwata
3.533,39.05,75.8,0.00,Moyale Lower (Oda)
3.543,-76.382,75.2,0.00,Alfonso Bonilla Aragon Intl
3.558,98.672,81.7,1.61,Polonia / Kualanamu Intl
3.683,125.528,84.6,0.00,Naha
3.723,11.553,77.0,0.00,Yaounde Nsimalen
3.755,8.709,78.8,0.00,Malabo
3.775,103.209,84.7,0.06,Kuantan
3.8,98.7,86.3,0.00,Medan/Belawan
3.883,-51.8,78.0,2.80,Saint Georges
3.933,41.867,91.1,0.00,Mandera
4.006,9.719,82.5,0.00,Douala
4.076,-73.564,75.3,0.00,Apiay Air Base / Contingency
4.192,73.529,86.5,0.00,Male Intl / Velana Intl
4.217,100.7,82.5,0.26,Sitiawan
4.25,96.117,85.0,0.00,Meulaboh/Cut Nyak / Cut Nyak Dhien Nagan Raya
4.313,118.122,81.6,0.00,Tawau
4.322,113.987,83.1,0.00,Miri
4.35,-54.417,85.5,0.00,Stoelmanseiland
4.398,18.519,77.8,0.00,Bangui M Poko
4.417,-7.367,81.6,0.35,Tabou
4.568,101.092,83.1,0.00,Ipoh Sultan Azlan Shah
4.583,114.2,84.0,0.00,Kuala Belait
4.702,-74.147,55.6,0.00,El Dorado Intl
4.747,-6.661,86.3,0.00,San Pedro
4.813,-75.74,72.8,0.00,Matecana
4.82,-52.36,78.1,1.85,Rochambeau / Cayenne Felix Eboue
4.944,114.928,82.9,0.00,Brunei Intl
4.95,-6.083,81.8,0.03,Sassandra/Drewin
5.227,96.95,85.6,0.00,Malikus Saleh
5.261,-3.926,83.1,0.01,Abidjan Felix Houphouet Boigny Intl
5.297,100.277,84.3,0.00,Penang Intl
5.3,-3.3,82.8,0.04,Adiake
5.301,115.25,83.7,0.87,Labuan
5.357,162.958,83.3,1.27,Kosrae
5.383,103.103,83.1,0.00,Sultan Mahmud
5.45,-55.183,79.6,0.00,Johan A Pengel Intl
5.453,-55.188,78.6,0.32,Johan A Pengel Intl
5.466,100.391,85.2,0.00,Butterworth
5.5,-54.033,79.4,0.03,St Laurent Du Maron
5.524,95.42,85.7,0.00,Sultan Iskandar Muda
5.605,-0.167,84.7,0.00,Kotoka Intl
5.62,-67.606,83.3,0.03,Cacique Aramare
5.691,-76.641,86.8,0.08,El Carano
5.811,-55.191,81.4,0.00,Zorg En Hoop
5.874,95.34,85.8,0.00,Maimun Saleh
5.901,118.059,83.1,0.00,Sandakan
5.937,116.051,84.8,0.00,Kota Kinabalu Intl
5.95,-57.03,82.9,0.04,Nickerie
6.033,80.217,83.9,0.00,Galle
6.05,125.1,84.9,0.00,Gen. Santos
6.117,81.133,84.0,0.00,Hambantota
6.133,-5.95,82.5,0.00,Gagnoa
6.165,-75.423,62.1,1.93,Jose Maria Cordova
6.166,1.255,83.2,4.25,Gnassingbe Eyadema Intl
6.167,102.293,83.5,0.00,Sultan Ismail Petra
6.194,100.403,85.9,0.00,Sultan Abdul Halim
6.234,-10.362,81.4,0.00,Monrovia Roberts Intl
6.33,99.729,84.6,0.00,Langkawi Intl
6.357,2.384,82.7,0.00,Card Bernardin Gadin De Cadjehoun Intl
6.5,-58.25,81.2,0.00,Georgetown
6.52,101.743,83.3,0.00,Narathiwat
6.577,3.321,80.6,0.00,Murtala Muhammed
6.65,-4.7,84.2,0.00,Dimbokro City
6.661,100.08,84.5,0.00,Khoun Khan
6.733,73.167,85.4,0.00,Hanimaadhoo
6.785,101.154,84.4,0.00,Pattani
6.793,-6.473,81.2,0.00,Daloa
6.8,-58.15,85.1,0.00,Georgetown
6.903,-5.366,88.2,0.00,Yamoussoukro
6.917,116.833,84.6,0.00,Kudat
6.922,122.06,82.6,0.00,Zamboanga Intl
6.933,100.393,83.4,0.06,Hat Yai Intl
6.967,80.767,65.7,0.05,Nuwara Eliya
6.967,158.217,79.2,1.72,Pohnpei Weather Center
7.083,171.133,83.3,0.15,Majuro Atoll Weather Center
7.117,171.35,88.7,0.00,Majura  Marshall Is.
7.126,125.646,85.3,0.16,Francisco Bangoy Intl
7.127,-73.185,70.4,0.08,Palonegro
7.167,2.067,83.1,0.00,Bohicon
7.167,124.217,83.1,0.00,Cotobato
7.181,79.866,83.2,0.13,Bandaranaike Intl Colombo
7.187,100.608,84.3,0.00,Songkhla
7.211,-70.756,82.1,0.00,Guasdualito
7.333,134.483,83.0,0.05,Koror
7.467,151.85,83.7,0.00,Chuuk International Airport
7.509,99.617,87.4,0.00,Trang
7.533,99.05,86.1,0.00,Ko Lanta
7.7,28.017,83.4,5.15,Wau
7.706,81.679,86.4,0.06,Batticaloa
7.841,-72.44,82.4,0.00,San Antonio Del Tachira / General Cipriano Castro Intl
7.883,-67.444,89.4,0.00,San Fernando De Apure / Las Flecheras
7.883,98.4,88.0,0.00,Phuket
7.928,-72.512,80.6,0.00,Camilo Daza
8.017,110.617,83.8,0.00,Huyen Tran
8.033,2.467,82.5,0.03,Save
8.033,79.833,83.3,0.48,Puttalam
8.05,-2.783,82.3,0.00,Bondoukou/Soko
8.086,-80.945,83.4,0.00,Ruben Cantu
8.099,98.986,88.5,0.00,Krabi
8.113,98.317,86.8,0.00,Phuket Intl
8.122,-63.537,83.4,0.02,Ciudad Bolivar
8.15,125.133,77.9,0.00,Malaybalay
8.3,73.15,86.1,0.01,Minicoy
8.301,80.428,82.4,0.00,Anuradhapura
8.367,126.333,85.8,0.00,Hinatuan
8.391,-82.435,86.2,0.00,Enrique Malek Intl
8.417,124.617,84.4,0.00,Lumbia Airport
8.471,99.956,84.7,0.00,Cha Ian
8.482,76.92,86.4,0.00,Thiruvananthapuram Intl
8.483,76.95,83.5,0.39,Thiruvananthapuram
8.539,81.182,85.1,0.00,China Bay
8.54,99.945,86.3,0.00,Nakhon Si Thammarat
8.582,-71.161,70.8,0.02,Alberto Carnevalli
8.601,123.334,82.9,0.00,Dipolog
8.616,-13.195,83.6,0.00,Freetown Lungi
8.65,111.917,85.4,0.00,Truong Sa
8.683,106.6,83.6,0.00,Con Son
8.733,167.733,83.3,0.00,Bucholz Aaf Kwajalein Kmr Atol Ap
8.917,-79.6,83.0,0.00,Howard
8.95,125.483,84.8,0.00,Butuan
8.978,38.799,65.6,0.00,Bole Intl
9.027,-69.755,83.4,0.00,Guanare
9.071,-79.383,80.5,0.00,Tocumen Intl
9.133,99.136,89.5,0.00,Surat Thani
9.15,18.383,86.7,0.00,Sarh (Civ/Mil)
9.183,105.15,85.4,0.00,Ca Mau
9.222,-65.994,91.4,0.00,Valle De La Pascua
9.283,103.467,83.6,0.00,Tho Chu
9.334,123.3,83.7,0.00,Dumaguete
9.336,13.37,88.2,0.43,Garoua
9.34,-70.584,77.3,0.83,Dr Antonio Nicolas Briceno
9.35,2.617,84.3,0.00,Parakou
9.467,-82.517,87.1,0.00,Captain Manuel Nino
9.467,100.05,85.1,0.00,Ko Samui
9.483,138.083,82.9,0.31,Yap International Airport
9.517,45.567,87.4,0.00,Burao
9.518,44.089,77.4,0.00,Egal Intl
9.548,100.062,87.1,0.00,Samui
9.553,-69.238,82.9,0.00,Oswaldo Guevara Mujica / Batalla De Araure
9.559,31.652,87.8,5.20,Malakal
9.577,-13.612,84.5,0.00,Conakry / Ahmed Sekou Toure Intl
9.664,123.853,85.5,0.00,Tagbilaran
9.742,118.759,84.4,0.00,Puerto Princesa
9.749,-63.153,84.2,0.00,Maturin / Jose Tadeo Monagas Intl
9.767,1.091,84.2,0.00,Niamtougou International
9.778,98.585,88.7,0.00,Ranong
9.783,125.483,85.4,0.00,Surigao
9.907,-67.38,79.7,0.12,San Juan De Los Morros
9.946,76.272,83.7,0.00,Cochin
9.95,-84.133,78.3,0.00,Tobias Bolanos Intl
9.958,-83.022,81.4,6.79,Limon Intl
9.967,-84.833,83.9,0.00,Puntarenas
9.994,-84.209,73.4,0.00,Juan Santamaria Intl
10.0,105.083,85.8,0.00,Rach Gia
10.043,-69.359,79.9,0.00,Barquisimeto Intl
10.107,-64.689,85.6,0.00,General Jose Antonio Anzoategui Intl
10.133,124.867,82.2,0.00,Maasin
10.15,-67.928,82.6,0.00,Arturo Michelena Intl
10.217,103.967,84.9,0.00,Phu Quoc
10.25,-67.649,80.9,0.00,Mariscal Sucre
10.308,123.979,84.4,0.00,Mactan Cebu Intl
10.317,1.383,81.8,0.00,Natitingou
10.383,114.367,86.9,0.00,Nansha Dao
10.389,44.941,88.7,0.00,Berbera
10.435,-73.25,89.7,0.00,Alfonso Lopez Pumarejo
10.442,-75.513,84.7,0.00,Rafael Nunez
10.558,-71.728,83.6,0.00,La Chinita Intl
10.593,-85.544,87.5,0.00,Daniel Oduber Quiros Intl
10.595,-61.337,84.3,0.00,Piarco
10.603,-66.991,82.7,0.12,Simon Bolivar Intl
10.711,99.362,85.8,0.00,Chumphon
10.713,122.541,83.4,0.00,Iloilo
10.765,78.71,88.5,0.00,Tiruchirappalli
10.819,106.652,85.8,0.00,Tan Son Nhat Intl
10.85,121.0,84.4,0.00,Cuyo
10.89,-74.781,84.7,0.00,Ernesto Cortissoz
10.913,-63.967,84.0,0.00,Del Caribe Intl Gen Santiago Marino
10.917,-63.967,84.0,0.00,Porlamar (Aeropuerto Int Del Caribe)
10.917,79.833,86.3,0.00,Karaikal
10.933,108.1,84.5,0.00,Phan Thiet
11.031,77.044,81.1,0.16,Coimbatore
11.036,125.742,83.3,0.00,Guiuan
11.067,124.567,67.5,0.02,Ormoc
11.117,72.733,88.4,0.00,M.O. Amini
11.12,-74.231,85.4,0.00,Simon Bolivar
11.133,2.933,91.3,0.00,Kandi
11.15,-60.833,83.7,0.01,Crown Point Airport   Tobago
11.16,-4.331,89.9,0.00,Bobo Dioulasso
11.228,125.028,84.3,0.00,Daniel Z Romualdez
11.25,75.783,84.5,0.00,Kozhikode
11.283,49.183,92.3,0.00,Bosaso
11.35,-5.683,88.6,0.00,Sikasso
11.415,-69.681,83.9,0.00,Jose Leonardo Chirinos
11.417,-85.833,85.7,0.00,Rivas
11.417,-7.5,90.1,0.00,Bougouni
11.526,-72.926,84.2,0.01,Almirante Padilla
11.547,104.844,89.0,0.00,Phnom Penh Intl
11.55,43.133,87.4,0.00,Djibouti/Ambouli
11.598,122.752,84.1,0.00,Roxas
11.667,92.717,85.5,0.00,Port Blair
11.667,125.45,81.4,0.00,Borongan
11.75,-2.933,93.2,0.00,Boromo
11.75,32.783,91.9,0.00,Renk
11.767,79.767,86.5,0.00,Cuddalore
11.767,102.883,85.6,0.00,Khlong Yai
11.783,124.883,83.3,0.00,Catbalogan
11.786,34.337,89.8,0.00,Damazin
11.788,99.805,87.7,0.00,Prachuap
11.883,3.45,97.5,0.00,Gaya
11.991,-83.774,84.2,0.00,Bluefields
12.004,-61.786,83.2,0.00,Point Salines Intl
12.033,0.367,89.3,0.00,Fada N'Gourma
12.1,-85.367,87.0,0.00,Juigalpa
12.131,-68.269,87.6,0.00,Flamingo
12.134,15.034,98.9,0.00,Ndjamena Hassan Djamous
12.141,-86.168,82.1,0.00,Managua Intl / Augusto Cesar Sandino Intl
12.189,-68.96,82.9,0.00,Hato
12.25,109.2,83.8,0.00,Nha Trang
12.275,102.32,86.6,0.00,Trat
12.353,-1.512,93.6,0.00,Ouagadougou
12.362,121.047,85.0,0.00,San Jose
12.369,123.629,84.6,0.00,Masbate
12.383,-5.467,98.1,0.00,Koutiala
12.41,-16.746,75.1,0.00,Cap Skirring
12.467,-3.483,92.5,0.00,Dedougou
12.501,-70.015,85.0,0.00,Reina Beatrix Intl
12.502,124.636,83.1,0.00,Catarman
12.534,-7.95,91.5,0.00,Senou / President Modibo Keita
12.556,-16.282,77.9,0.00,Ziguinchor
12.572,-12.22,92.9,0.00,Kedougou
12.583,122.283,83.7,0.00,Romblon
12.584,-81.711,82.5,0.00,Gustavo Rojas Pinilla
12.6,102.117,86.0,0.00,Chanthaburi
12.633,-87.133,88.2,0.00,Chinandega
12.633,53.9,84.5,0.00,Socotra
12.633,101.35,88.5,0.00,Rayong
12.636,99.952,86.2,0.00,Hua Hin
12.683,100.983,88.2,0.00,Sattahip
12.683,108.083,80.2,0.00,Banmethuot
12.7,28.433,94.9,2.45,En Nahud
12.733,34.133,85.7,0.00,Abu Na'Ama
12.833,45.033,85.0,0.00,Aden
12.85,-11.233,93.9,0.00,Kenieba
12.883,-14.967,84.8,0.00,Kolda
12.917,100.867,87.1,0.00,Phatthaya
12.961,74.89,82.8,0.00,Mangalore
12.967,77.583,78.5,0.00,Bangalore
12.983,8.933,93.3,0.00,Magaria
12.994,80.181,83.5,0.00,Chennai Intl
12.999,100.067,86.4,0.00,Phetchaburi
13.067,-9.467,95.3,0.00,Kita
13.075,-59.492,84.4,0.00,Grantley Adams Intl
13.083,-85.983,75.2,0.00,Jinotega
13.144,-61.211,85.5,0.17,E T Joshua
13.153,30.233,94.4,2.45,El Obeid
13.157,123.746,82.7,0.00,Legazpi
13.167,32.667,93.5,2.45,Kosti/Rabak
13.167,100.8,87.9,0.00,Ko Sichang
13.233,11.983,97.8,0.00,Maine-Soroa
13.283,-87.667,86.7,0.00,Amapala/Los Pelonas
13.3,-87.183,85.2,0.00,Choluteca
13.333,-4.833,97.0,0.00,San
13.338,-16.652,74.1,0.00,Banjul Intl
13.367,100.983,89.2,0.00,Chon Buri/Sattahip / Suvarnabhumi Intl
13.373,12.627,97.7,0.00,Diffa
13.417,121.183,83.8,0.00,Calapan/Mindoro Isl
13.43,-88.12,85.0,0.00,San Miguel/Papalon
13.441,-89.056,83.6,0.00,El Salvador Intl / San Oscar A Romero And Galdamez Intl
13.482,2.184,98.6,0.00,Diori Hamani
13.483,144.8,81.7,0.07,Guam International Airport
13.503,7.127,95.2,0.00,Maradi
13.55,33.617,90.1,0.00,Sennar
13.567,-89.833,85.4,0.00,Acajutla/Sonsonate
13.567,-2.417,93.9,0.00,Ouahigouya
13.576,124.206,81.1,0.00,Virac
13.583,123.267,82.9,0.00,Pili
13.583,144.917,80.8,0.04,Andersen Afb Airport
13.615,25.325,92.0,0.00,El Fashir
13.686,44.139,74.8,0.00,Ganed
13.699,-89.12,78.4,0.00,Ilopango Intl
13.7,102.504,90.3,0.00,Aranyaprathet
13.733,-60.953,83.7,0.15,Hewanorra Intl
13.733,100.567,89.9,0.00,Bangkok Metropolis
13.737,-13.653,92.3,0.00,Tambacounda
13.767,109.217,82.7,0.00,Quy Nhon
13.779,8.984,97.2,0.00,Zinder
13.8,5.25,97.7,0.00,Birni-N'Konni
13.847,20.844,102.6,0.00,Abeche
13.913,100.607,90.1,0.00,Bangkok Intl / Don Mueang Intl
13.936,-90.836,83.3,0.00,San Jose
13.97,-89.53,80.8,0.01,Santa Ana/El Palmar
13.983,10.3,94.2,0.00,Goure
13.983,101.7,87.8,0.00,Kabinburi
14.0,32.333,91.1,0.03,Ed Dueim
14.005,108.017,75.1,0.00,Pleiku
14.017,99.533,90.7,0.00,Kanchana Buri
14.017,121.6,82.0,0.00,Tayabas
14.02,-60.993,86.5,0.00,George F L Charles
14.033,-0.033,97.3,0.00,Dori
14.033,35.4,94.9,0.00,Gedaref/Azaza
14.047,-83.387,85.5,0.00,Puerto Cabezas
14.061,-87.217,75.8,0.00,Toncontin Intl
14.078,101.38,87.0,0.31,Khao E To
14.083,121.05,85.8,0.00,Ambulong
14.1,122.017,82.6,0.00,Alabat
14.129,122.98,81.1,0.00,Daet
14.147,-16.051,78.7,0.00,Kaolack
14.172,145.243,81.2,0.00,Rota International Airport
14.2,1.45,97.6,0.00,Tillabery
14.233,76.433,83.8,0.00,Chitradurga
14.25,13.117,102.1,0.00,N'Guigmi
14.283,74.45,86.3,0.00,Honavar
14.333,-88.167,69.8,0.00,La Esperanza
14.383,-87.617,80.2,0.00,Coronel Enrique Sot
14.4,33.483,92.6,0.00,Wad Medani
14.45,79.983,88.7,0.00,Nellore
14.467,100.133,91.2,0.00,Suphan Buri
14.482,-11.44,97.6,0.00,Kayes/Dag-Dag
14.495,120.904,85.9,0.00,Sangley Point Ab
14.509,121.02,85.7,0.00,Ninoy Aquino Intl
14.513,-4.08,96.9,0.00,Ambodedjo
14.551,46.826,87.5,0.00,Ataq
14.583,-90.527,69.4,0.00,La Aurora
14.583,77.633,88.4,0.00,Pbo Anantapur
14.583,120.983,85.6,0.00,Manila
14.591,-61.003,82.4,0.00,Le Lamentin
14.631,102.721,86.9,0.00,Nangrong
14.65,-16.233,76.7,0.00,Diourbel
14.65,49.367,84.2,0.00,Riyan
14.65,121.05,85.5,0.00,Science Garden
14.717,102.167,88.3,0.00,Chok Chai
14.74,-17.49,70.7,0.00,Leopold Sedar Senghor Intl
14.75,98.633,89.0,0.00,Thong Phaphum
14.75,121.65,82.6,0.02,Infanta
14.753,42.976,87.8,0.00,Hodeidah
14.783,-88.783,79.6,0.00,Santa Rosa De Copan
14.794,-92.37,83.8,0.00,Tapachula Intl
14.8,100.617,89.1,0.00,Lop Buri
14.8,120.267,83.9,0.00,Subic Bay Weather
14.876,5.265,97.4,0.00,Tahoua
14.883,103.5,89.1,0.00,Surin
14.9,-85.933,84.4,0.00,Catacamas
14.917,-92.25,82.7,0.24,Tapachula  Chis
14.935,102.079,90.8,0.00,Khorat
14.999,145.621,84.0,0.00,West Tinian
15.117,145.717,81.4,0.18,Francisco C. Ada/Saipan International Arpt
15.133,108.783,80.4,0.00,Quang Ngai
15.167,-87.117,82.4,0.00,Yoro
15.167,-7.283,99.6,0.00,Nara/Keibane
15.183,120.55,81.8,0.00,Clark Intl
15.186,120.56,81.8,0.00,Clark Intl / Diosdado Macapagal Intl
15.251,104.87,88.4,0.00,Ubon Ratchathani
15.261,-83.781,85.2,0.00,Puerto Lempira
15.267,101.2,90.7,0.00,Bua Chum
15.317,-91.467,63.5,0.00,Huehuetenango
15.317,35.6,93.6,0.00,Halfa El Gaidida
15.317,103.683,90.8,0.00,Tha Tum
15.333,-1.683,98.8,0.00,Hombori
15.333,119.967,83.9,0.00,Iba/Luzon Island
15.337,-61.392,84.1,0.00,Canefield
15.383,-15.117,81.4,0.00,Linguere
15.387,36.329,90.0,2.45,Kassala
15.417,75.633,86.6,0.00,Gadag
15.433,45.333,88.0,0.00,Marib
15.453,-87.924,84.2,0.00,La Mesa Intl / Ramon Villeda Morales Intl
15.467,120.95,85.9,0.00,Cabanatuan
15.476,44.22,66.7,0.00,Sanaa Intl
15.483,73.817,86.5,0.00,Goa/Panjim
15.547,-61.3,85.4,0.00,Melville Hall
15.589,32.553,96.7,2.84,Khartoum
15.65,-13.25,94.2,0.00,Matam/Ouro Sogui
15.657,101.105,89.2,0.00,Wichian Buri
15.673,100.137,92.3,0.00,Nakhon Sawan
15.683,-96.483,84.2,0.00,Puerto Angel  Oax.
15.731,-88.584,80.5,0.00,Puerto Barrios
15.742,-86.853,82.4,0.00,Goloson Intl
15.775,-96.263,84.8,0.00,Bahias De Huatulco Intl
15.776,-87.476,80.9,0.00,Tela
15.8,78.067,88.7,0.00,Kurnool
15.8,102.033,91.2,0.00,Chaiyaphum
15.859,74.618,80.1,0.00,Belgaum
15.877,-97.089,82.7,0.00,Puerto Escondido Intl
15.9,-57.9,81.5,0.00,Buoy 41100 / Lesser Antilles
15.933,-85.933,84.2,0.00,Trujillo
15.967,48.783,88.3,0.00,Sayun
16.017,98.867,81.6,0.00,Umphang
16.044,108.199,79.4,0.00,Danang Intl
16.051,-16.463,72.8,0.00,Saint Louis Ousmane Masseck Ndiaye
16.07,103.646,89.2,0.00,Rob Muang
16.083,120.35,83.2,0.00,Dagupan
16.2,81.15,88.8,0.00,Machilipatnam/Franchpet
16.233,-93.9,88.2,0.00,Arriaga  Chis.
16.248,-0.005,98.0,0.00,Gao
16.25,-92.133,67.8,0.74,Comitan  Chis.
16.25,103.067,90.7,0.02,Kosumphisai
16.265,-61.532,82.7,0.00,Le Raizet
16.317,-86.523,85.2,0.00,Juan Manuel Galvez Intl
16.333,-61.0,83.4,0.00,La Desirade
16.333,103.583,93.1,0.00,Kamalasai
16.375,120.62,68.3,0.00,Baguio
16.402,107.703,81.9,0.00,Phubai
16.449,-95.094,85.1,0.00,Ixtepec
16.467,-86.067,82.0,0.00,Guanaja Island
16.467,102.784,93.1,0.00,Khon Kaen
16.483,99.533,90.2,0.00,Kamphaeng Phet
16.533,104.717,86.9,0.97,Mukdahan
16.533,111.617,84.4,0.00,Sanhu Dao
16.65,-14.967,80.4,0.00,Podor
16.676,101.195,88.9,0.00,Phetchabun
16.7,98.545,88.5,0.00,Mae Sot
16.73,-3.008,95.2,0.00,Tombouctou
16.74,-93.173,82.0,0.00,General Div P A Angel H Corzo Molina / Teran
16.741,-22.949,71.9,0.00,Amilcar Cabral Intl
16.75,-99.75,78.9,0.00,Acapulco  Gro
16.75,-93.133,77.2,0.00,Francisco Sarabia / Tuxtla Gutierrez Intl
16.75,-92.633,72.4,0.00,Sn. Cristobal Las Casas  Chis.
16.757,-99.754,81.6,0.00,General Juan N Alvarez Intl / Acapulco Intl
16.767,101.25,87.0,0.00,Lomsak
16.783,100.279,90.2,0.00,Phitsanulok
16.8,100.767,92.0,0.00,Phitsanulok
16.833,-25.05,73.9,0.00,Mindelo
16.833,112.333,82.2,0.00,Xisha Dao
16.896,99.253,92.6,0.00,Tak
16.901,42.586,88.6,0.00,King Abdullah Bin Abdulaziz
16.907,96.133,89.9,0.00,Yangon Intl
16.914,-89.866,80.0,0.00,Mundo Maya Intl
16.933,54.017,83.4,0.00,Mina Salalah
16.95,82.233,88.0,0.00,Kakinada
16.967,7.967,94.3,0.00,Agadez / Mano Dayak
16.983,73.333,86.7,0.00,Ratnagiri
17.0,-96.733,75.3,0.00,Xoxocotlan Intl / Oaxaca Intl
17.039,54.091,84.9,0.00,Salalah
17.137,-61.793,81.8,0.00,V C Bird Intl
17.15,104.133,86.0,0.20,Sakon Nakhon
17.183,-87.5,90.9,0.00,Half Moon Caye
17.206,-62.59,83.2,0.00,Vance Winkworth Amory Intl
17.233,99.05,91.9,0.00,Bhumibol Dam
17.25,54.083,73.4,0.00,Qairoon Hairiti
17.311,-62.719,82.0,0.16,Robert L Bradshaw
17.384,104.643,91.8,0.00,Nakhon Phanom
17.386,102.788,93.6,0.00,Udon Thani
17.417,104.783,87.8,0.00,Nakhon Phanom
17.439,101.722,86.6,0.00,Loei
17.452,78.461,86.4,0.00,Begumpet Airport / Hyderabad Intl
17.467,47.121,87.7,0.00,Sharurah
17.483,106.6,80.8,0.00,Dong Hoi
17.539,-88.308,83.1,0.00,Philip S W Goldson Intl
17.55,-99.5,75.5,0.00,Chilpancingo  Ro.
17.555,120.356,81.4,0.00,Vigan
17.602,-101.461,82.6,0.00,Ixtapa Zihuatanejo Intl
17.611,44.419,81.3,0.00,Nejran
17.617,100.1,90.7,0.00,Uttaradit
17.628,75.935,87.4,0.08,Solapur
17.638,121.731,84.5,0.00,Tuguegarao
17.666,54.025,87.2,0.00,Thumrait
17.7,-64.813,82.6,0.00,Christiansted/Alex.
17.7,-64.75,82.7,0.00,Lime Tree Bay
17.7,33.967,90.2,0.00,Atbara
17.7,83.3,86.5,0.00,Cwc Vishakhapatnam/Waltair
17.867,102.75,89.1,0.00,Nong Khai
17.9,-62.85,80.8,0.00,Gustavia/St.Barthel
17.936,-76.788,80.9,0.00,Norman Manley Intl
17.97,-67.05,81.3,0.00,Maguesyes Islands
17.983,-92.933,77.7,0.00,Villahermosa  Tab.
17.983,-92.817,85.8,0.00,C P A Carlos Rovirosa Intl / Villahermosa Intl
17.988,102.563,89.2,0.00,Wattay Intl
18.008,-66.563,86.6,0.00,Mercedita
18.041,-63.109,81.4,1.56,Princess Juliana Intl
18.098,-15.948,70.5,0.00,Nouakchott
18.103,-94.581,84.9,0.00,Minatitlan
18.132,100.165,87.8,0.00,Phrae
18.133,55.183,87.4,0.09,Marmul
18.167,97.933,88.8,0.00,Mae Sariang
18.178,120.532,85.9,0.00,Laoag Intl
18.183,-94.5,87.7,0.00,Coatzacoalcos  Ver
18.217,109.583,82.6,0.00,Sanya
18.24,42.657,63.7,0.00,Abha
18.251,-71.12,84.1,0.00,Maria Montez Intl
18.254,-67.149,85.1,0.00,Eugenio Maria De Hostos Airport
18.271,99.504,88.7,0.00,Lampang
18.297,42.804,64.8,0.00,King Khaled Ab
18.303,109.412,81.0,0.00,Sanya Phoenix Intl
18.336,-64.98,82.7,0.01,Cyril E King Airport
18.35,105.9,80.8,0.00,Ha Tinh
18.367,121.633,86.3,0.00,Aparri
18.417,-66.0,79.8,0.42,San Juan Intl Arpt
18.43,-69.669,80.6,0.00,De Las Americas Intl
18.433,-69.883,80.9,0.00,Santo Domingo
18.433,-66.011,81.5,0.42,Luis Munoz Marin In
18.445,-64.543,84.5,0.00,Terrance B Lettsome Intl
18.451,-68.912,84.7,0.00,Casa De Campo Intl
18.47,-69.969,85.1,0.00,Herrera Intl
18.5,-67.133,80.5,0.00,Aquadilla/Borinquen
18.504,-77.913,80.0,0.00,Sangster Intl
18.505,-88.327,81.8,0.00,Chetumal Intl
18.533,73.85,82.1,0.00,Pune
18.55,31.85,86.1,2.76,Karima
18.567,99.033,86.9,0.00,Lamphun
18.58,-72.293,87.4,0.00,Toussaint Louverture Intl / Port Au Prince Intl
18.654,-91.799,84.4,0.00,Ciudad Del Carmen Intl
18.683,12.917,92.4,0.00,Bilma
18.737,105.671,80.8,0.00,Vinh
18.767,79.433,88.7,0.00,Ramgundam
18.767,98.963,86.5,0.00,Chiang Mai Intl
18.808,100.783,85.1,0.00,Nan
18.835,-99.262,85.6,0.00,General Mariano Matamoros / Cuernavaca Intl
18.85,-97.1,73.2,0.44,Orizaba  Ver.
19.05,-104.317,80.7,0.00,Manzanillo  Col.
19.05,-69.383,82.4,0.91,Sabana De La Mar
19.083,82.033,83.0,0.00,Jagdalpur
19.089,72.868,83.6,0.00,Chhatrapati Shivaji Maharaj Intl
19.1,108.617,82.6,0.00,Dongfang
19.117,100.8,84.4,0.00,Tha Wang Pha
19.145,-104.559,81.4,0.00,Playa De Oro Intl / Manzanillo Intl
19.146,-96.187,78.3,0.25,General Heriberto Jara Intl / Veracruz Intl
19.15,-96.117,77.2,0.15,Hacienda Ylang Ylang Veracruz  Ver.
19.154,30.43,86.3,2.76,Dongola
19.158,-98.371,66.3,0.00,Hermanos Serdan Intl / Puebla Intl
19.193,99.9,86.9,0.00,Phayao
19.233,110.467,81.5,0.00,Qionghai
19.277,-103.577,79.5,0.00,Colima
19.283,-99.683,59.8,0.00,Toluca  Mex.
19.283,166.65,78.6,0.00,Wake Island Airfld
19.3,-81.367,82.2,0.00,Owen Roberts Airport
19.301,97.976,93.3,0.00,Mae Hong Son
19.317,-98.25,64.1,0.06,Tlaxcala  Tlax.
19.337,-99.566,61.9,0.00,Licenciado Adolfo Lopez Mateos Intl / Toluca Intl
19.397,-102.039,72.2,0.00,Licenciado Y Gen Ignacio Lopez Rayon / Uruapan
19.406,-70.605,81.8,0.00,Cibao Intl
19.436,-99.072,71.2,0.00,Licenciado Benito Juarez Intl / Mexico City Intl
19.517,109.583,82.3,0.00,Danxian
19.55,-96.917,66.2,0.27,Jalapa  Ver.
19.583,37.217,83.0,2.40,Port Sudan
19.687,-79.883,83.8,0.00,Gerrard Smith Intl / Charles Kirkconnell Intl
19.7,-101.183,75.4,0.00,Morelia  Mich.
19.719,-155.053,73.9,0.00,Hilo International Airport
19.733,-156.033,77.8,0.00,Kona Intl At Keahol
19.75,-155.55,60.5,0.00,Bradshaw Aaf
19.75,-70.55,80.8,0.00,Puerto Plata
19.75,105.783,78.4,0.00,Thanh Hoa
19.758,-70.57,81.8,0.00,Gregorio Luperon Intl
19.817,-90.5,81.9,0.00,Ingeniero Alberto Acuna Ongay Intl / Campeche Intl
19.85,-101.026,73.3,0.00,General Francisco J Mujica Intl / Morelia Intl
19.85,-77.233,79.5,0.00,Cabo Cruz  Granma
19.863,75.398,85.5,0.00,Aurangabad
19.885,99.827,85.3,0.00,Chiang Rai
19.9,-75.15,81.8,0.00,Guantanamo Bay Naval Air Station
19.935,110.459,82.2,0.00,Meilan
19.952,99.883,92.2,0.00,Mae Fah Luang Chiang Rai Intl
19.97,-75.835,79.2,0.00,Antonio Maceo Intl
19.984,42.621,72.3,0.00,Bisha
20.0,110.25,82.3,0.12,Haikou
20.119,73.914,84.5,0.00,Ozar Air Force Station /Nashik Arpt
20.133,-75.233,78.3,0.00,Guantanamo   Guantanamo
20.133,107.717,79.5,0.00,Bach Long Vi
20.244,85.818,90.3,0.00,Bhubaneshwar / Biju Patnaik Intl
20.25,-74.15,75.7,0.00,Punta De Maisi   Guantanamo
20.296,41.634,68.2,0.00,Al Baha / King Saud Bin Abdulaziz
20.433,106.15,79.5,0.00,Nam Dinh
20.433,121.967,78.8,0.00,Basco Radar
20.504,45.2,86.3,0.00,Wadi Al Dawasir
20.517,-86.917,81.6,0.00,Cozumel Intl
20.522,-103.311,73.4,0.00,Don Miguel Hidalgo Y Costilla Intl / Guadalajara Intl
20.603,-97.461,81.4,0.00,Tajin / Poza Rica
20.617,-100.186,74.8,0.00,Queretaro Intercontinental
20.641,-88.446,86.7,0.00,Chichen Itza Intl
20.667,116.717,79.3,0.00,Dongsha Dao
20.675,58.89,88.6,0.00,Masirah
20.68,-105.254,77.8,0.00,Licenciado Gustavo Diaz Ordaz Intl / Puerto Vallarta Intl
20.683,-88.2,79.9,0.00,Valladolid  Yuc.
20.7,77.033,86.0,0.08,Akola
20.783,-156.95,72.2,0.00,Lanai
20.786,-76.315,78.5,0.00,Frank Pais Intl
20.8,106.633,77.3,0.00,Phu Lien
20.8,121.85,77.9,0.00,Itbayat
20.9,-156.429,74.0,0.07,Kahului Airport
20.9,70.367,83.7,0.00,Veraval
20.933,-17.03,65.8,0.00,Nouadhibou
20.937,-89.658,83.0,0.00,Licenciado Manuel Crescencio Rejon Int / Merida Intl
20.95,-156.667,75.5,0.00,Kapalua
20.95,-97.4,76.6,0.09,Tuxpan.Ver.
20.983,-101.483,74.1,0.00,Guanajuato Intl / Leon Intl
21.0,-101.283,70.1,0.00,Guanajuato  Gto.
21.033,-86.867,74.4,0.00,Cancun Intl
21.092,79.047,83.5,0.08,Dr Baba Saheb Ambedkar Intl
21.15,-157.1,72.7,0.00,Molokai (Amos)
21.2,-76.617,76.9,0.00,Puerto Padre   Las Tunas
21.2,72.833,85.3,0.00,Surat
21.217,110.4,76.9,0.07,Zhanjiang
21.221,105.807,79.7,0.00,Noibai Intl
21.233,81.65,86.0,0.00,Pbo Raipur
21.3,-89.65,77.4,0.00,Progreso  Yuc.
21.317,-158.067,75.0,0.00,Kalaeloa Arpt
21.317,-98.817,72.9,0.02,Matlapa  S.L.P.
21.324,-157.929,77.7,0.00,Honolulu International Airport
21.333,39.967,88.6,0.00,Arafat
21.333,103.9,80.0,0.00,Son La
21.383,57.05,92.0,0.00,Qarn Alam
21.4,-77.85,76.5,0.00,Camaguey  Camaguey
21.419,-104.843,75.0,0.00,Tepic
21.42,-77.848,78.6,0.00,Ignacio Agramonte Intl
21.433,39.767,86.7,0.00,Makkah
21.45,-157.768,75.4,0.00,Kaneohe Mcas
21.452,91.964,84.0,0.00,Coxs Bazar
21.483,40.544,68.9,0.00,Taif
21.483,109.1,76.6,0.00,Beihai
21.487,-158.028,71.4,0.00,Wheeler Army Airfield
21.5,101.583,78.9,0.21,Mengla
21.517,86.933,84.6,0.79,Balasore
21.517,107.967,77.7,0.00,Mong Cai
21.616,-81.546,75.8,0.00,Vilo Acuna Intl
21.68,39.157,86.7,0.00,King Abdulaziz Intl
21.705,-102.318,73.5,0.00,Jesus Teran Intl / Aguascalientes Intl
21.733,-82.767,74.7,0.00,La Fe  Isla De La Juventud
21.733,112.767,76.2,0.52,Shangchuan Dao
21.817,31.483,80.6,2.76,Halfa (Wadi)
21.833,106.767,73.0,0.07,Lang Son
21.835,-82.784,75.8,0.00,Rafael Cabrera
21.867,-84.95,72.8,0.00,Cabo San Antonio   Pinar Del Rio
21.867,111.967,73.3,0.52,Yangjiang
21.914,84.05,88.3,0.00,Jharsuguda / Veer Surendra Sai
21.933,-99.983,75.6,0.00,Rio Verde  S.L.P.
21.933,-79.45,73.1,0.00,Sancti Spiritus   Sancti Spiritus
21.95,108.617,75.4,0.12,Qinzhou
21.984,-159.341,75.3,0.00,Lihue Airport
22.0,-98.767,83.0,0.00,Tamuin  S.L.P.
22.0,100.783,79.3,0.00,Jinghong
22.0,120.75,80.6,0.00,Hengchun
22.027,-78.79,80.4,0.00,Maximo Gomez
22.033,-159.783,78.4,0.00,Barking Sands Pacific Missile Range Fac Arpt
22.033,121.55,76.8,0.00,Lan Yu
22.067,-81.033,72.8,0.09,Playa Giron  Matanzas
22.15,-80.414,77.3,0.00,Jaime Gonzalez
22.15,113.592,75.9,0.00,Macau Intl
22.2,-97.85,77.4,0.00,Tampico  Tamps
22.2,114.017,75.0,0.00,Cheung Chau
22.25,91.813,82.5,0.00,Shah Amanat Intl
22.254,-100.931,67.4,0.00,Ponciano Arriaga Intl / San Luis Potosi Intl
22.296,-97.866,78.9,0.00,General Francisco Javier Mina Intl / Tampico Intl
22.3,59.817,83.6,0.00,Ras Al Hadd
22.309,70.78,87.6,0.00,Rajkot
22.309,113.915,77.8,0.00,Hong Kong Intl
22.35,110.933,72.8,2.32,Xinyi
22.367,106.75,72.4,0.08,Longzhou
22.4,114.2,74.4,0.00,Sha Tin
22.417,-83.683,69.0,0.00,Pinar Del Rio
22.433,41.75,84.6,0.00,Muwaih
22.461,-78.328,76.2,0.00,Jardines Del Rey
22.467,113.983,75.7,0.00,Lau Fau Shan
22.5,57.367,91.2,0.00,Adam Airport
22.5,103.967,78.8,0.31,Lao Cai
22.533,59.483,94.5,0.00,Sur
22.533,114.15,74.1,0.00,Ta Kwu Ling
22.567,99.933,70.3,0.37,Lancang
22.577,120.35,81.2,0.00,Kaohsiung Intl
22.608,108.172,71.2,1.12,Wuxu
22.617,101.817,75.0,0.00,Jiangcheng
22.639,113.811,76.5,0.13,Baoan Intl
22.655,88.447,86.2,0.00,Netaji Subhash Chandra Bose Intl
22.667,59.4,89.4,0.00,Qalhat
22.667,106.25,71.5,0.86,Cao Bang
22.722,75.801,86.1,0.00,Devi Ahilyabai Holkar
22.75,121.15,80.4,0.00,Taidong
22.767,-81.533,71.9,0.00,Union De Reyes   Matanzas
22.767,81.9,82.4,0.00,Pendra Road
22.767,100.983,74.3,0.00,Simao
22.783,-102.567,58.5,0.00,Zacatecas  Zac. (La Bufa  Zac.)
22.783,115.367,73.0,2.74,Shanwei
22.8,5.433,82.4,0.00,Tamanrasset
22.8,5.45,82.4,0.00,Tamanrasset
22.809,58.461,90.3,0.00,Ibra
22.813,86.169,88.4,0.00,Jamshedpur
22.817,-80.083,69.8,0.00,Sagua La Grande   Villa Clara
22.867,57.55,90.5,0.00,Nizwa
22.897,-102.687,66.1,0.00,General Leobardo C Ruiz Intl / Zacatecas Intl
22.912,57.257,90.2,0.00,Bahla
22.917,-83.167,69.8,0.00,Bahia Honda  Pinar Del Rio
22.989,-82.409,72.8,0.00,Jose Marti Intl
23.0,120.217,81.5,0.00,Tainan
23.034,-81.435,72.5,0.00,Juan Gualberto Gomez Intl
23.05,112.467,72.3,3.70,Gaoyao
23.067,57.633,70.6,0.00,Saiq
23.077,72.635,90.0,0.00,Ahmedabad / Sardar Vallabhbhai Patel Intl
23.133,35.583,80.2,0.00,Shalatin
23.152,-109.721,78.0,0.00,Los Cabos Intl / San Jose Del Cabo Intl
23.161,-106.266,73.6,0.00,General Rafael Buelna Intl / Mazatlan Intl
23.167,-82.35,70.9,0.00,Casa Blanca   La Habana
23.178,80.052,84.2,0.00,Jabalpur
23.184,89.161,87.2,0.00,Jessore / Jashore
23.2,-106.417,76.8,0.00,Colonia Juan Carrasco Mazatlan  Sin.
23.233,56.433,93.2,0.00,Ibri
23.233,57.267,54.7,0.00,Jabal Shams
23.254,57.928,91.5,0.00,Samail
23.287,77.337,87.7,0.00,Bhopal / Raja Bhoj
23.288,69.67,85.1,0.00,Bhuj
23.3,105.95,67.7,0.97,Napo
23.314,85.322,81.6,0.00,Birsa Munda
23.392,113.299,73.0,4.25,Baiyun Intl
23.4,110.083,71.5,1.82,Guiping
23.4,116.683,71.3,0.86,Shantou / Chaoshan
23.417,57.433,90.9,0.00,Rustaq
23.45,103.333,76.6,0.00,Mengzi
23.467,-75.782,74.8,0.00,George Town
23.483,111.3,70.3,2.16,Wuzhou
23.55,99.4,76.9,0.00,Gengma
23.593,58.284,92.9,0.00,Seeb Intl / Muscat Intl
23.6,101.983,88.5,0.00,Yuanjiang
23.633,-103.65,65.5,0.00,Sombrerete  Zac.
23.633,58.567,92.4,0.00,Mina Sultan Qaboos
23.7,-15.867,66.1,0.00,Villa Cisneros(Mil)
23.704,-98.957,80.8,0.00,General Pedro Jose Mendez Intl / Ciudad Victoria Intl
23.742,-99.17,72.8,0.00,Ciudad Victoria   Tamps.
23.767,-98.2,79.5,0.00,Soto La Marina   Tamps.
23.779,90.383,82.7,1.16,Tejgaon
23.8,114.733,74.0,0.53,Heyuan
23.843,90.398,82.6,0.00,Hazrat Shahjalal Intl
23.883,113.517,74.2,1.19,Fogang
23.887,91.24,82.2,0.12,Agartala
23.9,106.6,72.6,0.62,Baise
23.95,100.217,72.1,0.00,Lincang
23.964,32.82,78.4,0.00,Aswan Intl
24.0,97.85,76.2,0.00,Ruili
24.05,-104.6,68.1,0.00,Durango  Dgo.
24.061,47.411,87.6,0.00,Al Kharj
24.067,105.067,67.2,0.08,Guangnan
24.073,-110.362,76.7,0.00,General Manuel Marquez De Leon Intl / La Paz Intl
24.124,-104.528,70.2,0.00,Durango Intl
24.144,38.063,84.9,0.00,Yenbo / Prince Abdulmohsin Bin Abdulaziz
24.15,120.683,79.3,0.00,Taizhong
24.153,89.049,86.4,0.00,Ishurdi
24.167,-110.3,73.9,0.00,La Paz  Bcs
24.2,110.517,68.5,2.63,Mengshan
24.233,55.783,91.1,0.00,Buraimi (Aut)
24.25,54.55,87.8,0.00,Al Dhafra
24.262,55.609,93.2,0.00,Al Ain Intl
24.283,116.067,73.9,2.16,Mei Xian
24.29,153.979,75.9,0.00,Minami Torishima
24.293,9.452,80.3,0.00,Tiska
24.345,124.187,75.7,0.00,New Ishigaki
24.35,109.4,69.0,0.95,Liuzhou
24.367,114.483,72.3,0.48,Lianping
24.433,54.651,90.3,0.00,Abu Dhabi Intl / Zayed Intl
24.433,123.767,73.8,0.30,Iriomotejima
24.45,44.121,79.7,0.00,Prince Salman Bin Abdulaziz / Al Dawadmi
24.46,-81.88,67.3,0.00,Sand Key  Fl
24.467,56.65,83.2,0.00,Sohar Majis
24.467,122.978,76.8,0.00,Yonaguni
24.467,123.017,74.4,0.16,Yonagunijima
24.533,103.767,66.6,0.10,Luxi
24.544,118.128,71.2,0.44,Gaoqi
24.55,-81.8,69.7,0.00,Key West
24.553,39.705,72.2,0.00,Prince Mohammad Bin Abdulaziz
24.557,-81.755,68.9,0.00,Key West International Airport
24.567,80.833,89.2,0.00,Satna
24.583,-81.683,69.0,0.00,Key West Nas
24.63,-81.11,67.3,0.00,Sombrero Key  Fl
24.633,68.9,86.7,0.00,Badin
24.65,77.317,88.8,0.00,Guna
24.667,113.6,73.6,0.23,Shaoguan
24.7,108.05,70.4,1.75,Hechi
24.72,-81.1,67.4,0.00,Vaca Key
24.722,46.725,84.0,0.00,King Salman Ab
24.733,-81.05,69.0,0.00,Florida Keys Maratho
24.744,84.951,88.7,0.00,Gaya
24.76,93.897,75.6,0.04,Imphal
24.765,-107.475,79.7,0.00,Culiacan Intl
24.783,125.295,75.8,0.00,Miyako
24.784,141.323,74.5,0.00,Iwoto
24.8,112.367,71.4,0.28,Lianzhou
24.827,125.145,76.6,0.00,Shimojishima
24.84,-80.86,66.3,0.00,Long Key  Fl
24.85,89.367,81.3,0.75,Bogra
24.907,67.161,83.8,0.00,Jinnah Intl
24.95,115.65,73.0,1.11,Xunwu
24.958,46.699,83.3,0.00,King Khaled Intl
24.963,91.867,80.6,0.35,Osmani Intl
24.983,98.5,62.8,0.00,Tengchong
24.992,102.744,64.9,0.00,Wujiaba / Changshui
25.0,-111.633,67.5,0.00,Ciudad Constitucion  Bcs
25.01,-80.38,66.0,0.00,Molasses Reef  Fl
25.017,101.517,69.5,0.00,Chuxiong
25.033,121.517,74.8,0.00,Taibei
25.039,-77.466,72.8,0.00,Nassau Intl / Lynden Pindling Intl
25.068,61.805,83.2,0.00,Jiwani
25.069,121.552,74.1,0.00,Songshan
25.078,121.233,72.9,0.00,Chiang Kai Shek Intl / Taoyuan Intl
25.08,-81.09,65.7,0.06,Nfb - Northwest Florida Bay  Fl
25.112,56.324,86.2,0.00,Fujairah Intl
25.117,51.317,89.2,0.00,Al Udeid
25.117,99.183,65.6,0.00,Baoshan
25.15,51.333,75.0,0.01,Al Udeid Ab / Test
25.16,75.846,90.1,0.00,Kota
25.218,110.039,67.1,0.57,Liangjiang
25.233,86.95,86.5,0.00,Bhagalpur
25.255,55.364,87.2,0.00,Dubai Intl
25.261,51.565,84.9,0.00,Doha Intl
25.283,60.617,82.2,0.00,Chahbahar
25.285,49.485,91.6,0.00,Al Ahsa
25.29,63.344,82.6,0.00,Pasni
25.3,117.4,72.6,0.77,Zhang Ping
25.329,55.517,85.3,0.00,Sharjah Intl
25.35,-105.75,74.4,0.00,Tepehuanes  Dgo.
25.367,-101.017,72.0,0.13,Plan De Guadalupe Intl / Saltillo Intl
25.383,68.417,86.8,0.00,Hyderabad Airport
25.433,60.367,80.2,0.00,Konarak
25.433,105.183,64.2,0.33,Xingren
25.433,106.767,71.5,0.12,Luodian
25.44,81.734,89.0,0.00,Allahabad Arpt
25.45,30.533,71.8,0.00,Kharga
25.45,82.867,89.6,0.00,Lal Bahadur Shastri Varanasi Intl
25.483,-80.383,65.2,0.00,Homestead Afb Airport
25.5,28.967,72.9,0.00,Dakhla
25.517,69.783,89.0,0.00,Chhor
25.517,119.783,69.4,0.08,Pingtan
25.557,34.582,75.7,0.00,Marsa Alam Intl
25.568,-103.411,82.4,0.00,Torreon Intl
25.583,103.833,60.9,0.00,Zhanyi
25.59,-80.1,66.1,0.00,Fowey Rocks  Fl
25.591,85.088,92.1,0.00,Jai Prakash Narayan Intl Patna
25.613,55.939,85.7,0.00,Ras Al Khaimah Intl
25.617,56.25,83.6,0.00,Diba
25.633,122.067,71.2,0.00,Pengjia Yu
25.65,-80.433,64.6,0.00,Kendall Tamiami Exec
25.654,57.799,84.1,0.00,Jask
25.671,32.707,76.7,0.00,Luxor Intl
25.685,-109.081,78.8,0.00,Valle Del Fuerte Intl / Los Mochis Intl
25.7,100.183,64.3,0.00,Dali
25.717,118.1,57.1,0.83,Jiuxian Shan
25.73,-80.15,66.9,0.00,Virginia Key
25.733,-100.3,71.2,0.11,Monterrey  N.L.
25.733,89.233,77.3,0.24,Rangpur
25.733,101.867,80.3,0.00,Yuanmou
25.733,112.967,74.8,0.00,Chenzhou
25.77,-97.525,78.3,0.00,General Servando Canales Intl / Matamoros Intl
25.778,-100.107,73.9,0.00,General Mariano Escobedo Intl / Monterrey Intl
25.788,-80.317,66.9,0.00,Miami International Airport
25.833,54.833,82.0,0.00,Abu Musa
25.833,107.55,60.5,0.39,Dushan
25.847,131.263,73.3,0.00,Minami Daito
25.85,114.95,76.4,0.00,Ganzhou
25.85,116.367,75.0,0.00,Changting
25.866,-100.237,77.0,0.00,Del Norte Intl
25.867,54.483,84.2,0.00,Siri Island
25.867,55.033,83.2,0.00,Abumusa Island
25.9,-80.283,66.3,0.00,Opa Locka
25.9,54.533,86.0,0.00,Sirri Island
25.914,-97.423,74.4,0.02,Brownsville/S Padre Island Intl Ap
25.967,108.533,67.3,0.43,Rongjiang
25.967,117.35,75.5,0.04,Yong'An
25.989,-111.348,71.3,0.00,Loreto Intl
26.0,-80.233,66.9,0.00,North Perry
26.009,-98.229,80.8,0.00,General Lucio Blanco Intl / Reynosa Intl
26.05,-97.22,74.0,0.00,Port Isabel
26.072,-80.154,65.8,0.00,Fort Lauderdale Hol
26.083,119.283,71.9,0.02,Fuzhou
26.106,91.586,78.1,0.16,Guwahati Intl / Lokpriya Gopinath Bordoloi Intl
26.12,-81.8,64.5,0.00,Naples
26.133,34.25,73.8,0.00,Kosseir
26.155,-81.775,65.0,0.00,Naples Municipal Airport
26.166,-97.346,74.7,0.03,Port Isabel-Cameron Co Apt
26.167,56.233,90.7,0.00,Khasab Airport
26.167,109.783,65.2,0.22,Tongdao
26.179,-97.974,75.6,0.00,Mid Valley Arpt / Weslaco
26.184,-98.254,75.8,0.02,Mc Allen Miller Intl Arpt
26.196,127.646,75.3,0.00,Naha
26.199,36.476,77.2,0.00,Wejh
26.2,-80.167,65.4,0.00,Fort Lauderdale Exec
26.2,32.75,79.3,0.00,South Of Valley University
26.2,127.683,75.5,0.18,Naha
26.219,68.39,88.8,0.00,Nawabshah
26.228,-97.654,74.4,0.16,Valley International Arpt
26.233,111.617,71.4,0.00,Lingling
26.25,-80.117,65.1,0.01,Pompano Beach Airpar
26.251,73.049,90.7,0.00,Jodhpur
26.265,50.152,87.0,0.00,King Abdulaziz Ab
26.267,127.75,75.4,0.00,Okinawa Marine Corps Air Station
26.271,50.634,83.8,0.00,Bahrain Intl
26.293,78.228,91.5,0.00,Gwalior
26.3,43.767,78.9,0.00,Gassim
26.35,127.767,74.2,0.00,Kadena Ab
26.364,126.714,73.5,0.08,Kumejima
26.378,-80.108,68.4,0.00,Boca Raton
26.4,103.25,57.3,0.93,Huize
26.433,49.8,88.0,0.00,Dammam (King Fahd Int. Airport)
26.442,-98.122,74.2,0.00,Edinburg Intl
26.45,49.817,88.1,0.00,K.F.I.A. (King Fahad Int. Airport) Damma
26.5,53.983,83.3,0.00,Kish Island
26.517,53.983,82.6,0.00,Kish Island
26.526,-98.063,74.7,0.00,Edinburg 17 Nne
26.532,54.825,86.0,0.00,Bandar Lengeh
26.533,-81.75,64.9,0.00,Southwest Florida I
26.539,106.801,58.8,0.02,Longdongbao
26.559,-78.696,70.7,0.00,Grand Bahama Intl
26.585,-81.861,64.4,0.00,Page Field Airport
26.6,127.967,73.5,0.12,Nago
26.617,92.783,74.9,0.51,Tezpur
26.633,118.15,75.4,0.10,Nanping
26.65,-81.87,65.1,0.00,Ft Myers
26.65,102.25,65.6,0.23,Huili
26.685,-80.099,64.7,0.08,Palm Beach International Airport
26.7,-79.0,69.4,0.00,Settlement Point  Gbi
26.724,8.623,92.1,0.00,Illizi Takhamalt / Ibrahim Ghouma
26.733,-108.283,78.4,0.00,Choix  Sin.
26.733,110.633,70.3,0.00,Wugang
26.74,83.45,88.9,0.00,Gorakhpur
26.751,55.898,81.0,0.00,Dayrestan / Gheshm
26.761,80.889,88.7,0.00,Lucknow / Chaudhary Charan Singh Intl
26.824,75.812,88.4,0.00,Jaipur
26.833,100.217,61.9,0.00,Lijing
26.85,68.133,88.2,0.00,Padidan
26.85,116.333,73.7,0.00,Guangchang
26.867,104.283,51.4,0.28,Weining
26.9,70.917,91.3,0.00,Jaisalmer
26.92,-81.983,62.4,0.00,Charlotte Co
26.933,-105.667,62.6,0.00,Hidalgo Del Parral   Chih.
26.955,64.133,81.1,0.00,Panjgur
26.956,-101.47,76.8,0.00,Monclova Intl
26.967,108.667,61.8,0.11,Sansui
26.983,44.117,81.1,0.00,Al-Dawadami
27.047,31.012,67.9,0.00,Asyut Intl
27.05,27.983,68.2,0.00,Farafra
27.07,-82.45,63.0,0.00,Venice  Fl
27.092,142.191,72.5,0.00,Chichi Jima Bonin Island
27.117,114.967,73.8,0.00,Ji'An
27.12,57.1,91.4,0.00,Minab
27.152,-13.219,65.9,0.00,Hassan I
27.156,77.961,87.6,0.00,Agra
27.16,-82.95,64.1,0.00,Na2 - Navy-2
27.178,33.799,73.8,0.00,Hurghada Intl
27.183,-80.217,68.9,0.00,Witham Fld
27.183,111.45,73.1,0.00,Shaoyang
27.2,-98.117,70.5,0.00,Brooks Co
27.218,56.378,84.1,0.00,Bandar Abbas Intl
27.236,60.72,91.3,0.00,Iran Shahr
27.3,105.233,58.6,0.06,Bijie
27.3,112.7,63.3,0.00,Nanyue
27.333,62.333,81.5,0.00,Saravan
27.333,103.75,56.2,0.11,Zhaotong
27.333,117.467,72.1,0.00,Shaowu
27.333,120.2,71.0,0.00,Fuding
27.35,-98.733,67.3,0.00,Jim Hogg Co
27.383,-82.55,62.8,0.00,Sarasota Bradenton
27.393,-109.833,75.8,0.00,Santa Rosalia  Bcs
27.426,128.701,72.1,0.06,Okierabu
27.438,41.686,71.4,0.00,Hail
27.444,-99.57,74.6,0.00,Quetzalcoatl Intl / Nuevo Laredo
27.45,109.683,66.2,0.01,Zhijiang
27.483,-80.367,60.1,0.00,St Lucie Co Intl
27.484,95.017,78.1,0.00,Dibrugarh
27.5,-97.817,72.1,0.30,Kingsville Nas
27.533,-99.467,72.9,0.00,Laredo Afb
27.55,-99.467,72.7,0.22,Laredo Intl Airport
27.58,-97.22,71.3,0.00,Malaquite Beach
27.583,116.65,73.7,0.00,Nancheng
27.65,-80.417,61.1,0.00,Vero Beach Muni
27.653,-80.243,60.5,0.00,Vero Beach Muni
27.667,68.9,87.4,0.00,Rohri
27.674,54.383,88.3,0.00,Lar
27.683,-97.283,70.8,0.20,Corpus Christi Nas
27.697,85.359,73.9,0.08,Tribhuvan Intl
27.7,-8.167,75.3,0.00,Tindouf
27.7,106.883,63.3,0.81,Zunyi
27.733,89.083,38.4,0.06,Pagri
27.741,-98.025,68.9,0.07,Alice International Arpt
27.75,-82.62,63.6,0.00,St Petersburg
27.765,-82.628,65.6,0.00,Albert Whitted Airport
27.767,118.033,72.2,0.06,Wuyishan
27.774,-97.512,69.8,0.03,Corpus Christi International Airport
27.783,-97.683,70.1,0.00,Ueces Co
27.783,120.65,68.1,0.00,Ruian
27.8,114.383,74.4,0.00,Yichun
27.815,-17.887,66.5,0.00,Hierro
27.83,-97.05,70.4,0.00,Port Aransas  Tx
27.833,-97.067,71.6,0.00,Mustang Beach
27.833,66.633,76.4,0.02,Khuzdar
27.838,-0.186,89.8,0.00,Touat Cheikh Sidi Mohamed Belkebir
27.85,-82.517,62.5,0.00,Mac Dill Afb Airport
27.9,-82.683,64.7,0.00,St Petersburg Clear
27.9,102.267,63.0,0.63,Xichang
27.901,45.528,81.0,0.00,King Khaled Military City / King Saud Ab
27.91,-95.36,69.9,0.00,Freeport  Tx. 60 Nm South Of Freeport  T
27.917,118.533,72.0,0.00,Pucheng
27.932,-15.387,66.1,0.00,Gran Canaria
27.95,-81.783,65.7,0.00,Bartow Municipal Airport
27.95,108.25,68.1,0.39,Sinan
27.962,-82.54,61.8,0.00,Tampa International Airport
27.967,34.383,75.9,0.00,Sharm El Sheikh Int
27.969,-110.925,75.9,0.00,General Jose Maria Yanez Intl / Guaymas Intl
27.983,-82.017,65.1,0.00,Lakeland Linder Rgn
28.0,73.3,87.6,0.00,Bikaner
28.014,-82.345,59.4,0.00,Vandenberg Airport
28.044,-16.572,66.9,0.00,Tenerife Sur
28.052,9.643,85.0,0.00,In Amenas
28.083,-97.05,70.1,0.00,Aransas Co
28.083,30.733,65.5,0.00,Minya
28.101,-80.644,59.9,0.00,Melbourne Intl Ap
28.117,112.783,75.4,0.00,Changsha
28.15,-82.75,65.5,0.00,Tas - Tarpon Springs  Fl
28.189,113.22,75.1,0.00,Huanghua
28.2,-177.383,72.3,0.10,Henderson Field Airport
28.209,33.646,70.2,0.00,El Tor
28.233,-80.6,64.4,0.00,Patrick Afb Airport
28.28,-82.73,63.3,0.06,Pas -Port Richey  Fl
28.284,68.45,85.9,0.00,Shahbaz Ab
28.29,-81.437,66.5,0.00,Kissimmee Gateway
28.3,-83.3,63.4,0.00,Cmp4 - Pasco County Buoy  Fl
28.333,28.867,65.4,0.00,Baharia
28.335,46.125,82.7,0.00,Al Qaisumah Intl
28.365,36.619,71.8,0.00,Tabuk / Prince Sultan Bin Abdulaziz
28.394,129.553,70.6,0.35,Naze/Funchatoge
28.417,92.467,47.4,0.01,Lhunze
28.42,-80.58,63.0,0.00,Trident Pier
28.422,79.451,89.3,0.00,Bareilly
28.43,-82.66,62.3,0.00,Apk - Aripeka  Fl
28.431,129.713,71.6,0.00,Amami
28.434,-81.325,61.5,0.00,Orlando International Airport
28.448,-11.161,63.4,0.00,Plage Blanche
28.45,-16.25,67.3,0.00,Sta. Cruz De Tenerife
28.45,98.883,46.2,0.00,Deqen
28.45,119.917,71.4,0.00,Lishui
28.45,121.883,60.6,0.00,Dachen Dao
28.453,-13.864,67.6,0.00,Fuerteventura
28.457,-99.218,68.1,0.00,Cotulla-La Salle Co Arpt
28.467,110.4,71.7,0.00,Yuanling
28.474,-82.455,67.3,0.00,Hernando Co
28.483,-16.342,57.4,0.00,Tenerife Norte
28.51,-84.51,63.3,0.00,W. Tampa  106Nm West Northwest Of Tampa
28.517,-80.8,63.4,0.00,Space Coast Rgnl
28.533,-90.583,70.2,0.00,South Timbalier
28.545,-81.333,63.0,0.00,Executive Airport
28.567,77.103,90.6,0.00,Indira Gandhi Intl
28.585,77.206,87.3,0.00,Safdarjung
28.615,-80.694,61.1,0.00,Nasa Shuttle Landing
28.626,-17.756,66.5,0.00,La Palma
28.627,-100.535,76.3,0.01,Piedras Negras Intl
28.633,-106.083,68.4,0.00,Chihuahua  Chih.
28.633,87.083,44.3,0.00,Tingri
28.65,-96.683,64.6,0.00,Calhoun Co
28.65,70.683,81.3,0.00,Khanpur
28.703,-105.965,69.8,0.00,General R Fierro Villalobos Intl / Chihuahua Intl
28.725,-96.254,64.9,0.00,Palacios Municipal Airport
28.77,-82.71,63.2,0.06,Hom - Homosassa  Fl
28.78,-81.244,61.7,0.00,Orlando Sanford Airport
28.783,105.383,73.7,0.01,Naxi
28.8,104.6,76.1,0.00,Yibin
28.817,62.75,83.8,0.00,Nokkundi
28.823,-81.809,61.4,0.00,Leesburg Rgnl
28.833,108.767,65.1,0.07,Youyang
28.85,121.133,70.0,0.00,Linhai (Replaced By 58652 - Xianju)
28.861,-96.93,62.9,0.00,Victoria Regional Airport
28.865,115.9,74.1,0.00,Changbei Intl
28.883,64.4,82.0,0.00,Dal Bandin
28.892,53.723,71.3,0.00,Fasa
28.9,-89.43,64.0,0.00,Southwest Pass  La
28.9,33.183,69.9,0.00,Aburdees
28.9,48.18,84.3,0.00,Camp Arifjan
28.933,47.783,68.8,0.00,Ahmed Al Jaber
28.945,-13.605,66.4,0.00,Lanzarote
28.945,50.835,83.2,0.00,Bushehr
28.95,-81.967,56.7,0.00,The Villages
28.95,50.85,81.7,0.00,Bushehr
28.967,-95.867,63.2,0.00,Bay City Muni
28.967,118.867,70.1,0.00,Qu Xian
29.0,101.5,41.4,1.29,Jiulong
29.033,114.583,70.4,0.00,Xiushui
29.05,-90.53,65.2,0.00,Isle Dernieres  La / Csi05
29.05,100.3,41.2,0.37,Daocheng
29.05,111.683,74.3,0.00,Changde
29.056,-80.948,62.5,0.00,New Smyrna Beach Mun
29.084,58.45,84.1,0.00,Bam
29.096,-111.048,70.3,0.00,General Ignacio P Garcia Intl / Hermosillo Intl
29.117,-95.467,64.0,0.03,Brazoria Co
29.14,-83.03,60.5,0.00,Cedar Key
29.167,-82.217,55.9,0.00,Ocala Intl J Taylor
29.179,75.755,86.2,0.08,Hisar
29.18,-88.21,64.9,0.00,Mobile South 64 Nm South Of Dauphin Isla
29.183,-81.048,59.3,0.00,Daytona Beach Intl
29.19,-90.67,65.5,0.00,Tambour Bay  La
29.2,25.483,69.3,0.00,Siwa
29.2,121.95,60.5,0.00,Shipu
29.217,-99.75,66.3,0.00,Garner Fld
29.227,47.969,86.4,0.00,Kuwait Intl
29.233,56.567,65.4,0.00,Baft
29.237,0.276,89.6,0.00,Timimoun
29.25,-94.41,65.9,0.00,Galveston  22Nm East Of Galveston  Tx.
29.25,-90.66,64.5,0.00,Lumcon Marine Center  La
29.25,88.883,51.7,0.00,Xigaze
29.254,-96.154,63.4,0.00,Wharton Rgnl
29.27,-89.96,64.3,0.00,Grand Isle  La
29.273,-94.859,66.5,0.00,Scholes Intl At Glston Apt
29.28,-94.78,66.4,0.00,Galveston Pleasure
29.3,-81.117,64.0,0.00,Ormond Beach Muni
29.3,117.2,73.6,0.00,Jingdezhen
29.33,47.517,86.0,0.00,Ali Al Salem
29.333,-89.408,61.3,0.09,Baton Rouge Metro R
29.339,-98.472,65.3,0.00,Stinson Minicipal Airport
29.36,-99.174,65.5,0.00,Hondo Municipal Airport
29.367,-100.783,77.5,0.00,Laughlin Afb Airport
29.369,-10.18,62.3,0.00,Sidi Ifni
29.378,-100.927,70.4,0.00,Del Rio International Airport
29.383,-98.583,69.6,0.00,Lackland Air Force Base (Kelly Field Annex)
29.383,113.083,76.4,0.00,Yueyang
29.4,110.167,69.9,0.00,Sangzhi
29.41,-84.86,62.3,0.00,Tyndall Afb Tower C (N4)  Fl
29.44,-92.06,65.8,0.00,Marsh Island  La / Csi03
29.467,55.717,73.2,0.00,Sirjan
29.476,60.907,74.1,0.00,Zahedan Intl
29.48,-94.92,66.2,0.00,Eagle Point
29.517,-95.25,63.9,0.01,Pearland Rgnl
29.517,12.933,76.5,0.00,El Hamada
29.517,103.333,43.0,0.01,Emei Shan
29.533,-98.262,64.7,0.00,Randolph Afb Airport
29.539,52.589,73.1,0.00,Shiraz Shahid Dastghaib Intl
29.544,-98.484,64.7,0.00,San Antonio International Airport
29.56,-91.533,63.1,0.04,Salt Point
29.561,34.96,74.7,0.00,Eilat
29.566,-90.66,62.8,0.00,Houma-Terrebonne Airport
29.567,94.467,52.5,0.24,Nyingchi
29.583,32.717,67.0,0.00,Ras Sedr
29.583,115.983,65.4,0.00,Lu Shan
29.6,34.767,60.7,0.00,Taba Intl
29.6,120.817,69.3,0.00,Shengxian
29.612,35.018,73.3,0.00,Aqaba King Hussein Intl
29.617,-95.65,64.3,0.01,Suger Land Rgnl
29.617,-95.167,64.2,0.00,Ellington Field Airport
29.626,43.491,76.9,0.00,Rafha
29.633,-83.105,55.0,0.00,Cross City Airport
29.638,-95.282,63.9,0.00,William P Hobby
29.667,91.133,52.2,0.02,Lhasa / Gonggar
29.67,-94.05,65.1,0.00,Sabine  Tx
29.68,-94.98,66.6,0.00,Morgans Point
29.692,-82.276,57.3,0.09,Gainesville Rgnl
29.7,-91.1,66.7,0.00,Amelia / Lake Palourd
29.7,47.433,86.2,0.00,Camp Udairi
29.709,-98.046,63.4,0.00,New Braunfels Municipal Ap
29.717,-91.333,60.9,0.00,Harry P Williams Mem
29.719,106.642,73.7,0.01,Jiangbei
29.73,-93.87,65.2,0.00,Sabine Pass North
29.733,-85.033,57.7,0.00,Apalachicola Muni Airport
29.784,-93.3,65.5,0.00,Cameron
29.785,40.1,68.5,0.00,Al Jouf
29.817,-90.017,61.5,0.00,New Orleans Nas
29.82,-83.59,58.8,0.00,Keaton Beach
29.86,-81.26,57.5,0.00,St. Augustine  Fl
29.883,69.717,69.3,0.00,Bar Khan
29.9,-97.867,62.8,0.23,San Marcos Muni
29.908,-96.95,62.5,0.00,Fayette Rgnl Air Cntr
29.917,33.733,61.2,0.00,Nekhel
29.94,34.936,64.1,0.00,Ovda
29.947,-100.174,63.9,0.00,Edwards Co
29.95,73.25,82.0,0.00,Bahawalnagar
29.951,-94.021,61.6,0.00,Southeast Texas Regional Airport
29.967,-81.333,57.3,0.00,St Augustine
29.977,-99.086,62.4,0.00,Kerrville Muni
29.98,-95.36,63.9,0.00,G Bush Intercontinental Ap/Houston Ap
29.983,103.0,73.9,0.00,Ya'An
29.997,-90.278,63.4,0.00,Louis Armstrong New Orleans Intl Ap
30.0,-80.6,62.5,0.00,St. Augustine  Fl 40Nm Ene Of St Augusti
30.0,99.1,55.4,0.09,Batang
30.0,100.267,38.1,0.11,Litang
30.033,-91.883,62.6,0.28,New Iberia/Acadiana
30.033,122.117,63.3,0.00,Dinghai
30.046,-102.213,67.3,0.01,Terrell Co
30.049,-90.029,64.7,0.00,Lakefront Airport
30.05,101.967,51.1,0.00,Kangding
30.067,-95.55,62.4,0.16,Houston/D.W. Hooks
30.067,-85.583,61.8,0.00,Tyndall Afb Airport
30.069,-83.581,57.0,0.00,Perry Foley
30.092,-91.873,60.7,0.00,Lafayette 13 Se
30.122,31.406,66.5,0.00,Cairo Intl
30.125,-93.228,62.1,0.00,Lake Charles Regional Airport
30.133,118.15,56.8,0.00,Huang Shan
30.167,35.783,62.4,0.00,Ma'An
30.169,-96.98,61.8,0.00,Giddings-Lee County Airport
30.183,-97.68,63.5,0.10,Austin-Bergstrom Intl Airport
30.2,-85.683,58.8,0.00,Panama City Bay Co
30.203,71.419,73.1,0.22,Multan Intl
30.205,-91.988,62.4,0.00,Lafayette Regional Airport
30.21,-93.143,66.3,0.00,Chennault International Ap
30.219,-96.374,63.4,0.00,Brenham Muni
30.219,-81.877,61.6,0.00,Cecil Fld
30.22,-85.88,58.9,0.00,Panama City Beach
