lat,lon,temp,precip,name
-90.0,0.0,-80.6,0.00,Amundsen-Scott
-89.983,0.0,-79.2,0.00,South Pole Station
-89.0,-1.017,-76.4,0.00,Henry
-89.0,89.667,-77.3,0.00,Nico
-85.667,-46.383,-57.3,0.00,Ago-2
-85.2,-87.883,-34.9,0.00,Thiel Mtns Aws
-84.6,-115.817,-14.5,0.00,Theresa
-83.867,129.617,-70.1,0.00,Ago-1
-83.133,174.167,4.9,0.00,Elaine
-83.0,-121.383,-13.8,0.00,Harry
-82.767,-13.05,-59.5,0.00,Baldrick Aws
-82.767,28.583,-68.9,0.00,Ago-3
-82.617,-137.083,-7.8,0.00,Elizabeth
-82.517,-174.45,-19.6,0.00,Lettau
-81.65,-148.783,-17.9,0.00,Siple Dome
-80.37,77.37,-70.4,0.00,Dome Plateau Dome A
-80.0,-119.4,-21.8,0.00,Byrd Station
-79.983,-178.6,-42.2,0.00,Gill
-79.95,165.117,-8.3,0.00,Marilyn
-79.9,169.983,-12.2,0.00,Schwerdtfeger
-78.467,168.383,-5.4,0.00,Linda
-77.95,166.5,-5.9,0.00,Pegasus North
-77.9,170.817,-10.5,0.00,Ferrell
-77.867,-34.617,10.7,0.00,Base Belgrano Ii
-77.85,166.667,0.9,0.00,Mcmurdo
-77.433,163.75,1.6,0.00,Marble Point
-77.317,39.7,-86.8,0.00,Dome Fuji
-76.717,162.967,-2.6,0.00,Cape Ross
-76.42,77.02,-47.9,0.00,Dome Plateau Eagle
-75.867,-59.15,-17.9,0.00,Univ. Wi Id 8925 (Limbert Aws)
-75.61,-26.272,0.6,0.00,Halley
-75.58,-26.17,-0.1,0.00,Brunt Aws
-75.533,145.867,-52.0,0.00,Mid Point
-75.117,123.367,-46.1,0.00,Dome C Ii
-75.1,123.4,-50.7,0.00,Concordia
-75.0,0.0,-52.2,0.00,Kohnen / Ep9
-74.95,163.683,-8.8,0.00,Manuela
-74.8,-71.483,-6.3,0.00,Univ. Wi Id 8917 (Ski-Blu)
-74.7,164.1,-1.3,0.00,Base Baia Terra Nova
-74.017,43.05,-66.3,0.00,Relay Stat
-73.633,160.65,-39.9,0.00,Priestley Glacier
-73.517,169.75,-9.7,0.00,Cape Phillips
-73.117,-13.15,2.5,0.00,Wasa Eps
-73.05,-13.383,0.3,0.00,Nordenskiold Base
-72.2,-60.167,-6.9,0.00,Univ. Wi Id 8902 (Butler Island)
-72.017,2.533,-11.2,0.00,Troll In Antarktis
-71.883,171.2,-4.7,0.00,Possession Is
-71.7,-2.8,2.4,0.00,S.A.N.A.E. Aws
-71.317,-68.283,6.3,0.00,Fossil Bluff
-71.15,-6.683,3.5,0.00,Halvfarryggen (Ep11)
-70.9,69.867,-12.6,0.00,G3
-70.767,11.75,12.5,0.00,Maitri
-70.767,11.833,10.2,0.00,Novolazarevskaja
-70.667,-8.25,-3.2,0.00,Neumayer
-69.383,76.383,7.9,0.00,Progress
-69.367,76.367,6.9,0.00,Zhongshan
-69.117,85.983,-18.4,0.00,Mount Brown
-69.0,39.583,20.5,0.00,Syowa
-68.583,77.967,1.8,0.00,Davis
-68.117,-67.133,25.0,0.71,Base San Martin
-67.6,62.867,7.5,0.00,Mawson
-67.567,-68.117,25.4,0.00,Rothera
-67.4,138.733,-1.7,0.00,D-47
-67.017,-61.467,-0.8,0.00,Univ. Wi Id 8926 (Larsen Ice Shelf)
-66.717,139.833,15.5,0.00,D-10
-66.667,140.017,21.6,0.00,Dumont D'Urville
-66.55,93.017,18.5,0.00,Mirnyj
-66.55,107.75,24.7,0.00,Snyder Rocks
-66.283,110.533,26.0,0.00,Casey
-65.85,113.067,23.2,0.00,Cape Poinsett
-65.25,-64.267,29.2,0.00,Vernadsky
-64.766,-64.083,29.3,0.00,Palmer Station
-64.233,-56.717,2.1,0.00,Base Marambio (Centro Met. Antartico)
-63.4,-56.983,9.8,0.08,Base Esperanza
-63.317,-56.683,21.4,0.08,Base Bernardo O'Higgins
-62.5,-59.683,24.2,0.04,Base Arturo Prat
-62.233,-58.633,23.9,0.00,Base Carlini
-62.217,-58.967,25.1,0.08,Great Wall
-62.217,-58.75,28.2,0.00,King Sejong
-62.183,-58.983,23.4,0.08,Centro Met. Antartico Pdte. Eduardo Frei
-62.183,-58.883,25.1,0.36,Bellingshausen Aws
-62.183,-58.85,26.8,0.16,Dinamet-Uruguay
-60.733,-44.733,32.0,0.00,Base Orcadas
-59.45,-27.317,57.7,0.00,South Thule Is.
-54.933,-67.633,41.6,0.00,Guardiamarina Zanartu
-54.843,-68.296,41.6,0.12,Ushuaia Malvinas Argentinas
-54.499,158.937,39.6,0.11,Macquarie Island
-53.778,-67.749,41.7,0.00,Rio Grande
-53.254,-70.319,43.6,0.00,Capitan Fuentes Martinez
-53.1,73.717,39.7,0.00,Heard Island (The Spit)
-53.017,73.4,35.4,0.00,Heard Island (Atlas Cove)
-53.003,-70.855,42.8,0.00,Carlos Ibanez Del Campo Intl
-52.55,169.15,41.4,0.30,Cambell Island Aws
-51.823,-58.447,40.1,0.04,Mount Pleasant
-51.671,-72.528,54.0,0.00,Teniente Julio Gallardo
-51.609,-69.313,46.8,0.20,Rio Gallegos
-50.483,166.3,42.3,0.14,Enderby Island Aws
-50.267,-72.05,51.4,0.00,El Calafate Aero
-49.35,70.25,36.7,0.00,Port-Aux-Francais (Iles Kerguelen)
-49.307,-67.803,50.6,0.00,San Julian
-47.98,168.62,54.1,0.00,South Island
-47.735,-65.904,58.9,0.00,Puerto Deseado
-47.267,167.45,45.5,0.00,South West Cape Aws
-47.244,-72.588,46.8,0.00,Cochrane
-46.875,37.86,47.4,0.09,Marion Island
-46.583,-71.687,60.0,0.84,Chile Chico
-46.433,51.85,46.1,0.02,Alfred Faure (Iles Crozet)
-46.417,168.333,41.7,0.46,Invercargill Airport Aws
-46.15,166.6,47.6,0.72,Puysegur Point Aws
-45.917,170.183,44.2,0.00,Dunedin Aerodrome Aws
-45.916,-71.689,46.5,0.00,Balmaceda
-45.785,-67.466,57.2,0.00,Comodoro Rivadavia
-45.594,-72.106,54.5,0.00,Teniente Vidal
-45.4,-72.7,52.4,0.00,Puerto Aysan / Cabo Juan Roman
-45.217,166.883,44.9,0.75,Secretary Island Aws
-45.017,168.733,42.1,0.00,Queenstown Aerodrome
-44.3,171.233,44.4,0.25,Timaru Aerodrome Aws
-43.95,-176.567,55.6,0.03,Chatham Islands Aws
-43.894,-73.74,52.0,0.00,Ad Melinka
-43.867,169.0,52.4,0.20,Haast Aws
-43.65,146.267,55.8,0.01,Maatsuyker Island Lighthouse
-43.617,-71.817,50.5,0.00,Alto Palena
-43.5,147.15,54.8,0.00,Cape Bruny Lighthouse
-43.489,172.532,46.0,0.00,Christchurch Intl
-43.483,147.15,54.3,0.00,Cape Bruny (Cape Bruny)
-43.483,172.517,46.2,0.00,Christchurch Aero Aws
-43.233,148.0,55.4,0.00,Tasman Island
-43.211,-65.27,52.7,0.00,Almirante Zar
-43.2,-71.817,49.1,0.00,Futaleufu
-43.2,146.767,49.8,0.00,Hartz Mountains
-43.117,-73.633,51.7,0.00,Quellon
-43.067,146.7,51.1,0.00,Warra
-43.05,146.267,52.5,0.00,Scotts Peak Dam
-42.983,145.5,55.5,0.00,Low Rocky Point (Aws)
-42.983,147.067,50.2,0.00,Grove (Research Station)
-42.908,-71.139,48.4,0.00,Esquel
-42.9,147.233,50.1,0.00,Mt Wellington
-42.883,147.333,55.7,0.00,Hobart (Ellerslie Road)
-42.836,147.51,55.0,0.00,Hobart
-42.717,146.9,49.7,0.00,Bushy Park (Bushy Park Estates)
-42.717,170.983,50.4,0.04,Hokitika Aerodrome Aws
-42.683,147.417,54.3,0.00,Campania (Kinkora)
-42.667,148.017,57.6,0.00,Maria Island (Point Lesueur)
-42.483,146.717,49.7,0.00,Ouse Fire Station
-42.45,147.467,51.0,0.00,Tunnak Fire Station
-42.417,173.7,46.9,0.00,Kaikoura
-42.283,146.283,47.4,0.00,Butlers Gorge
-42.199,145.17,55.7,0.00,Cape Sorell
-42.15,145.283,52.6,0.01,Strahan Aerodrome
-42.0,148.283,56.0,0.00,Friendly Beaches
-41.9,146.667,46.8,0.00,Liawenee Aws
-41.85,145.533,46.8,0.01,Mount Read
-41.733,147.083,51.1,0.00,Cressy Research Station
-41.733,171.567,55.4,0.12,Westport Aerodrome
-41.717,174.267,51.1,0.00,Cape Campbell Aws
-41.633,147.967,49.3,0.00,Fingal (Legge Street)
-41.55,147.217,52.2,0.00,Launceston Airport
-41.545,147.214,52.3,0.00,Launceston
-41.439,-73.094,49.4,0.00,El Tepual Intl
-41.417,147.117,53.4,0.00,Launceston (Ti Tree Bend)
-41.383,146.317,50.2,0.00,Sheffield School Farm
-41.333,174.8,54.6,0.24,Wellington Aero Aws
-41.327,174.805,54.4,0.00,Wellington Intl
-41.3,173.2,58.3,0.09,Nelson Aerodrome Aws
-41.167,146.417,54.6,0.00,Devonport Airport
-41.167,147.483,53.1,0.01,Scottsdale ( West Minstone Road)
-41.151,-71.158,48.0,0.00,San Carlos De Bariloche
-41.15,145.15,52.7,0.01,Luncheron Hill Forestry
-41.05,146.783,56.6,0.00,Low Head
-41.0,145.733,52.1,0.00,Wynyard Airport
-41.0,148.35,59.6,0.00,Larapuna (Eddystone Point)
-40.917,144.7,54.7,0.01,Marrawah
-40.9,174.983,55.2,1.06,Paraparaumu Aws
-40.9,176.2,53.6,0.17,Castlepoint
-40.869,-63.0,54.6,0.00,Gobernador Castello
-40.833,145.083,50.8,0.01,Smithton Aerodrome
-40.783,-65.1,52.7,0.00,San Antonio Oeste Aero
-40.717,148.117,59.9,0.00,Swan Island Aws
-40.667,144.683,54.5,0.01,Cape Grim
-40.611,-73.061,54.1,0.00,Canal Bajo Carlos Hott Siebert
-40.55,173.0,57.2,0.09,Farewell Spit Aws
-40.35,-9.883,52.4,0.00,Gough Island
-40.317,175.6,55.1,0.35,Palmerston North Aws
-40.1,148.0,55.1,0.06,Flinders Island Airport
-39.883,143.883,54.9,0.00,King Island Airport
-39.65,-73.086,55.4,0.00,Pichoy
-39.467,175.683,49.9,0.06,Waiouru Aws
-39.467,176.867,57.3,0.16,Napier Aerodrome Aws
-39.217,146.983,58.4,0.00,Hogan Island
-39.117,146.417,59.4,0.00,Wilsons Promontory Lighthouse
-39.017,174.183,58.8,1.19,New Plymouth Aws
-38.949,-68.156,57.2,0.00,Presidente Peron
-38.85,143.517,58.0,0.01,Cape Otway Lighthouse
-38.767,-72.637,51.8,0.01,Maquehue
-38.733,176.067,55.2,0.25,Taupo Aws
-38.725,-62.169,53.4,0.00,Comandante Espora
-38.663,177.978,60.4,0.00,Gisborne
-38.633,145.811,54.3,0.00,Pound Creek
-38.567,146.75,52.2,0.00,Yarram Airport
-38.45,144.1,57.7,0.00,Aireys Inlet
-38.45,145.3,59.4,0.01,Rhyll (Aws)
-38.433,141.55,58.3,0.01,Cape Nelson Lighthouse
-38.4,142.233,57.5,0.01,Port Fairy Aws
-38.35,145.167,56.1,0.01,Cerberus Aws
-38.317,141.467,56.3,0.01,Portland Cashmore Airport
-38.283,142.45,56.3,0.00,Warrnambool Airport Ndb
-38.233,143.783,53.8,0.02,Mt Gellibrand
-38.217,146.467,56.0,0.00,Latrobe Valley Airport
-38.167,144.367,54.1,0.01,Geelong Racecourse
-38.15,145.117,57.5,0.00,Frankston Aws
-38.099,147.149,53.9,0.01,East Sale
-38.067,142.767,55.0,0.01,Mortlake Racecourse
-38.039,144.469,53.6,0.00,Avalon
-38.033,144.467,53.3,0.01,Avalon  Airport
-37.976,145.102,55.4,0.01,Melbourne Moorabbin
-37.934,-57.573,55.4,0.00,Mar Del Plata
-37.917,141.267,56.3,0.01,Dartmoor
-37.9,144.117,53.7,0.01,Sheoaks Aws
-37.883,147.567,52.5,0.00,Bairnsdale Airport
-37.867,144.75,53.5,0.00,Laverton Raaf
-37.867,145.25,53.6,0.00,Scoresby Research Institute
-37.867,145.333,53.6,0.01,Ferny Creek
-37.833,146.267,47.6,0.00,Mt Baw Baw
-37.817,144.967,57.2,0.00,Melbourne Regional Office
-37.8,77.533,58.7,0.31,Martin De Vivies (Ile Amsterdam)
-37.75,147.133,53.0,0.01,Mt Moornapa
-37.733,140.783,56.3,0.00,Mount Gambier Aero
-37.733,144.9,55.4,0.01,Essendon Airport
-37.733,145.1,54.5,0.01,Viewbank (Arpnsa)
-37.728,144.902,51.4,0.02,Melbourne Essendon
-37.7,142.933,53.6,0.00,Westmere
-37.7,148.083,55.4,0.00,Mt Nowa Nowa
-37.683,148.467,55.9,0.01,Orbost
-37.673,144.843,55.6,0.00,Melbourne Intl
-37.672,176.196,61.3,1.87,Tauranga
-37.6,149.733,59.4,0.02,Mallacoota
-37.583,141.333,57.0,0.00,Casterton
-37.567,149.9,60.5,0.16,Gabo Island Lighthouse
-37.55,178.3,64.2,0.39,Hicks Bay Aws
-37.517,143.783,54.9,0.01,Ballarat Aerodrome
-37.402,-72.425,60.1,0.00,Maria Dolores
-37.383,144.967,52.4,0.02,Kilmore Gap
-37.333,149.017,54.0,0.02,Combienbar
-37.3,140.817,56.1,0.00,Coonawarra
-37.3,142.6,52.2,0.00,Mount William
-37.237,-59.228,52.5,0.00,Tandil
-37.233,143.2,56.6,0.00,Ben Nevis
-37.217,145.833,55.5,0.00,Eildon Fire Tower
-37.217,148.267,51.3,0.00,Gelantipy
-37.183,139.8,55.8,0.00,Robe Airfield
-37.15,146.433,45.0,0.00,Mount Buller Aws
-37.117,141.8,55.7,0.00,Kanagulk
-37.1,147.6,49.1,0.00,Omeo
-37.067,142.733,56.1,0.00,Stawell Aerodrome
-37.05,147.333,45.9,0.00,Mt Hotham Airport
-37.017,141.267,57.6,0.00,Edenhope Airport
-37.017,144.533,55.8,0.01,Redesdale
-37.008,174.792,61.9,0.00,Auckland Intl
-37.0,149.233,51.8,0.03,Bombala Aws
-37.0,174.8,61.7,1.33,Auckland Aero Aws
-36.983,140.733,55.5,0.00,Naracoorte Aerodrome
-36.967,139.717,58.2,0.00,The Limestone
-36.967,147.133,42.9,0.00,Mount Hotham
-36.917,149.9,60.8,0.46,Merimbula Airport
-36.883,145.183,56.7,0.00,Mangalore Airport
-36.867,147.267,44.6,0.00,Falls Creek Aws
-36.833,-59.883,54.0,0.00,Azul Aero
-36.773,-73.063,57.1,0.00,Carriel Sur Intl
-36.733,144.317,57.5,0.00,Bendigo Airport Aws
-36.667,142.167,56.3,0.00,Horsham Aerodrome
-36.667,142.3,58.5,0.01,Longerenong
-36.667,149.817,60.2,0.00,Bega Aws
-36.65,140.517,57.2,0.00,Padthaway South
-36.588,-64.276,57.9,0.00,Santa Rosa
-36.582,-72.031,62.0,0.00,General Bernardo O Higgins
-36.5,148.283,40.5,0.01,Thredbo Aws
-36.433,145.267,56.0,0.01,Tatura Inst Sustainable Ag
-36.433,145.4,54.4,0.00,Shepparton Airport
-36.417,146.3,54.7,0.00,Wangaratta Aero
-36.416,146.307,54.8,0.00,Wangaratta
-36.4,148.4,44.0,0.00,Perisher Valley Aws
-36.35,-57.733,55.3,0.00,Dolores Airport
-36.333,145.067,57.0,0.00,Kyabram (Inst Sustainable Ag)
-36.317,141.633,59.4,0.00,Nhill Aerodrome
-36.3,148.967,51.7,0.09,Cooma Airport Aws
-36.283,143.35,57.6,0.00,Charlton
-36.25,150.217,64.1,0.24,Montague Island Lighhouse
-36.233,148.133,53.6,0.00,Khancoban
-36.217,147.533,54.3,0.00,Hunters Hill
-36.2,-61.067,63.2,0.00,Bolivar Aero
-36.1,140.317,59.8,0.00,Munkora
-36.1,140.35,59.5,0.00,Keith
-36.1,146.5,54.6,0.00,Rutherglen Research
-36.067,146.95,57.7,0.00,Albury Aeroport
-36.017,146.033,58.4,0.00,Yarrawonga
-35.933,148.383,47.3,0.00,Cabramurra Smhea
-35.917,150.15,63.6,0.31,Moruya Heads Pilot Station
-35.9,150.15,63.1,0.35,Moruya Airport
-35.9,175.1,65.5,0.00,Mokohinau Aws
-35.85,138.133,62.9,0.00,Cape Willoughby
-35.717,137.517,55.0,0.00,Kingstone Aero
-35.717,142.35,59.5,0.00,Hopetoun Airport
-35.567,138.283,59.5,0.00,Second Valley Forest
-35.567,144.95,58.7,0.00,Deniliquin Airport Aws
-35.533,148.767,43.0,0.00,Mount Ginini
-35.517,138.817,61.1,0.00,Hindmarsh Island Aws
-35.494,-69.574,51.6,0.00,Malargue
-35.433,149.783,53.7,0.03,Braidwood Racecourse Aws
-35.417,149.1,56.8,0.00,Tuggeranong Isabella Plains
-35.383,143.533,58.0,0.00,Swan Hill Aerodrome
-35.378,140.538,58.7,0.00,Austin Plains
-35.35,150.483,64.2,0.06,Ulladulla Aws
-35.333,136.117,64.7,0.00,Neptune Island
-35.307,149.195,55.7,0.00,Canberra
-35.283,136.933,63.2,0.01,Stenhouse Bay
-35.283,138.9,58.7,0.00,Strathalbyn Racecourse
-35.167,138.5,63.2,0.00,Noarlunga
-35.167,138.667,62.3,0.00,Kuitpo Forest Reserve
-35.165,147.466,60.6,0.00,Wagga Wagga
-35.117,137.733,63.6,0.00,Edithburgh Aws
-35.117,142.0,61.5,0.00,Walpeup Research
-35.117,174.017,64.4,0.07,Purerua
-35.083,150.8,63.6,0.46,Pt Perpendicular Aws
-35.067,139.233,58.0,0.00,Pallamana Aerodrome
-34.972,-57.895,63.8,0.00,La Plata
-34.967,-71.217,54.9,0.00,Curico/Gen Freire
-34.967,138.7,58.1,0.00,Mount Lofty
-34.95,116.717,60.2,0.94,North Walpole
-34.949,150.537,61.2,0.31,Nowra
-34.945,138.531,60.0,0.00,Adelaide Intl
-34.941,117.802,60.5,0.63,Albany Airport
-34.917,138.617,63.9,0.00,Kent Town
-34.867,-55.1,61.8,0.00,Laguna Del Sauce
-34.855,-55.094,60.4,0.00,Capitan Corbeta C A Curbelo Intl
-34.85,-56.2,63.6,0.00,Prado
-34.838,-56.031,59.4,0.00,Carrasco Intl
-34.833,20.017,58.8,0.03,Cape Agulhas
-34.822,-58.536,62.1,0.00,Ministro Pistarini
-34.817,149.733,53.8,0.07,Goulburn Airport Aws
-34.793,138.633,61.8,0.00,Adelaide Parafield
-34.789,-56.265,65.7,0.00,Angel S Adami
-34.75,137.517,62.4,0.00,Minlaton Aero
-34.733,138.933,59.1,0.00,Mt Crawford Aws
-34.703,138.621,64.4,0.00,Edinburgh
-34.702,146.512,63.1,0.00,Narrandera
-34.65,150.85,64.0,0.37,Kiama (Bombo Headland)
-34.617,146.433,63.1,0.00,Yanco Agricultural Institute
-34.605,135.88,65.4,0.00,Port Lincoln
-34.6,135.883,59.4,0.00,Port Lincoln Aero
-34.588,-68.403,55.9,0.00,San Rafael
-34.583,116.35,59.6,0.50,Shannon
-34.567,117.017,59.7,0.22,Rocky Gully
-34.567,150.783,61.5,0.39,Wollongong Airport
-34.559,-58.416,64.3,0.00,Aeroparque Jorge Newbery
-34.546,-60.931,61.5,0.00,Junin
-34.533,144.833,61.1,0.00,Hay Airport Aws
-34.517,138.683,60.3,0.00,Roseworthy Ag College
-34.517,150.417,54.0,0.08,Moss Vale Aws
-34.483,-54.3,61.7,0.00,Rocha
-34.483,139.0,58.6,0.00,Nuriootpa Viticultural
-34.456,-57.771,62.9,0.00,Laguna De Los Patos Intl
-34.453,-58.59,60.8,0.00,San Fernando
-34.433,19.217,58.4,0.14,Hermanus
-34.433,140.6,58.9,0.00,Loxton Research Centre
-34.433,147.517,62.5,0.00,Temora Airport
-34.433,172.683,61.9,0.16,Cape Reinga Aws
-34.383,135.367,64.4,0.00,Coles Point
-34.383,137.667,64.4,0.00,Maitland
-34.383,150.933,63.4,0.44,Bellambi Aws
-34.367,115.133,64.6,0.23,Cape Leeuwin
-34.35,18.5,55.1,0.00,Cape Point
-34.25,116.15,59.6,0.18,Manjimup
-34.25,135.717,67.4,0.00,Cummins Aero
-34.25,146.067,62.8,0.00,Griffith Airport Aws
-34.25,148.25,60.0,0.00,Young Airport
-34.2,140.683,58.0,0.00,Renmark Aero
-34.183,22.15,58.8,0.01,Mossel Bay (Lgt-H)
-34.183,139.083,58.7,0.00,Eudunda
-34.167,-70.783,58.0,0.00,De La Independencia
-34.15,18.317,54.6,0.01,Slangkop
-34.139,19.023,53.6,0.54,Elgin Exp Farm
-34.135,-63.362,62.8,0.00,Laboulaye
-34.083,-56.233,59.8,0.00,Florida
-34.083,21.25,59.2,0.13,Riversdale
-34.067,150.767,60.7,0.26,Cambell Town / Mount Annan
-34.05,23.083,60.4,0.02,Knysna
-34.04,150.687,60.6,0.30,Camden
-34.033,115.1,61.7,0.25,Witchcliffe
-34.006,22.379,55.8,0.06,George
-33.985,25.617,60.5,0.00,Port Elizabeth Intl / Chief Dawid Stuurman Intl
-33.983,150.917,63.9,0.23,Holsworthy Control Range
-33.97,137.67,59.9,0.00,Kadina
-33.965,18.602,57.0,0.30,Cape Town Intl
-33.95,116.133,63.0,0.11,Bridgetown
-33.946,151.177,65.3,0.12,Sydney Intl
-33.933,120.133,65.8,0.28,Hopetown North
-33.933,147.2,61.3,0.00,West Wyalong Airport Aws
-33.924,150.988,62.2,0.24,Sydney Bankstown
-33.9,150.733,60.2,0.14,Badgery'S Creek Airport
-33.9,151.117,62.6,0.16,Canterbury Racecourse
-33.883,119.1,65.6,0.00,Jacup
-33.85,148.65,61.0,0.00,Cowra Airport Aws
-33.85,150.85,61.2,0.20,Horsley Equestrian Centre
-33.85,151.2,63.7,0.28,Sydney (Observatory Hill)
-33.833,121.893,68.8,0.00,Esperance
-33.833,151.067,62.8,0.17,Sydney Olympic Park Aws (Archery Centre)
-33.817,138.6,59.0,0.00,Clare High School
-33.8,19.9,58.3,0.09,Robertson
-33.783,138.217,59.4,0.00,Rayville Park
-33.767,24.817,57.2,0.00,Patensie
-33.73,-65.387,57.0,0.00,Villa Reynolds
-33.717,136.5,63.7,0.00,Cleve Aerodrome
-33.717,150.683,62.1,0.22,Penrith
-33.683,115.4,63.3,0.02,Busselton Aero
-33.683,117.6,62.2,0.50,Katanning
-33.683,121.833,68.7,0.00,Esperance Aero
-33.683,151.233,60.1,0.81,Terrey Hills Aws
-33.65,-71.617,61.0,0.00,Santo Domingo
-33.65,115.317,63.7,0.03,Busselton
-33.65,134.883,62.7,0.00,Elliston
-33.633,-78.833,61.0,0.03,Juan Fernandez
-33.617,19.467,57.2,0.00,Worcester
-33.617,150.267,50.2,0.30,Mount Boyce
-33.601,150.781,60.6,0.00,Richmond
-33.6,150.783,60.7,0.23,Richmond Raaf
-33.567,26.883,61.2,0.00,Port Alfred Airport
-33.55,120.7,67.6,0.00,Munglinup West
-33.533,115.017,64.2,0.02,Cape Naturaliste
-33.467,18.717,57.3,0.02,Malmesbury
-33.456,-70.547,68.5,0.00,Eulogio Sanchez
-33.433,-70.683,56.8,0.00,Quinta Normal
-33.417,149.65,56.6,0.00,Bathurst Airport Aws
-33.4,151.333,60.9,1.54,Gosford (Narara Research Station)
-33.393,-70.786,59.1,0.00,Arturo Merino Benitez Intl
-33.383,149.133,53.1,0.00,Orange Airport
-33.367,116.167,61.7,0.05,Collie East
-33.367,147.917,63.6,0.00,Forbes Airport
-33.359,-56.499,62.2,0.00,Santa Bernardina Intl
-33.35,115.65,63.0,0.06,Bunbury
-33.283,23.5,52.4,0.00,Willowmore
-33.283,26.5,57.2,0.00,Grahamstown
-33.283,151.217,58.2,0.69,Mangrove Mountain Aws
-33.273,-66.356,67.5,0.00,San Luis
-33.267,151.567,65.6,0.29,Norah Head Lighthouse
-33.25,-58.067,62.8,0.00,Mercedes/Ricardo De
-33.2,20.867,57.7,0.00,Laingsburg
-33.133,135.55,61.1,0.00,Kyancutta
-33.133,148.167,64.9,0.00,Parkes (Macarthur Street)
-33.133,148.233,64.2,0.00,Parkes Airport
-33.117,118.833,63.0,0.00,Newdegate Res. Station
-33.1,118.467,64.7,0.00,Lake Grace
-33.085,-64.261,63.1,0.00,Rio Cuarto Area De Material
-33.083,-68.417,60.1,0.00,San Martin
-33.083,151.467,62.4,0.91,Lake Macquarie Aws
-33.067,147.217,61.9,0.00,Condobolin Airport
-33.059,137.514,59.5,0.00,Whyalla
-33.05,-71.583,61.5,0.00,Vina Del Mar
-33.05,135.45,66.3,0.00,Wudinna Aero
-33.036,27.826,63.9,0.03,East London / King Phalo
-33.013,18.977,58.1,0.02,Porterville
-33.01,-58.613,63.4,0.00,Gualeguaychu
-32.983,121.617,68.4,0.01,Salmon Gums Res. Stn
-32.969,18.16,58.3,0.00,Langebaanweg Afb
-32.95,-71.479,58.8,0.00,Vina Del Mar
-32.917,151.783,66.4,0.18,Newcastle Nobbys Signal Station
-32.904,-60.785,60.6,0.00,Rosario
-32.897,27.279,60.8,0.04,Bhisho
-32.883,144.317,61.7,0.00,Ivanhoe Aerodrome Aws
-32.85,135.15,65.8,0.00,Minnipa Dpi
-32.832,-68.793,62.6,0.00,El Plumerillo
-32.8,-56.517,59.9,0.00,Paso De Los Toros
-32.795,151.834,63.8,0.59,Williamtown
-32.783,26.633,62.3,0.00,Fort Beaufort
-32.783,151.333,62.2,0.17,Cessnock Airport
-32.733,150.233,50.9,0.03,Nullo Mountain Aws
-32.717,116.05,60.0,0.13,Dwellingup
-32.684,-62.158,62.7,0.00,Marcos Juarez
-32.683,-57.633,64.4,0.00,Young
-32.667,116.667,60.9,0.39,Wandering
-32.633,151.583,62.8,0.81,Tocal Aws
-32.567,139.567,55.6,0.00,Yunta Airstrip
-32.567,149.617,62.6,0.00,Mudgee Airport Aws
-32.517,27.467,55.9,0.01,Dohne
-32.517,115.717,68.0,0.06,Mandurah
-32.517,137.717,65.4,0.00,Port Augusta Arid Lands
-32.383,20.667,45.8,0.00,Sutherland
-32.35,22.55,57.6,0.00,Beaufort West
-32.338,-54.217,54.0,0.00,Cerro Largo
-32.333,117.867,68.3,0.00,Corrigin
-32.233,115.683,68.5,0.12,Garden Island Hsf
-32.217,121.75,73.6,0.00,Norseman Aero
-32.217,148.567,64.0,0.00,Dubbo Airport Aws
-32.217,148.575,64.2,0.00,Dubbo
-32.2,24.55,53.3,0.00,Graaff-Reinet
-32.2,127.533,70.1,0.00,Red Rocks Point
-32.183,150.167,62.2,0.00,Merriwa (Roscommon)
-32.167,25.617,57.6,0.00,Cradock
-32.133,133.7,64.4,0.00,Ceduna Amo
-32.1,115.883,63.9,0.20,Jandakot Aero
-32.033,18.333,56.5,0.03,Lamberts Bay
-32.033,150.833,63.8,0.00,Scone Airport
-32.017,115.5,70.2,0.04,Rottnest Island
-32.017,116.133,63.7,0.09,Kalamunda Bickley
-32.0,141.467,57.8,0.00,Broken Hill Airport Aws
-31.983,147.95,65.7,0.00,Trangie Research Station
-31.95,115.767,68.0,0.02,Swanbourne
-31.95,116.05,67.3,0.00,Goosebery Hill
-31.945,-65.146,62.4,0.00,Villa Dolores
-31.94,115.967,65.8,0.01,Perth Intl
-31.917,21.517,47.6,0.01,Fraserburg
-31.917,115.867,65.8,0.03,Perth Metro
-31.889,152.514,66.0,0.00,Taree
-31.883,152.517,66.0,0.07,Taree Airport Aws
-31.795,-60.48,63.3,0.00,General Urquiza
-31.733,150.8,58.0,0.00,Murrurundi Gap Aws
-31.718,-52.328,63.3,0.00,Pelotas / Joao Simoes Lopes Neto
-31.712,-60.812,63.7,0.00,Sauce Viejo
-31.68,128.879,72.1,0.00,Eucla
-31.668,116.015,65.0,0.01,Pearce
-31.667,-63.883,61.0,0.00,Pilar Observatorio
-31.641,18.545,59.9,0.00,Vredendal
-31.617,117.217,65.7,0.03,Cunderdin Airfield
-31.571,-68.418,59.0,0.00,San Juan
-31.548,28.674,61.8,0.21,Mthatha
-31.542,159.079,68.7,0.09,Lord Howe Island Aero
-31.533,145.8,68.4,0.00,Cobar Airport Aws
-31.517,143.383,61.9,0.00,Wilcannia Aerodrome Aws
-31.5,19.726,48.9,0.00,Calvinia
-31.483,145.833,67.5,0.00,Cobar Mo
-31.467,115.867,63.8,0.00,Gingin Aero
-31.45,130.9,65.8,0.00,Nullarbor
-31.433,-57.983,69.1,0.00,Nueva Hesperides Intl
-31.433,152.85,67.3,2.48,Port Macquarie Airport Aws
-31.391,-54.112,65.3,0.00,Comandante Gustavo Kraemer
-31.333,27.85,55.9,0.05,Elliot
-31.324,-64.208,63.9,0.00,Ambrosio L V Taravella
-31.317,149.267,60.0,0.00,Coonabarabran Airport Aws
-31.297,-57.997,60.6,0.00,Comodoro Pierrestegui
-31.233,119.35,71.4,0.00,Southern Cross Airfield
-31.183,24.95,51.3,0.00,Noupoort
-31.144,136.817,65.7,0.00,Woomera
-31.083,141.7,61.8,0.00,Fowlers Gap Aws
-31.067,30.233,70.5,0.01,Port Edward
-31.067,150.833,64.1,0.00,Tamworth Airport Aws
-31.067,152.767,66.5,1.38,Kempsey Airport Aws
-31.017,115.317,65.9,0.08,Lancelin
-30.983,148.383,67.9,0.00,Coonamble Airport
-30.975,-55.476,61.1,0.00,Presidente General Don Oscar D Gestido
-30.95,150.25,67.0,0.00,Gunnedah Airport Aws
-30.933,27.6,52.6,0.42,Barkly East
-30.85,30.333,69.3,0.08,Margate
-30.85,143.07,64.1,0.00,White Cliffs Aws
-30.833,128.117,68.0,0.00,Forrest
-30.789,121.462,77.7,0.00,Kalgoorlie Boulder
-30.717,26.717,53.2,0.02,Aliwal North
-30.717,134.583,64.7,0.00,Tarcoola
-30.667,24.017,56.1,0.12,Deaar(Ua)
-30.533,151.617,56.4,0.00,Armidale Airport Aws
-30.483,136.883,62.0,0.00,Olympic Dam Aerodrome
-30.467,20.483,52.7,0.01,Brandvlei
-30.401,-56.508,59.5,0.00,Artigas Intl
-30.367,-66.283,67.3,0.00,Chamical Aero
-30.35,21.817,55.5,0.00,Vanwyksvlei
-30.333,115.533,65.1,0.00,Badgingarra Research Stn
-30.321,153.116,67.7,0.94,Coffs Harbour
-30.317,149.817,67.8,0.00,Narrabri Airport Aws
-30.3,115.033,69.5,0.15,Jurien Bay
-30.283,116.667,69.2,0.00,Dalwallinu
-30.272,-57.64,65.4,0.00,Monte Caseros
-30.2,17.283,59.5,0.00,Koingnaas
-30.15,30.067,63.2,0.00,Ixopo
-30.033,145.95,65.1,0.00,Bourke Airport Aws
-30.033,148.117,69.9,0.00,Walgett Airport
-29.994,-51.171,62.1,0.00,Salgado Filho
-29.97,30.951,71.6,0.00,Durban Intl
-29.946,-51.144,62.3,0.00,Canoas / Campo Nossa Senhora De Fatima
-29.916,-71.2,54.7,0.00,La Florida
-29.883,-61.95,63.5,0.00,Ceres
-29.783,151.083,62.4,0.00,Inverell Research Centre
-29.782,-57.038,68.3,0.00,Rubem Berta
-29.75,153.033,67.4,0.09,Grafton Airport
-29.711,-53.688,65.3,0.00,Santa Maria
-29.7,31.05,72.5,0.13,Mount Edgecombe
-29.689,-57.152,66.4,0.00,Paso De Los Libres
-29.689,17.94,50.8,0.00,Springbok
-29.683,151.7,55.5,0.01,Glen Innes Airport
-29.667,22.733,61.1,0.00,Prieska
-29.667,138.067,65.5,0.00,Marree Aero
-29.633,30.4,69.8,0.00,Pietermaritzburg
-29.617,31.133,71.3,0.00,King Shaka Intl Airport
-29.617,152.967,67.2,0.36,Grafton Research Stn
-29.533,30.283,61.7,0.20,Cedara
-29.491,149.846,67.2,0.00,Moree Aero
-29.451,142.058,65.7,0.00,Tibooburra
-29.433,153.367,69.4,0.68,Yamba Pilot Station
-29.382,-66.796,71.5,0.00,La Rioja
-29.25,-177.933,70.2,0.09,Raoul Island Aws
-29.233,16.867,58.1,0.00,Port Nolloth
-29.2,116.017,72.5,0.00,Morawa Airport
-29.183,-59.7,61.2,0.00,Reconquista Aero
-29.183,153.4,67.2,0.54,Evans Head Raaf Bombing Range
-29.167,-51.2,55.0,0.00,Caxias Do Sul
-29.15,31.4,74.1,0.00,Mandini
-29.133,19.383,56.1,0.00,Pofadder
-29.093,26.302,59.3,0.07,Bloemfontein Intl / Bram Fischer Intl
-29.083,30.6,64.1,0.00,Greytown
-29.042,167.939,68.7,0.00,Norfolk Island Intl
-29.033,134.717,65.3,0.00,Coober Pedy Airport
-29.0,29.883,63.9,0.01,Estcourt
-28.95,31.7,72.4,0.00,Mtunzini
-28.883,121.317,78.3,0.00,Leonora Aero
-28.883,153.05,67.1,0.38,Casino Airport Aws
-28.833,153.26,66.7,0.55,Lismore Airport Aws
-28.833,153.55,68.4,0.51,Ballina Airport Aws
-28.817,27.9,57.0,0.09,Ficksburg
-28.803,24.765,60.8,0.32,Kimberley
-28.796,114.708,70.5,0.11,Geraldton
-28.769,17.623,67.0,0.00,Vioolsdrif
-28.733,-49.417,70.4,0.00,Cricium/Forquilhinha
-28.705,121.891,59.1,0.00,Murrin Murrin
-28.633,153.633,68.9,0.20,Cape Byron Aws
-28.617,122.417,78.5,0.00,Laverton Aero
-28.617,151.95,57.6,0.02,Applethorpe
-28.596,-65.752,66.4,0.00,Catamarca
-28.575,16.533,58.7,0.00,Alexander Bay
-28.567,29.767,61.2,0.00,Ladysmith
-28.399,21.26,58.0,0.00,Upington
-28.367,29.383,59.2,0.00,Van Reenen
-28.367,31.217,69.6,0.02,Babanango
-28.35,150.95,63.1,0.00,Iglevood Forest
-28.333,23.067,60.5,0.00,Postmasburg
-28.282,-54.169,59.0,0.00,Santo Angelo
-28.248,28.336,56.4,0.05,Bethlehem
-28.244,-52.327,67.9,0.00,Lauro Kurtz
-28.2,152.1,62.2,0.00,Warwick
-28.164,153.505,68.7,0.44,Gold Coast
-28.117,117.833,78.6,0.00,Mount Magnet Aero
-28.1,140.2,68.6,0.00,Moomba Airport
-28.05,148.6,68.0,0.00,St George Airport
-27.986,143.811,70.8,0.00,Thargomindah
-27.967,152.983,66.0,0.00,Beaudesert Drumley St
-27.933,153.433,70.1,0.11,Gold Coast Seaway
-27.85,120.7,80.2,0.00,Leinster Aero
-27.783,30.8,67.9,0.00,Vryheid
-27.767,29.983,69.2,0.00,Newcastle
-27.766,-64.31,66.4,0.00,Santiago Del Estero
-27.717,114.167,76.1,0.00,Kalbarri
-27.67,-48.547,70.5,0.00,Hercilio Luz
-27.667,23.0,62.6,0.00,Kathu
-27.666,27.314,61.5,0.02,Kroonstad
-27.65,25.617,63.0,0.01,Bloemhof
-27.641,152.712,65.6,0.00,Amberley
-27.617,-144.333,75.4,0.00,Rapa
-27.57,153.008,66.5,0.00,Brisbane Archerfield
-27.55,24.767,65.0,0.00,Taung
-27.55,135.45,65.9,0.00,Oodnadatta Airport
-27.55,151.917,61.4,0.00,Toowoomba Airport
-27.55,152.333,64.5,0.01,University Of Queensland Gatton
-27.483,153.033,68.7,0.00,Brisbane
-27.45,-59.056,61.5,0.00,Resistencia
-27.446,-58.762,61.9,0.00,Corrientes
-27.417,31.6,75.2,0.00,Pongola
-27.417,141.817,69.0,0.00,Ballera Gas Field
-27.417,153.067,68.4,0.04,Brisbane Airport
-27.411,151.735,64.1,0.00,Oakey
-27.386,-55.971,66.0,0.00,Posadas
-27.383,32.183,77.4,0.00,Makatini
-27.317,-55.833,61.8,0.00,Encarnacion
-27.261,-70.779,57.6,0.00,Desierto De Atacama
-27.25,-70.77,57.2,0.00,Desierto De Atacma
-27.217,153.1,69.1,0.09,Redcliffe
-27.165,-109.422,73.8,0.00,Mataveri Intl
-27.15,151.267,64.2,0.00,Dalby Airport
-27.117,-52.617,63.8,0.00,Chapeco
-27.033,153.467,72.0,0.02,Cape Moreton Lighthouse Aws
-26.982,24.729,62.9,0.02,Vryburg
-26.95,152.967,64.9,0.12,Beerburrum Forest Station
-26.883,22.05,66.7,0.00,Van Zylsrus
-26.88,-48.651,73.2,0.00,Ministro Victor Konder Intl
-26.85,-58.317,64.1,0.00,Pilar
-26.85,31.917,73.5,0.00,Big Bend
-26.841,-65.105,64.0,0.00,Teniente Benjamin Matienzo
-26.833,-55.333,66.6,0.00,Capitan Meza
-26.733,-60.483,61.3,0.00,Presidencia Roque Saenz Pena Aero
-26.733,27.067,62.3,0.01,Potchefstroom
-26.687,15.243,58.4,0.00,Luderitz
-26.683,15.25,59.1,0.00,Luderitz (Diaz Point)
-26.667,152.467,61.4,0.04,Jimna Forestry
-26.65,150.183,67.4,0.00,Miles Constance Street
-26.65,152.933,67.2,0.09,Nambour Dpi-Hillside
-26.614,118.537,78.3,0.00,Meekatharra Airport
-26.6,153.1,69.1,0.17,Sunshine Coast Airport
-26.567,27.95,61.7,0.00,Vereeniging
-26.567,151.833,62.6,0.00,Kingaroy Airport
-26.566,27.961,61.5,0.00,Vereeniging
-26.55,148.783,65.4,0.00,Roma Airport
-26.54,18.111,64.8,0.00,Keetmanshoop
-26.529,31.308,77.8,0.00,Matsapha
-26.5,29.983,59.9,0.00,Ermelo
-26.467,20.617,64.4,0.00,Twee Rivieren
-26.433,31.95,75.0,0.00,Siteki
-26.413,146.263,68.8,0.00,Charleville
-26.383,153.033,70.0,0.15,Tewantin Rsl Park
-26.348,27.778,60.4,0.00,Johannesburg Baragwanath
-26.267,132.183,62.4,0.00,Pukatja
-26.248,28.398,62.7,0.00,Springs
-26.224,-48.797,72.4,0.00,Lauro Carneiro De Loyola
-26.213,-58.228,67.4,0.00,Formosa
-26.183,-56.367,68.4,0.00,Caazapa
-26.183,152.633,65.5,0.06,Gympie
-26.176,26.185,62.3,0.04,Lichtenburg
-26.139,28.246,61.3,0.01,Johannesburg Intl
-26.133,126.583,70.2,0.00,Warburton Airfield
-26.05,22.45,71.7,0.02,Tsabong
-25.986,28.14,61.0,0.00,Grand Central
-25.967,152.867,66.6,0.05,Toolara (Kelly)
-25.939,27.926,62.2,0.00,Lanseria
-25.933,153.183,71.7,0.04,Double Island Point Lighthouse
-25.911,28.21,61.7,0.09,Pretoria/Irene
-25.9,113.583,77.2,0.00,Shark Bay Airport
-25.898,139.348,70.1,0.00,Birdsville
-25.89,28.171,62.6,0.00,Pretoria(Met)
-25.85,148.567,62.7,0.00,Injune Post Office
-25.798,25.548,63.9,0.00,Mmabatho Intl / George Dick Montshioa
-25.783,122.967,77.0,0.00,Carnegie (Carnegie)
-25.767,-56.433,68.2,0.00,Villarrica
-25.737,-54.473,70.5,0.00,Cataratas Del Iguazu
-25.654,28.224,64.1,0.00,Wonderboom
-25.633,-57.133,71.9,0.00,Paraguari
-25.617,151.617,67.6,0.00,Gayndah Airport
-25.596,-54.487,70.3,0.00,Cataratas Intl
-25.528,-49.176,63.3,0.00,Afonso Pena
-25.517,152.717,69.4,0.12,Maryborough
-25.5,30.914,69.7,0.00,Nelspruit
-25.45,-54.833,72.2,0.00,Aeropuerto Int. Guarani
-25.45,25.417,67.6,0.00,Good Hope
-25.417,142.65,75.5,0.00,Windorah Post Office
-25.405,-49.232,65.6,0.00,Bacacheri
-25.383,31.106,70.3,0.00,Kruger Mpumalanga Intl
-25.334,27.173,66.4,0.00,Pilanesberg Intl
-25.317,152.883,70.6,0.02,Hervey Bay Airport
-25.267,23.25,69.7,0.00,Werda
-25.24,-57.519,72.8,0.00,Silvio Pettirossi Intl
-25.2,130.983,66.9,0.00,Yulara Aero
-25.067,-130.1,70.7,0.00,Pitcairn Island Aws
-25.038,46.956,76.3,0.08,Tolagnaro
-25.033,128.3,71.0,0.00,Giles Meteorological Office
-25.0,-53.501,70.6,0.00,Cascavel / Aeroporto Regional Do Oeste
-24.983,31.6,70.5,0.00,Skukuza
-24.9,28.333,65.7,0.00,Warmbad Towoomba
-24.9,152.317,69.1,0.00,Bundaberg Aero
-24.888,113.67,77.9,0.00,Carnarvon Airport
-24.856,-65.486,58.1,0.00,Salta
-24.75,-58.833,71.2,0.00,Gral. Bruguez
-24.721,-60.549,68.4,0.00,Alferez Armando Rodriguez
-24.667,-56.433,74.8,0.00,San Estanislao
-24.605,17.925,67.5,0.00,Mariental
-24.583,27.417,66.0,0.00,Thabazimbi
-24.555,25.918,66.4,0.63,Sir Seretse Khama Intl
-24.5,17.867,67.4,0.00,Mariental
-24.483,150.567,66.9,0.00,Thangool Airport
-24.467,148.633,70.6,0.00,Rolleston Airport
-24.417,145.433,69.3,0.00,Blackall Airport
-24.393,-65.098,62.5,0.00,Jujuy
-24.35,31.05,72.6,0.00,Hoedspruit
-24.2,29.0,65.4,0.00,Kopane
-24.15,151.883,72.1,0.00,Seventeen Seventy
-24.117,152.717,75.1,0.00,Lady Elliot Island
-24.067,-57.083,74.4,0.00,San Pedro
-24.033,-54.35,71.6,0.08,Saltos Del Guaira
-23.933,31.15,73.9,0.00,Phalaborwa
-23.933,147.517,68.1,0.00,Lochington
-23.925,-46.288,73.9,0.00,Base Aerea De Santos
-23.867,29.433,65.8,0.00,Pietersburg
-23.867,29.45,66.4,0.00,Polokwane
-23.867,151.217,73.2,0.00,Gladstone Airport
-23.85,151.267,72.0,0.00,Gladstone Radar
-23.822,30.327,67.4,0.00,Tzaneen
-23.807,133.902,61.0,0.00,Alice Springs
-23.767,30.067,67.6,0.00,Tzaneen-Grenshoek
-23.726,27.688,71.4,0.00,Lephalale / Ellisras Airfield
-23.633,-55.833,70.6,0.00,Pedro Juan Caballero
-23.627,-46.655,67.1,0.16,Congonhas Deputado Freitas Nobre
-23.567,148.183,70.1,0.00,Emerald Airport
-23.533,151.283,73.4,0.00,Rundle Island
-23.509,-46.638,69.7,0.00,Campo De Marte
-23.5,-58.783,72.4,0.00,Pozo Colorado
-23.476,-52.016,67.3,0.00,Regional De Maringa Silvio Name Junior
-23.444,-70.445,59.3,0.00,Cerro Moreno Intl / Andres Sabella Intl
-23.442,-57.427,72.1,0.00,Teniente Col Carmelo Peralta
-23.433,144.283,72.1,0.00,Longreach Aero
-23.432,-46.47,67.7,0.00,Guarulhos Gov Andre Franco Montoro
-23.417,119.8,77.2,0.00,Newman Aero
-23.383,43.728,79.3,0.00,Toliara
-23.382,150.475,72.0,0.00,Rockhampton
-23.365,-149.524,78.3,0.04,Tubuai Mataura
-23.334,-51.13,66.2,0.00,Londrina / Governador Jose Richa
-23.267,129.367,76.2,0.00,Wulungurru
-23.25,155.533,75.3,0.00,Cato Island
-23.229,-45.862,69.7,0.00,Professor Urbano Ernesto Stumpf
-23.167,117.75,80.7,0.00,Paraburdoo Aero
-23.153,-64.329,70.7,0.00,Oran
-23.133,-134.967,76.5,0.00,Mangareva
-23.133,150.75,73.9,0.00,Yeppoon The Esplanade
-23.083,30.283,70.7,0.00,Levubu
-23.067,30.383,72.3,0.00,Thohoyandou
-23.033,115.033,84.3,0.00,Emu Creek Station
-23.017,-45.567,70.0,0.00,Taubate
-23.007,-47.135,70.5,0.00,Viracopos
-22.983,-43.367,78.9,0.00,Rio/Jacarepagua
-22.98,14.645,66.7,0.00,Walvis Bay
-22.95,136.15,67.4,0.00,Jervois
-22.932,-43.719,74.7,0.00,Santa Cruz / Campo Nero Moura
-22.922,-42.074,80.7,0.00,Cabo Frio
-22.91,-43.163,78.1,0.00,Santos Dumont
-22.883,14.433,63.6,0.00,Walvis Bay (Pelican Point)
-22.875,-43.385,72.3,0.00,Campo Delio Jardim De Mattos
-22.813,-42.093,78.6,0.00,Sao Pedro Da Aldeia / Tenente Jorge Henrique Moller
-22.809,-43.244,76.8,0.00,Galeao Antonio Carlos Jobim
-22.792,-45.205,73.1,0.00,Guaratingueta / Campo Edu Chaves
-22.733,150.65,73.1,0.29,Samuel Hill Aero
-22.62,-63.794,67.4,0.00,General Enrique Mosconi Tartagal
-22.589,167.456,74.1,0.12,Ile Des Pins Moue
-22.567,17.1,63.0,0.01,Windhoek/Eros(Saaf)
-22.55,-61.55,69.7,0.00,Pelayo Prat Gill
-22.55,-55.703,70.0,0.00,Ponta Pora
-22.5,-68.9,61.7,0.00,Calama
-22.5,18.967,63.5,0.57,Gobabis
-22.498,-68.904,60.6,0.00,El Loa
-22.48,17.471,62.5,0.01,Hosea Kutako Intl
-22.47,150.18,73.8,0.00,Williamson
-22.45,133.633,66.5,0.00,Territory Grape Farm
-22.383,143.033,74.3,0.00,Winton Post Office
-22.367,143.083,72.5,0.00,Winton Airport
-22.35,149.517,72.5,0.00,St Lawrence
-22.35,149.533,70.6,0.00,St Lawrence Post Office
-22.345,-49.054,72.1,0.00,Bauru
-22.343,-41.766,78.7,0.00,Macae
-22.333,40.333,77.2,0.00,Ile Europa
-22.283,-57.933,72.2,0.00,Puerto Casado
-22.267,166.45,76.9,0.00,Noumea
-22.236,114.089,80.9,0.00,Learmonth
-22.217,30.0,75.9,0.00,Beitbridge
-22.197,-49.926,69.8,0.00,Marilia / Frank Miloye Milenkovich
-22.175,-51.425,71.3,0.00,Presidente Prudente
-22.151,-65.578,53.4,0.00,La Quiaca / Dr Guillermo Eugenio Snopek
-22.058,27.829,71.6,0.00,Selebi Phikwe
-22.05,27.817,71.5,0.31,Selebi-Phikwe
-22.045,-60.622,69.2,0.04,Dr Luis Maria Argana Intl
-21.985,-47.335,75.9,0.00,Campo Fontenelle
-21.961,-63.652,66.8,0.00,Yacuiba
-21.917,-46.383,68.5,0.00,Caldas
-21.833,140.883,74.1,0.00,Trepell Airport
-21.812,-48.133,75.7,0.00,Araraquara / Bartolomeu De Gusmao
-21.8,139.917,75.2,0.00,The Monument Airport
-21.792,-43.387,70.7,1.34,Francisco De Assis
-21.717,122.217,76.4,0.00,Telfer Aero
-21.715,122.229,76.8,0.00,Telfer
-21.7,21.65,66.7,0.12,Ghanzi
-21.698,-41.302,80.2,0.00,Bartolomeu Lisandro
-21.667,115.117,81.7,0.00,Onslow Airport
-21.667,150.267,73.5,0.00,Middle Percy Island
-21.6,138.3,75.5,0.00,Urandangi
-21.556,-64.701,65.7,0.00,Capitan Av Oriel Lea Plaza Intl
-21.482,168.038,73.1,0.00,Mare La Roche
-21.45,115.017,82.3,0.00,Thevenard Island
-21.442,47.112,70.4,0.00,Fianarantsoa
-21.417,25.6,71.1,0.00,Letlhakane
-21.321,55.425,81.6,0.00,St Pierre Pierrefonds
-21.267,-43.761,70.3,0.00,Major Brigadeiro Doorgal Borges
-21.255,-63.406,66.8,0.00,Tcnl Rafael Pabon
-21.241,-175.15,78.9,0.00,Fua Amotu Intl
-21.203,-159.806,76.1,0.00,Rarotonga Intl
-21.2,-159.783,75.4,0.00,Rarotonga
-21.2,-50.433,74.5,0.00,Aracatuba
-21.183,115.967,82.2,0.00,Mardie
-21.183,119.75,81.4,0.00,Marble Bar
-21.167,149.183,74.4,1.13,Mackay Aero
-21.159,27.468,69.8,0.00,P.G. Matante International Airport
-21.134,-47.774,76.5,0.00,Leite Lopes
-21.117,149.217,74.1,1.15,Mackay Mo
-21.008,31.579,76.6,0.04,Buffalo Range
-20.933,154.4,77.8,0.00,Frederick Reef
-20.933,165.317,77.3,0.00,Poindimie (Nlle-Caledonie)
-20.887,55.51,78.8,0.00,St Denis Gillot / La Reunion Roland Garros
-20.883,115.4,82.5,0.00,Barrow Island Airport
-20.817,144.233,71.7,0.00,Hughenden Airport
-20.775,167.24,73.2,0.24,Lifou Ouanaham
-20.75,117.15,81.4,0.00,Roebourne Aero
-20.717,116.767,82.4,0.00,Karratha Aero
-20.702,143.115,72.5,0.00,Richmond
-20.667,141.733,72.3,0.00,Julia Creek
-20.664,139.489,73.2,0.00,Mount Isa
-20.65,115.567,83.8,0.00,Varanus Island
-20.553,26.116,71.7,0.00,Sua Pan
-20.546,164.256,77.2,0.00,Koumac
-20.535,-70.181,66.0,0.00,Diego Aracena Intl
-20.533,150.383,77.7,0.00,Creal Reef
-20.495,148.552,74.5,0.00,Proserpine Whitsunday Coast
-20.469,-54.673,75.9,0.00,Campo Grande
-20.433,16.667,67.9,0.00,Otjiwarongo
-20.43,16.67,68.6,0.15,Otjiwarongo
-20.43,57.684,77.5,0.12,Sir Seewoosagur Ramgoolam Intl
-20.378,118.626,80.3,0.00,Port Hedland Intl
-20.358,148.952,75.8,0.00,Hamilton Island
-20.35,148.95,75.7,0.15,Hamilton Island Airport
-20.3,57.467,73.3,0.00,Vacoas (Mauritius)
-20.258,-40.286,78.7,0.04,Goiabeiras / Eurico De Aguiar Salles Intl
-20.233,-58.167,72.6,0.00,Bahia Negra
-20.233,169.767,80.0,0.00,Aneityum
-20.2,32.617,71.3,0.00,Chipinge
-20.183,130.017,71.4,0.00,Rabbit Flat
-20.114,16.154,69.8,0.00,Outjo
-20.07,16.13,68.3,0.00,Outjo
-20.05,-63.567,66.8,0.00,Camiri
-20.021,28.627,71.4,0.00,J M Nkomo Intl / Bulawayo
-20.02,148.21,77.9,0.00,Bowen Airport Aws
-19.973,23.431,80.3,0.00,Maun
-19.967,158.483,78.6,0.00,Ile Loop (Chesterfield)
-19.917,138.117,74.6,0.00,Camooweal Township
-19.909,-43.991,76.3,0.00,Carlos Prates
-19.9,-144.949,80.6,0.00,Hereheretue
-19.851,-43.951,72.5,0.00,Pampulha Carlos Drummond De Andrade
-19.777,-174.341,81.6,0.00,Haapai
-19.765,-47.965,76.5,0.00,Uberaba / Mario De Almeida Franco
-19.758,63.361,79.3,0.01,Plaine Corail
-19.75,63.37,79.2,0.00,Plaine Corail
-19.717,163.65,77.5,0.00,Ile Art (Belep)
-19.65,-43.883,74.5,0.00,Lagoa Santa Airport
-19.634,-43.969,68.8,0.00,Tancredo Neves Intl
-19.634,134.183,74.6,0.00,Tennant Creek
-19.633,134.183,74.6,0.00,Tennant Creek Airport
-19.617,-43.967,69.3,0.00,Confins (Aero)
-19.617,147.383,72.5,0.00,Ayr Dpi Research Stn
-19.602,18.123,70.1,0.01,Grootfontein
-19.583,119.1,82.1,0.00,Bedout Island
-19.543,-65.724,54.9,0.00,Capitan Nicolas Rojas
-19.533,-59.367,71.2,0.00,Adrian Jara
-19.455,169.224,78.0,0.00,Tanna
-19.45,147.483,75.7,0.00,Ayr Alva Beach
-19.436,29.862,71.1,0.00,Gweru Thornhill
-19.417,146.533,68.6,0.00,Woolshed
-19.253,146.765,76.4,0.00,Townsville
-19.183,15.917,69.3,0.41,Okaukuejo
-19.083,-169.933,71.9,0.00,Hanan Airport
-19.083,152.383,79.3,0.00,Marion Reef
-19.067,-169.917,72.2,0.00,Alofi
-19.012,-57.673,74.9,0.00,Corumba Intl
-19.007,-65.289,58.8,0.00,Juana Azurduy De Padilla
-18.975,-57.821,78.0,0.00,Tte De Av Salvador Ogaya G
-18.933,29.833,78.5,0.00,Kwekwe
-18.883,-48.22,73.8,0.00,Uberlandia Aero
-18.797,47.479,68.6,1.46,Ivato
-18.75,138.7,77.9,0.00,Century Mine
-18.65,135.95,78.2,0.00,Brunette Downs
-18.585,-173.962,76.2,0.00,Vavau Intl
-18.583,-173.967,75.7,0.00,Lupepau'U
-18.533,25.633,75.5,0.00,Pandamatenga
-18.533,32.133,73.2,0.04,Rusape
-18.349,-70.339,68.4,0.00,Chacalluta
-18.333,130.633,73.6,0.00,Lajamanu
-18.317,-59.75,77.7,0.00,Robore (Civ/Mil)
-18.317,29.883,78.0,0.00,Kadoma
-18.3,143.533,74.0,0.00,Georgetown Airport
-18.283,32.75,67.7,0.03,Wyanga
-18.233,127.667,74.9,0.00,Halls Creek Airport
-18.217,28.933,74.2,0.00,Gokwe
-18.183,125.567,78.1,0.00,Fitzroy Crossing Aero
-18.133,178.433,77.4,0.00,Suva Kings Wharf
-18.11,49.393,79.8,0.00,Toamasina
-18.096,25.839,77.7,0.00,Victoria Falls Intl
-18.075,-140.946,79.3,0.00,Hao
-18.053,-70.276,65.6,0.00,Coronel Carlos Ciriani Santa Rosa Intl
-18.043,178.559,76.1,0.00,Nausori Intl
-17.963,-67.076,55.4,0.00,Juan Mendoza
-17.956,19.719,72.8,0.07,Rundu
-17.945,122.232,79.1,0.00,Broome Intl
-17.93,31.094,69.9,0.20,Robert Gabriel Mugabe Intl / Harare
-17.9,122.317,80.2,0.00,West Roebuck
-17.883,15.95,78.2,0.00,Ondangwa
-17.878,15.953,81.3,0.00,Ondangwa
-17.833,-60.75,80.1,0.00,San Jose
-17.833,25.162,80.7,0.00,Kasane
-17.812,-63.171,74.7,0.00,El Trompillo
-17.757,168.3,78.8,0.00,Point Vita/Ntf/Aws
-17.755,177.443,76.8,0.00,Nadi Intl
-17.75,139.533,78.4,0.00,Burketown Airport
-17.717,148.45,78.0,0.00,Flinders Reef
-17.699,168.32,78.6,0.00,Port Vila Bauerfield
-17.683,141.067,79.5,0.00,Normanton Airport
-17.645,-63.135,71.8,0.00,Viru Viru Intl
-17.6,146.0,77.1,0.05,South Johnstone Exp Stn
-17.6,177.45,79.6,0.00,Lautoka Queens Wharf
-17.583,123.817,80.8,0.00,Curtin Aero
-17.581,123.828,80.7,0.00,Curtin
-17.554,-149.607,81.6,0.12,Tahiti Faa A
-17.533,118.95,83.0,0.00,Rowley Shoals
-17.421,-66.177,63.0,0.00,Jorge Wilstermann Intl
-17.367,123.667,79.0,0.00,Derby Aero
-17.15,176.9,79.6,0.00,Viwa Aws
-17.117,152.0,77.1,0.00,Lihou Reef
-17.094,49.816,80.5,0.00,Sainte Marie
-17.067,145.433,72.5,0.00,Mareeba Airport Aws
-17.05,42.717,82.5,0.00,Ile Juan De Nova
-16.886,145.755,79.1,0.00,Cairns Intl
-16.833,29.617,70.7,0.00,Karoi
-16.783,31.583,71.5,0.00,Mount Darwin
-16.707,-43.819,75.5,0.00,Mario Ribeiro
-16.667,139.167,80.2,0.00,Mornington Island
-16.633,128.45,78.2,0.00,Argyle Aerodrome
-16.632,-49.221,78.3,0.00,Santa Genoveva
-16.513,-68.192,46.0,0.00,El Alto Intl
-16.467,147.867,77.0,0.00,Holmes Reef
-16.45,59.617,83.2,0.01,St. Brandon (St. Raphael)
-16.439,-39.081,76.5,0.04,Porto Seguro
-16.433,-151.75,81.4,0.00,Bora-Bora
-16.433,136.067,80.5,0.00,Mcarthur River Mine
-16.417,167.8,81.0,0.00,Lamap/Malekoula Isl
-16.401,-61.045,72.8,0.00,San Ignacio De Velasco Airport
-16.4,131.017,74.8,0.00,Victoria River Downs
-16.383,145.567,79.3,0.11,Low Isles Lighthouse
-16.341,-71.583,57.4,0.00,Rodriguez Ballon
-16.288,149.965,77.4,0.00,Willis Island
-16.25,-62.1,75.6,0.00,Concepcion
-16.25,133.367,76.0,0.00,Daly Waters Aws
-16.229,-48.964,77.1,0.00,Base Aerea / Campo Marechal Marcio De Souza E Mello
-16.083,136.3,77.5,0.00,Borroloola
-16.0,144.067,75.8,0.00,Palmerville
-15.933,-5.667,66.5,0.01,St. Helena Is.
-15.883,54.517,82.5,0.16,Serge-Frolow (Ile Tromelin)
-15.863,-47.913,72.1,0.00,Presidente Juscelino Kubitschek
-15.861,-52.389,84.1,0.00,Barra Do Garcas
-15.778,128.708,77.3,0.00,Kununurra
-15.75,131.917,79.6,0.00,Delamere Weapons Range
-15.75,136.8,81.9,0.00,Centre Island
-15.679,34.974,78.3,0.00,Chileka Intl
-15.667,46.352,82.5,0.00,Philibert Tsiranana
-15.653,-56.117,81.2,0.02,Marechal Rondon
-15.517,123.15,79.8,0.00,Adele Island
-15.501,167.223,79.8,0.13,Santo Pekoa Intl
-15.5,128.15,80.2,0.00,Wyndham Aero
-15.5,147.117,77.0,0.00,Bougainville Reef
-15.483,141.75,79.4,0.00,Kowanyama Airport
-15.467,-70.158,54.2,0.00,Juliaca / Inca Manco Capac Intl
-15.45,145.183,79.2,0.00,Cooktown Airport
-15.333,28.45,69.9,0.00,Lusaka Intl
-14.967,-65.633,78.6,0.00,San Ignacio De Moxo
-14.967,145.317,79.3,0.06,Cape Flattery
-14.95,130.8,81.5,0.00,Bradshaw
-14.867,-66.75,78.8,1.22,San Borja/Capt Germ
-14.863,-40.863,73.0,0.00,Vitoria Da Conquista
-14.819,-64.918,78.2,0.00,Tte Av Jorge Henrich Arauz
-14.816,-39.033,80.1,0.08,Ilheus / Jorge Amado
-14.521,132.378,78.2,0.00,Tindal
-14.483,-145.033,81.7,0.00,Takaroa
-14.483,-67.483,76.4,1.53,Rurrenabaque
-14.331,-170.714,83.4,0.02,Tafuna/Pago Pago International Ap
-14.317,-178.117,81.6,0.00,Maopoopo / Futuna Pointe Vele
-14.3,-67.367,76.6,0.00,Reyes
-14.3,126.633,77.9,0.00,Kalumburu
-14.279,50.175,78.2,0.00,Sambava
-14.25,129.533,81.6,0.00,Port Keats Airport
-14.083,126.383,80.0,0.00,Truscott
-13.975,136.46,80.0,0.01,Groote Eylandt
-13.85,167.55,82.5,0.39,Sola/Vanua Lava Isl
-13.833,131.183,79.0,0.00,Douglas River
-13.83,-172.008,78.8,3.37,Faleolo Intl
-13.817,-171.75,77.7,0.00,Apia Wharf
-13.8,-171.783,79.5,0.00,Apia/Upolu Island
-13.789,33.781,76.8,0.00,Lilongwe Intl
-13.767,143.117,78.1,0.00,Coen Airport
-13.762,-65.435,81.1,0.00,Santa Ana Del Yacuma
-13.75,126.15,83.3,0.00,Troughton Island
-13.745,-76.22,68.4,0.00,Pisco Intl
-13.667,134.333,78.0,0.00,Bulman Aws
-13.65,136.933,83.3,0.00,North East Island
-13.536,-71.939,54.3,0.00,Teniente Alejandro Velasco Astete Intl
-13.333,-64.15,80.5,0.00,Magdalena
-13.312,48.315,83.3,0.08,Fascene
-13.3,-64.7,81.5,0.00,San Ramon
-13.274,35.266,71.6,0.00,Lichinga
-13.262,-43.408,85.9,0.00,Bom Jesus Da Lapa
-13.238,-176.199,83.1,0.53,Wallis Hihifo
-13.067,-64.667,81.1,1.26,San Joaquin
-13.05,131.017,80.7,0.00,Batchelor Aero
-12.911,-38.331,82.3,0.00,Deputado Luis Eduardo Magalhaes
-12.805,45.281,82.4,0.08,Dzaoudzi Pamandzi
-12.783,143.3,79.8,0.02,Lockhart River Airport
-12.694,-60.098,79.2,0.12,Vilhena
-12.683,141.917,80.5,0.00,Weipa Aero
-12.679,141.925,80.6,0.00,Weipa
-12.667,132.9,83.9,0.00,Jabiru Airport
-12.633,130.367,82.4,0.00,Dum In Mirrie
-12.6,131.3,80.7,0.00,Middle Point Aws
-12.5,177.05,82.2,0.00,Rotuma Island
-12.415,130.877,82.5,0.00,Darwin Intl
-12.349,49.292,78.6,0.00,Arrachart
-12.283,136.817,80.1,0.01,Gove Airport
-12.269,136.818,80.3,0.00,Gove
-12.188,96.834,83.0,0.00,Cocos Keeling Islands
-12.117,134.9,81.9,0.00,Milingimbi Aws
-12.05,134.233,81.9,0.00,Maningrida Aero
-12.022,-77.114,68.2,0.00,Jorge Chavez Intl
-12.0,135.567,81.3,0.00,Ngayawili
-11.783,130.017,79.1,0.01,Cape Fourcroy
-11.65,133.383,82.4,0.00,Warruwi
-11.583,47.283,83.2,0.00,Iles Glorieuses
-11.534,43.272,79.5,0.08,Prince Said Ibrahim
-11.4,130.417,80.9,0.00,Pirlangimpi
-11.04,-68.783,78.5,0.04,Heroes Del Acre / Cap Av Civ Anibal Arab Fadul Intl
-11.017,-66.117,79.9,0.08,Riberalta / Cap Av Selin Zeitun Lopez
-11.017,136.75,80.3,0.12,Cape Wessel Aws
-10.984,-37.07,82.6,0.00,Santa Maria
-10.951,142.459,65.5,0.02,Bamaga Injinoo
-10.817,-65.35,82.5,0.24,Guayaramerin
-10.786,-65.285,81.0,0.00,Guajara Mirim
-10.733,123.067,79.3,0.00,Rote/Baa/Lekunik
-10.719,-48.4,78.0,0.00,Porto Nacional
-10.7,165.8,81.5,0.00,Santa Cruz Island
-10.683,35.583,71.4,0.20,Songea
-10.617,125.983,86.3,0.00,Northern Endeavour
-10.583,142.283,82.5,0.00,Horn Island
-10.5,121.833,84.1,0.00,Sabu/Tardamu
-10.451,105.69,78.4,0.02,Christmas Island
-10.433,56.6,82.1,0.20,Agalega
-10.377,-161.002,79.7,1.57,Manihiki (Humphrey Island)
-10.339,40.182,80.1,0.00,Mtwara
-10.292,-48.357,75.7,0.00,Tocantins / Brigadeiro Lysias Rodrigues
-10.172,123.671,80.4,0.00,El Tari
-10.05,143.067,81.0,0.42,Coconut Island
-9.869,-67.894,82.8,0.03,Presidente Medici / Placido De Castro Intl
-9.866,-56.106,79.1,0.00,Alta Floresta / Piloto Osvaldo Marques Dias
-9.8,-139.033,79.8,0.39,Hiva-Oa
-9.669,120.302,79.5,0.00,Mau Hau
-9.511,-35.792,74.5,0.00,Zumbi Dos Palmares
-9.443,147.22,81.3,0.00,Port Moresby Jacksons Intl
-9.43,159.97,81.1,0.00,Honiara/Ntf/Aws
-9.428,160.055,78.7,0.00,Honiara Intl
-9.417,159.967,80.5,0.00,Honiara
-9.362,-40.569,80.1,0.00,Senador Nilo Coelho
-9.333,-54.967,75.6,0.00,Cachimbo
-9.033,-158.05,82.8,0.75,Penrhyn Aws
-8.933,33.467,64.5,0.24,Mbeya
-8.858,13.231,84.6,0.00,Luanda 4 De Fevereiro
-8.783,160.733,79.6,0.00,Auki
-8.75,116.267,81.0,0.00,Mataram-Lombok Intl Airport / Zainuddin Abdul Madjid
-8.749,115.167,81.7,0.00,Denpasar Ngurah Rai
-8.748,115.167,81.6,0.00,Bali Intl / I Gusti Ngurah Rai
-8.709,-63.902,81.7,0.00,Governador Jorge Teixeira De Oliveira
-8.641,122.237,82.7,0.00,Wai Oti
-8.633,120.45,68.6,1.02,Ruteng/Satar Tacik
-8.54,118.687,80.2,0.35,Muhammad Salahuddin
-8.52,140.418,80.0,0.16,Mopah
-8.517,179.217,85.2,0.31,Funafuti Intl Arpt
-8.489,117.412,80.8,0.00,Sumbawa Besar
-8.378,-74.574,79.3,0.08,Cap Fap David Abensur Rengifo Intl
-8.348,-49.302,83.9,0.04,Conceicao Do Araguaia
-8.328,157.263,80.6,0.00,Munda
-8.217,114.383,80.1,0.82,Banyuwangi
-8.217,124.567,80.7,0.24,Alor/Mali/Kalabahi
-8.155,-70.783,83.5,0.00,Tarauaca
-8.126,-34.924,79.6,0.00,Guararapes Gilberto Freyre Intl
-8.081,-79.109,67.8,0.00,Capitan Fap Carlos Martinez De Pinillos
-7.983,131.3,83.0,0.39,Saumlaki
-7.97,-14.394,80.8,0.00,Ascension Aux Af
-7.967,31.63,66.8,0.00,Sumbawanga
-7.733,109.017,80.3,0.04,Cilacap
-7.669,35.752,69.8,0.00,Iringa
-7.6,-72.769,79.4,0.00,Cruzeiro Do Sul
-7.38,112.787,81.8,0.21,Surabaya Juanda
-7.32,-47.459,84.1,0.00,Carolina / Brig Lysias Augusto Rodrigues
-7.3,72.4,82.9,0.44,Diego Garcia Naval Air Station
-7.27,-35.896,77.9,0.04,Presidente Joao Suassuna
-7.233,177.15,83.5,0.00,Nui
-7.217,112.717,82.7,0.00,Surabaya/Perak
-7.217,113.717,83.3,0.00,Surabaya/Gedangan
-7.139,-78.489,57.9,0.08,Gen Fap Armando Revoredo Iglesias
-7.1,-34.867,79.8,0.00,Joao Pessoa
-7.05,113.967,81.5,0.18,Kalianget (Madura Is)
-6.983,110.383,81.6,0.02,Jenderal Ahmad Yani
-6.973,110.375,83.8,0.00,Achmad Yani
-6.967,110.417,82.0,0.04,Semarang
-6.878,39.203,81.8,0.00,Mwalimu Julius K Nyerere Intl
-6.85,109.15,81.9,0.00,Tegal
-6.833,37.65,76.9,0.00,Morogoro (Met)
-6.787,-79.828,73.2,0.00,Cap Fap Jose A Quinones Gonzales Intl
-6.75,108.267,76.9,0.39,Cirebon/Jatiwangi
-6.7,106.933,71.3,0.43,Bogor/Citeko
-6.7,156.383,79.6,0.00,Taro Island
-6.509,-76.373,76.7,0.00,Cadete Guillermo Del Castillo Paredes
-6.3,106.567,78.2,0.91,Tangerang/Budiarto Arpt
-6.267,106.891,83.1,0.00,Halim Perdanakusuma Intl
-6.233,-57.777,85.7,0.00,Jacareacanga
-6.222,39.225,82.8,0.55,Zanzibar / Abeid Amani Karume Intl
-6.183,106.833,84.6,0.00,Jakarta/Observatory
-6.17,35.753,73.7,0.00,Dodoma
-6.126,106.656,81.7,0.08,Soekarno Hatta Intl
-6.117,-50.0,77.7,0.00,Carajas
-6.117,106.133,80.9,0.03,Serang
-6.1,106.867,83.0,0.16,Jakarta/Tanjung Priok
-6.1,140.3,82.4,0.00,Tanah Merah
-5.911,-35.248,79.6,0.00,Campo Augusto Severo
-5.85,112.633,81.3,0.00,Sangkapura (Bawean Is.)
-5.811,-61.278,83.9,0.00,Manicore
-5.683,132.75,83.9,0.00,Tual/Dumatubun
-5.531,-47.46,80.4,0.00,Prefeito Renato Moreira
-5.467,122.617,78.5,0.08,Bau-Bau/Beto Ambiri
-5.369,-49.138,79.6,0.00,Maraba / Joao Correa Da Rocha
-5.242,105.179,80.3,0.00,Radin Inten Ii
-5.206,-80.616,77.6,0.00,Capitan Fap Guillermo Concha Iberico
-5.202,-37.364,85.3,0.00,Dix Sept Rosado
-5.083,32.833,75.3,0.00,Tabora Airport
-5.067,119.55,80.5,0.00,Ujang Pandang/Paotere
-5.062,119.554,78.9,0.20,Sultan Hasanuddin Intl
-5.06,-42.823,79.5,0.98,Senador Petronio Portella
-4.883,29.633,77.2,0.00,Kigoma
-4.816,11.887,82.5,0.00,Pointe Noire / Antonio Agostinho Neto
-4.717,136.433,80.4,0.20,Kokonao/Timuka
-4.674,55.522,85.0,0.03,Seychelles Intl
-4.533,129.9,83.8,0.00,Neira
-4.386,15.445,79.5,0.00,Ndjili Intl
-4.3,121.533,82.9,0.28,Kolaka/Pomala
-4.256,-69.936,84.2,0.00,Tabatinga
-4.252,15.253,78.8,0.02,Maya Maya
-4.242,-56.001,82.4,0.00,Itaituba
-4.193,-69.943,81.5,0.00,Alfredo Vasquez Cobo
-4.103,138.957,70.1,0.03,Wamena
-4.082,122.417,80.4,0.00,Wolter Monginsidi
-4.035,39.594,80.8,0.20,Mombasa Moi Intl
-3.917,136.367,66.9,0.47,Enarotali
-3.864,102.339,80.0,0.00,Fatmawati Soekarno
-3.855,-32.423,82.5,0.75,Fernando De Noronha
-3.8,130.833,82.7,0.08,Geser
-3.786,-49.72,81.1,0.00,Tucurui
-3.785,-73.309,79.8,0.00,Coronel Francisco Secada Vignetta Intl
-3.776,-38.533,76.7,0.12,Pinto Martins Intl
-3.71,128.089,80.2,1.26,Pattimura
-3.645,133.696,76.6,0.48,Kaimana / Utarom
-3.553,-80.381,78.5,0.20,Cap Fap Pedro Canga Rodriguez
-3.442,114.763,79.7,0.36,Syamsudin Noor
-3.429,37.074,75.7,0.00,Kilimanjaro Intl
-3.4,38.567,78.7,0.00,Voi
-3.4,116.217,80.7,0.02,Kotabaru/Setagen
-3.383,-64.724,84.0,1.46,Tefe / Prefeito Orlando Marinho
-3.368,36.633,69.1,0.00,Arusha
-3.35,128.883,80.6,0.04,Amahai
-3.254,-52.254,79.9,0.02,Altamira
-3.25,127.083,81.0,0.63,Namlea/Buru Island
-3.146,-59.986,81.1,0.01,Campo Ponta Pelada
-3.127,-58.481,85.0,0.00,Itacoatiara
-3.039,-60.05,80.2,0.00,Eduardo Gomes Intl
-2.898,104.701,81.9,0.00,Sultan Mahmud Badaruddin Ii
-2.883,132.25,78.3,0.79,Fak-Fak / Torea / Siboru
-2.767,101.367,71.9,2.21,Kerinci/Depati Parb
-2.746,107.755,78.4,0.04,H As Hanandjoeddin
-2.705,111.673,81.6,0.63,Iskandar
-2.585,-44.234,79.7,0.00,Marechal Cunha Machado Intl
-2.577,140.516,81.9,0.00,Sentani
-2.55,120.367,80.0,1.73,Masamba/Andi Jemma
-2.5,119.0,81.0,2.28,Majene
-2.467,28.917,70.0,0.04,Kamembe
-2.444,32.933,74.9,0.35,Mwanza
-2.422,-54.793,76.9,0.00,Santarem / Maestro Wilson Fonseca
-2.252,40.913,86.1,0.02,Lamu Manda
-2.225,113.943,81.2,0.28,Palangka Raya/Tjilik Riwut
-2.17,106.13,79.5,0.08,Pangkalpinang / Depati Amir
-2.157,-79.884,80.0,0.00,Simon Bolivar Intl / Jose Joaquin De Olmedo Intl
-2.083,126.0,80.5,0.08,Sanana / Namniwel
-1.969,30.139,71.1,0.00,Kigali Intl
-1.933,30.083,80.1,0.00,Kigali
-1.867,136.233,83.4,0.00,Serui / Yendosa / Stevanus Rumbewas
-1.845,11.057,83.8,0.87,Mouilla Ville / Raphael Boubala
-1.833,138.717,83.8,0.00,Sarmi/Orai
-1.817,109.963,82.3,0.02,Rahadi Oesman
-1.677,29.259,70.3,0.00,Gisenyi
-1.667,13.4,79.1,0.31,Franceville Mvengue
-1.638,103.644,79.1,0.08,Sultan Thaha
-1.617,124.55,79.1,0.67,Labuha/Taliabu
-1.5,29.633,65.7,0.01,Ruhengeri
-1.5,33.8,74.7,1.54,Musoma
-1.417,120.658,79.6,1.57,Kasiguncu / Imip
-1.379,-48.476,81.2,0.00,Val De Cans Julio Cezar Ribeiro Intl
-1.333,31.817,70.3,0.24,Bukoba
-1.319,36.928,69.6,0.00,Jkia / Nairobi Jomo Kenyatta Intl
-1.268,116.894,80.1,0.01,Sultan Aji Muhammad Sulaiman Sepinggan
-1.19,136.108,83.3,0.00,Frans Kaisiepo
-1.039,122.772,80.8,0.00,Bubung
-0.95,-80.683,78.2,0.00,Eloy Alfaro Intl
-0.95,114.9,84.5,0.00,Muaratewe/Beringin
-0.926,131.121,79.9,1.38,Jefman / Domine Eduard Osok
-0.907,-78.616,58.1,0.00,Alternativo Cotopaxi Intl
-0.892,134.049,86.0,0.00,Rendani
-0.89,-52.602,77.9,0.00,Monte Dourado
-0.875,100.352,80.5,0.24,Tabing
-0.787,100.281,80.4,0.00,Minangkabau
-0.712,8.754,84.5,0.00,Port Gentil
-0.683,119.733,79.7,0.03,Palu/Mutiara
-0.531,166.917,81.6,0.00,Nauru
-0.517,166.917,83.2,0.00,Nauru Arc-2
-0.5,36.967,65.2,0.39,Nyeri
-0.5,37.45,69.3,0.00,Embu
-0.485,117.157,79.8,0.03,Temindung
-0.479,104.579,81.2,0.04,Dabo
-0.464,39.648,86.6,0.00,Garissa
-0.35,102.333,80.4,1.65,Rengat/Japura Arpt
-0.35,111.783,83.9,0.00,Nangapinoh
-0.151,109.404,82.4,0.12,Supadio
-0.141,-78.488,56.8,0.24,Mariscal Sucre Intl
-0.117,-66.967,88.5,0.00,Sao Gabriel Da Cachoeira Aero
-0.086,34.729,74.2,0.02,Kisumu
0.042,32.444,72.2,0.24,Entebbe Intl
0.051,-51.072,82.2,0.00,Macapa / Alberto Alcolumbre
0.064,111.473,82.5,0.00,Susilo / Tebelian
0.083,37.65,68.8,0.12,Meru
0.183,30.1,76.6,0.00,Kasese
0.378,6.712,80.3,0.00,Sao Tome Intl
0.404,35.239,67.5,0.08,El Doret Intl
0.45,33.183,75.2,0.02,Jinja
0.459,9.412,81.6,0.31,Leon M Ba
0.461,101.445,81.8,0.00,Sultan Syarif Kasim Ii
0.483,35.3,65.9,0.00,Eldoret
0.608,-69.186,83.8,0.00,Iauarete
0.637,122.85,80.2,0.12,Jalaluddin / Djalaluddin
0.683,34.167,77.3,0.00,Tororo
0.831,127.381,81.5,0.12,Babullah
0.862,-77.672,56.1,0.00,San Luis
0.883,112.933,86.4,0.00,Putussibau/Pagsuma
0.923,104.532,81.3,0.00,Kijang
0.972,34.959,67.9,0.43,Kitale
1.017,120.8,77.7,0.43,Toli-Toli/Lalos / Bolaang Mongondow
1.117,104.117,83.4,0.00,Batam/Hang Nadim
1.166,97.705,82.4,0.00,Binaka
1.217,111.45,82.3,0.00,Sri Aman / Simanggan
1.35,103.994,84.0,0.00,Singapore Changi Intl
1.35,172.933,81.8,0.00,Tarawa Tide Aws
1.36,103.91,86.0,0.00,Paya Lebar
1.382,173.147,82.7,0.03,Bonriki Intl
1.393,-77.291,66.7,0.16,Antonio Narino
1.417,103.868,85.1,0.00,Seletar
1.433,125.183,83.0,0.00,Bitung
1.485,110.347,80.6,0.06,Kuching Intl
1.549,124.926,80.1,0.31,Sam Ratulangi
1.556,98.889,79.7,0.63,Pinang Sore / Dr Ferdinand Lumbantobing
1.641,103.67,82.0,0.00,Sultan Ismail / Senai Intl
1.733,40.092,85.9,0.00,Wajir
1.767,109.3,82.3,0.12,Paloh
1.817,127.833,80.3,0.28,Galela/Gamarmalamu
1.9,9.8,77.4,0.00,Bata (Rio Muni)
1.986,-157.35,78.8,0.00,Christmas Island
2.067,-50.85,91.2,0.00,Amapa
2.076,11.493,78.2,0.08,Bitam
2.15,117.433,78.5,3.07,Kalimarau
2.25,32.9,78.2,0.00,Lira
2.262,111.985,79.5,0.75,Sibu
2.263,102.252,83.5,0.03,Malacca
2.45,103.833,81.5,0.00,Mersing
2.746,101.71,81.9,0.00,Kuala Lumpur Intl
2.806,32.272,79.1,0.00,Gulu
2.846,-60.69,84.2,0.00,Boa Vista / Atlas Brasil Cantanhede
2.85,117.333,78.9,0.08,Tanjung Selor
2.95,-75.294,79.8,0.03,Benito Salas
3.122,35.609,87.3,0.00,Lodwar
3.124,113.02,81.1,0.83,Bintulu
3.131,101.549,82.7,0.44,Sultan Abdul Aziz Shah Intl
3.2,106.25,84.0,0.00,Tarempa
3.333,117.567,78.5,0.28,Tarakan/Juwata
3.543,-76.382,74.9,0.00,Alfonso Bonilla Aragon Intl
3.558,98.672,81.9,0.00,Polonia / Kualanamu Intl
3.633,-54.033,80.2,0.08,Maripasoula
3.683,125.528,81.8,0.43,Naha
3.723,11.553,72.1,0.00,Yaounde Nsimalen
3.733,115.683,75.3,0.20,Longbawan/Juvai
3.755,8.709,80.5,0.00,Malabo
3.775,103.209,81.5,0.00,Kuantan
3.8,98.7,83.1,0.00,Medan/Belawan
3.855,-51.797,86.6,0.00,Oiapoque
3.883,-51.8,79.5,0.24,Saint Georges
4.006,9.719,80.6,0.00,Douala
4.076,-73.564,73.9,5.23,Apiay Air Base / Contingency
4.168,-73.614,76.6,2.40,Vanguardia
4.192,73.529,84.2,0.00,Male Intl / Velana Intl
4.217,100.7,81.7,0.15,Sitiawan
4.222,15.786,77.0,0.00,Berberati
4.25,96.117,80.5,0.75,Meulaboh/Cut Nyak / Cut Nyak Dhien Nagan Raya
4.313,118.122,79.8,0.12,Tawau
4.317,21.183,75.3,0.00,Mobaye
4.322,113.987,80.9,0.13,Miri
4.398,18.519,81.0,0.00,Bangui M Poko
4.422,-75.133,73.2,1.06,Perales
4.453,-75.766,71.5,0.16,El Eden
4.568,101.092,80.8,0.00,Ipoh Sultan Azlan Shah
4.702,-74.147,57.2,0.04,El Dorado Intl
4.747,-6.661,83.3,0.00,San Pedro
4.813,-75.74,69.4,0.51,Matecana
4.82,-52.36,79.8,0.04,Rochambeau / Cayenne Felix Eboue
4.944,114.928,82.0,0.59,Brunei Intl
4.95,-6.083,78.8,0.98,Sassandra/Drewin
5.03,-75.465,62.8,0.00,La Nubia
5.2,-1.067,79.2,0.00,Saltpond
5.227,96.95,81.0,0.00,Malikus Saleh
5.261,-3.926,82.5,0.24,Abidjan Felix Houphouet Boigny Intl
5.297,100.277,83.1,0.41,Penang Intl
5.301,115.25,81.5,0.24,Labuan
5.357,162.958,87.0,0.00,Kosrae
5.383,103.103,83.2,0.00,Sultan Mahmud
5.453,-55.188,82.6,0.00,Johan A Pengel Intl
5.466,100.391,82.0,0.00,Butterworth
5.5,-54.033,80.0,0.00,St Laurent Du Maron
5.524,95.42,82.4,0.00,Sultan Iskandar Muda
5.605,-0.167,83.8,0.00,Kotoka Intl
5.62,-67.606,83.7,0.00,Cacique Aramare
5.691,-76.641,78.5,0.16,El Carano
5.874,95.34,83.4,0.00,Maimun Saleh
5.901,118.059,80.1,0.55,Sandakan
5.937,116.051,79.5,0.11,Kota Kinabalu Intl
6.033,80.217,80.4,0.16,Galle
6.05,125.1,86.2,0.00,Gen. Santos
6.117,81.133,79.3,0.00,Hambantota
6.165,-75.423,62.0,0.31,Jose Maria Cordova
6.166,1.255,82.3,0.12,Gnassingbe Eyadema Intl
6.167,102.293,83.5,0.00,Sultan Ismail Petra
6.185,-67.493,86.5,0.00,Puerto Carreno / German Olano
6.194,100.403,84.3,0.00,Sultan Abdul Halim
6.22,-75.591,71.3,0.03,Olaya Herrera
6.234,-10.362,81.1,0.00,Monrovia Roberts Intl
6.33,99.729,84.9,0.00,Langkawi Intl
6.357,2.384,82.4,0.00,Card Bernardin Gadin De Cadjehoun Intl
6.483,17.433,83.4,0.00,Bossangoa
6.5,-58.25,81.6,0.00,Georgetown
6.517,101.283,82.2,0.00,Yala Agromet
6.52,101.743,83.0,0.00,Narathiwat
6.533,21.983,78.7,0.01,Bria
6.577,3.321,78.9,0.00,Murtala Muhammed
6.65,-4.7,82.8,0.98,Dimbokro City
6.661,100.08,85.1,0.00,Khoun Khan
6.683,80.4,78.4,0.00,Ratnapura
6.715,-1.591,77.9,0.00,Kumasi
6.785,101.154,83.3,0.00,Pattani
6.793,-6.473,82.6,0.00,Daloa
6.8,-58.15,85.6,0.00,Georgetown
6.8,-58.1,85.6,0.00,Ogle
6.8,100.383,84.9,0.00,Sa-Dao
6.817,80.967,72.7,0.08,Diyatalawa
6.822,79.886,79.5,0.67,Colombo Ratmalana
6.883,81.833,84.8,1.06,Pottuvil
6.9,79.867,79.0,0.62,Colombo
6.917,116.833,80.8,0.00,Kudat
6.922,122.06,84.9,0.00,Zamboanga Intl
6.933,100.393,82.9,0.00,Hat Yai Intl
6.967,80.767,62.4,0.14,Nuwara Eliya
6.967,158.217,83.9,0.07,Pohnpei Weather Center
6.983,81.05,74.6,0.10,Badulla
7.0,100.5,84.4,0.00,Kho Hong Agromet
7.024,-73.807,81.7,0.04,Yariguies
7.069,-70.737,81.4,0.00,Santiago Perez
7.083,171.133,83.2,0.11,Majuro Atoll Weather Center
7.117,171.35,82.9,0.00,Majura  Marshall Is.
7.126,125.646,84.6,0.24,Francisco Bangoy Intl
7.127,-73.185,69.3,0.04,Palonegro
7.167,2.067,81.0,0.20,Bohicon
7.167,124.217,83.0,0.00,Cotobato
7.181,79.866,78.9,0.00,Bandaranaike Intl Colombo
7.187,100.608,84.8,0.00,Songkhla
7.211,-70.756,79.2,0.00,Guasdualito
7.333,80.633,76.8,0.26,Kandy
7.337,134.477,83.4,0.14,West Caroline Islands Pacific
7.357,13.559,76.9,0.35,Ngaoundere
7.362,3.978,79.2,0.00,Ibadan
7.467,80.367,81.2,0.01,Kurunegala
7.467,151.85,84.8,0.09,Chuuk International Airport
7.509,99.617,84.5,0.00,Trang
7.533,99.05,85.3,0.00,Ko Lanta
7.565,-72.035,74.8,0.79,Mayor Buenaventura Vivas
7.583,1.117,80.6,0.00,Atakpame/Akpaka
7.583,100.167,84.9,0.00,Phatthalung Agromet
7.706,81.679,81.7,1.30,Batticaloa
7.812,-76.716,81.7,0.00,Antonio Roldan Betancourt
7.817,-0.033,83.1,0.00,Kete-Krachi
7.841,-72.44,79.5,1.42,San Antonio Del Tachira / General Cipriano Castro Intl
7.883,-67.444,85.6,0.00,San Fernando De Apure / Las Flecheras
7.883,98.4,86.0,0.00,Phuket
7.928,-72.512,81.3,0.59,Camilo Daza
8.017,110.617,81.8,0.02,Huyen Tran
8.033,2.467,78.8,0.16,Save
8.033,79.833,78.9,1.15,Puttalam
8.05,-2.783,82.1,0.00,Bondoukou/Soko
8.099,98.986,88.2,0.00,Krabi
8.1,98.983,83.4,0.00,Krabi
8.113,98.317,83.1,0.00,Phuket Intl
8.117,80.467,81.4,0.02,Maha Illuppallama
8.122,-63.537,90.0,0.00,Ciudad Bolivar
8.15,125.133,78.2,0.49,Malaybalay
8.3,73.15,86.2,0.00,Minicoy
8.301,80.428,80.7,0.04,Anuradhapura
8.359,100.059,83.0,0.00,Nakhonsi Thammarat Agromet
8.367,126.333,82.5,0.00,Hinatuan
8.391,-82.435,84.2,0.00,Enrique Malek Intl
8.4,20.65,83.6,0.91,N'Dele
8.417,124.617,79.9,0.04,Lumbia Airport
8.433,99.517,83.2,0.00,Chawang
8.44,4.494,74.3,0.59,Ilorin
8.471,99.956,82.6,0.00,Cha Ian
8.482,76.92,85.2,0.00,Thiruvananthapuram Intl
8.483,76.95,83.6,0.00,Thiruvananthapuram
8.539,81.182,81.1,0.12,China Bay
8.54,99.945,86.1,0.00,Nakhon Si Thammarat
8.567,99.25,83.1,0.00,Phrasang
8.582,-71.161,67.6,0.87,Alberto Carnevalli
8.601,123.334,81.6,1.28,Dipolog
8.616,-13.195,82.4,0.00,Freetown Lungi
8.62,-70.221,82.0,0.00,Barinas
8.624,-71.673,84.6,0.00,Juan Pablo Perez Alfonso
8.624,16.071,92.2,0.00,Moundou
8.633,-71.65,79.1,0.55,El Vigia
8.65,111.917,84.6,0.00,Truong Sa
8.683,98.25,83.0,0.35,Takua Pa
8.683,106.6,82.1,0.00,Con Son
8.73,167.73,84.3,0.00,Kwajalein Island
8.733,167.733,84.1,0.19,Bucholz Aaf Kwajalein Kmr Atol Ap
8.75,80.5,80.2,0.22,Vavuniya
8.824,-75.826,83.8,0.00,Los Garzones
8.925,-67.417,32.0,0.00,Calabozo
8.95,125.483,82.7,0.01,Butuan
8.967,-79.55,81.7,0.00,Marcos A Gelabert I
8.978,38.799,63.8,0.03,Bole Intl
8.983,1.15,77.7,0.08,Sokode
8.983,79.917,79.9,2.56,Mannar
9.027,-69.755,83.9,0.00,Guanare
9.033,-2.483,77.5,0.00,Bole
9.071,-79.383,81.7,0.00,Tocumen Intl
9.1,99.633,83.2,0.00,Surat Thani Agromet
9.133,99.136,83.6,0.44,Surat Thani
9.183,105.15,83.2,0.00,Ca Mau
9.2,101.4,66.4,0.00,Fixed
9.222,-65.994,92.1,0.00,Valle De La Pascua
9.258,12.43,92.7,0.00,Yola
9.283,79.217,80.1,1.02,Pamban
9.283,103.467,82.8,0.06,Tho Chu
9.334,123.3,83.6,0.19,Dumaguete
9.336,13.37,90.4,0.00,Garoua
9.34,-70.584,74.5,0.59,Dr Antonio Nicolas Briceno
9.341,-82.251,84.1,0.00,Bocas Del Toro Intl / Jose Ezequiel Hall
9.35,2.617,79.2,0.00,Parakou
9.367,14.917,92.2,0.08,Pala
9.45,-0.017,81.3,0.00,Yendi
9.467,100.05,84.4,0.04,Ko Samui
9.483,138.083,82.7,0.11,Yap International Airport
9.548,100.062,87.0,0.00,Samui
9.553,-69.238,82.5,0.00,Oswaldo Guevara Mujica / Batalla De Araure
9.557,-0.863,80.0,0.00,Tamale
9.577,-13.612,85.4,0.00,Conakry / Ahmed Sekou Toure Intl
9.65,80.017,80.8,2.73,Jaffna
9.664,123.853,83.0,0.20,Tagbilaran
9.742,118.759,83.2,0.00,Puerto Princesa
9.749,-63.153,82.9,0.35,Maturin / Jose Tadeo Monagas Intl
9.767,1.091,78.3,0.03,Niamtougou International
9.778,98.585,86.0,0.00,Ranong
9.783,125.483,84.1,0.21,Surigao
9.817,-70.933,84.0,0.39,Mene Grande
9.907,-67.38,81.0,0.04,San Juan De Los Morros
9.946,76.272,83.8,0.00,Cochin
9.95,-84.133,76.2,0.00,Tobias Bolanos Intl
9.958,-83.022,83.0,0.00,Limon Intl
9.967,98.583,88.3,0.00,Victoria Point
9.994,-84.209,74.0,0.00,Juan Santamaria Intl
10.0,105.083,83.9,0.00,Rach Gia
10.043,-69.359,77.2,1.14,Barquisimeto Intl
10.107,-64.689,83.3,0.00,General Jose Antonio Anzoategui Intl
10.133,124.867,80.3,0.05,Maasin
10.15,-67.928,80.0,0.08,Arturo Michelena Intl
10.15,76.4,82.3,0.00,Cochin Int. Airport Nedumbassery
10.217,103.967,83.7,1.79,Phu Quoc
10.25,-67.649,86.9,0.00,Mariscal Sucre
10.308,123.979,83.5,0.02,Mactan Cebu Intl
10.317,1.383,80.4,0.02,Natitingou
10.333,-3.183,88.2,0.00,Gaoua
10.333,99.1,83.9,0.00,Sawi Agromet
10.367,0.467,85.8,0.02,Mango/Sansanne
10.383,114.367,85.7,0.20,Nansha Dao
10.435,-73.25,85.5,0.02,Alfonso Lopez Pumarejo
10.442,-75.513,83.1,0.00,Rafael Nunez
10.45,-64.13,83.6,0.00,Antonio Jose De Sucre
10.517,-71.65,83.5,0.00,La Canada
10.558,-71.728,83.6,0.00,La Chinita Intl
10.574,-62.313,85.8,0.00,Guiria / Almirante Cristobal Colon
10.593,-85.544,88.4,0.00,Daniel Oduber Quiros Intl
10.595,-61.337,81.4,0.18,Piarco
10.603,-66.991,80.2,0.01,Simon Bolivar Intl
10.696,7.32,76.3,0.00,Kaduna
10.711,99.362,83.3,0.26,Chumphon
10.765,78.71,80.4,0.79,Tiruchirappalli
10.767,79.85,81.3,0.12,Nagappattinam
10.8,0.25,84.9,0.00,Dapango
10.819,106.652,84.1,0.16,Tan Son Nhat Intl
10.85,121.0,83.3,0.00,Cuyo
10.867,0.25,81.9,0.00,Dapaon
10.89,-74.781,82.0,0.00,Ernesto Cortissoz
10.9,-1.1,79.7,0.00,Navrongo
10.913,-63.967,81.6,0.00,Del Caribe Intl Gen Santiago Marino
10.917,79.833,81.1,0.12,Karaikal
10.933,108.1,82.9,0.00,Phan Thiet
11.031,77.044,78.3,0.00,Coimbatore
11.036,125.742,81.3,0.87,Guiuan
11.083,39.717,72.9,0.00,Combolcha/Dessie
11.117,42.367,84.4,0.00,Dikhil
11.117,72.733,87.1,0.00,M.O. Amini
11.12,-74.231,81.9,0.08,Simon Bolivar
11.133,2.933,84.8,0.00,Kandi
11.137,75.955,83.9,0.00,Calicut
11.15,-60.833,81.8,0.00,Crown Point Airport   Tobago
11.15,-1.15,86.5,0.00,Po
11.16,-4.331,85.5,0.00,Bobo Dioulasso
11.228,125.028,81.1,0.98,Daniel Z Romualdez
11.25,75.783,84.5,1.34,Kozhikode
11.35,-5.683,85.5,0.00,Sikasso
11.415,-69.681,84.9,0.20,Jose Leonardo Chirinos
11.417,-85.833,85.3,0.00,Rivas
11.417,-7.5,85.8,0.00,Bougouni
11.417,114.333,84.6,0.00,Song Tu Tay (South West Cay)
11.526,-72.926,85.2,0.20,Almirante Padilla
11.547,43.159,84.7,0.00,Camp Lemonnier
11.547,104.844,86.5,0.00,Phnom Penh Intl
11.55,43.133,87.4,0.00,Djibouti/Ambouli
11.55,43.15,85.6,0.00,Djibouti
11.598,122.752,82.6,0.02,Roxas
11.667,92.717,83.3,0.00,Port Blair
11.667,125.45,80.0,0.37,Borongan
11.75,-2.933,89.6,0.02,Boromo
11.767,79.767,80.8,0.83,Cuddalore
11.767,102.883,80.2,1.41,Khlong Yai
11.783,124.883,82.5,0.08,Catbalogan
11.788,99.805,81.6,1.28,Prachuap
11.883,3.45,89.4,0.00,Gaya
11.895,-15.654,83.1,0.00,Bissau Oswaldo Vieira Intl
11.991,-83.774,82.8,0.00,Bluefields
12.004,-61.786,81.9,0.00,Point Salines Intl
12.033,0.367,87.4,0.04,Fada N'Gourma
12.048,8.525,81.1,0.51,Mallam Aminu Kano Intl
12.1,-85.367,87.8,0.00,Juigalpa
12.131,-68.269,82.5,0.00,Flamingo
12.134,15.034,94.9,0.00,Ndjamena Hassan Djamous
12.141,-86.168,85.3,0.00,Managua Intl / Augusto Cesar Sandino Intl
12.189,-68.96,81.3,0.04,Hato
12.217,120.2,84.9,0.00,Coron
12.25,109.2,80.7,0.00,Nha Trang
12.275,102.32,80.4,0.00,Trat
12.353,-1.512,91.1,0.00,Ouagadougou
12.362,121.047,85.6,0.00,San Jose
12.369,123.629,83.5,0.00,Masbate
12.383,-5.467,89.6,0.00,Koutiala
12.41,-16.746,73.7,0.00,Cap Skirring
12.433,98.6,83.9,0.00,Mergui
12.467,-3.483,90.2,0.00,Dedougou
12.467,4.217,76.8,0.00,Birnin Kebbi
12.5,102.167,79.4,0.37,Phliu Agromet
12.501,-70.015,83.8,0.00,Reina Beatrix Intl
12.502,124.636,80.8,0.00,Catarman
12.534,-7.95,90.4,0.00,Senou / President Modibo Keita
12.556,-16.282,84.6,0.00,Ziguinchor
12.572,-12.22,90.7,0.00,Kedougou
12.583,99.733,82.3,0.00,Nong Phlub Agromet
12.583,122.283,83.3,0.00,Romblon
12.584,-81.711,81.6,0.23,Gustavo Rojas Pinilla
12.6,102.117,79.1,0.01,Chanthaburi
12.633,-87.133,86.4,0.00,Chinandega
12.633,53.9,83.0,0.00,Socotra
12.633,101.35,81.5,0.00,Rayong
12.636,99.952,83.4,0.00,Hua Hin
12.683,100.983,79.7,0.00,Sattahip
12.683,108.083,77.9,0.00,Banmethuot
12.733,101.133,78.8,1.06,Huai Pong Agromet
12.833,45.033,85.4,0.00,Aden
12.85,-11.233,95.5,0.00,Kenieba
12.883,-14.967,84.1,0.00,Kolda
12.917,100.867,79.5,0.02,Phatthaya
12.95,77.633,75.4,0.00,Bangalore/Hindustan Airport
12.961,74.89,82.5,0.00,Mangalore
12.967,77.583,77.0,0.00,Bangalore
12.983,8.933,92.0,0.00,Magaria
12.994,80.181,82.7,0.00,Chennai Intl
12.999,100.067,81.7,1.09,Phetchaburi
13.033,3.3,90.1,0.00,Dosso
13.067,-9.467,95.2,0.00,Kita
13.075,-59.492,81.2,0.00,Grantley Adams Intl
13.083,-85.983,76.3,0.00,Jinotega
13.083,100.883,80.9,1.48,Laem Chabang
13.144,-61.211,83.5,0.05,E T Joshua
13.153,30.233,90.9,0.00,El Obeid
13.157,123.746,82.6,0.02,Legazpi
13.167,100.8,80.3,0.58,Ko Sichang
13.2,77.7,76.8,0.00,Bangaluru Intl Airport / Kempegowda Intl
13.233,11.983,94.6,0.00,Maine-Soroa
13.25,43.283,85.3,0.00,Mokha
13.283,-87.667,86.3,0.00,Amapala/Los Pelonas
13.3,-87.183,85.7,0.00,Choluteca
13.317,-14.217,99.8,0.00,Basse
13.333,-4.833,92.8,0.00,San
13.338,-16.652,76.8,0.00,Banjul Intl
13.357,-81.358,82.8,0.00,El Embrujo
13.367,100.983,80.1,0.20,Chon Buri/Sattahip / Suvarnabhumi Intl
13.373,12.627,91.6,0.00,Diffa
13.383,100.6,83.0,0.87,Bangkok Pilot
13.4,-6.15,91.6,0.00,Segou
13.411,103.813,81.4,0.00,Siem Reap
13.417,121.183,82.0,0.00,Calapan/Mindoro Isl
13.43,-88.12,86.5,0.00,San Miguel/Papalon
13.441,-89.056,81.1,0.00,El Salvador Intl / San Oscar A Romero And Galdamez Intl
13.482,2.184,93.6,0.00,Diori Hamani
13.483,99.783,81.3,0.50,Ratcha Buri
13.483,144.8,83.4,0.03,Guam International Airport
13.503,7.127,93.5,0.00,Maradi
13.517,100.75,80.2,2.28,Samutprakan Agromet
13.533,-14.767,100.5,0.00,Georgetown
13.567,-89.833,86.8,0.00,Acajutla/Sonsonate
13.567,-2.417,92.9,0.00,Ouahigouya
13.567,101.454,78.8,2.49,Chachoengsao Agromet
13.576,124.206,79.7,0.26,Virac
13.583,144.917,81.2,0.39,Andersen Afb Airport
13.654,124.341,76.5,3.98,Catanduanes Radar
13.667,100.617,80.4,1.31,Bang Na Agromet
13.683,100.767,79.9,0.39,Suvarnabhumi Inter Airport
13.686,44.139,68.8,0.43,Ganed
13.699,-89.12,78.0,0.00,Ilopango Intl
13.7,100.567,82.3,2.54,Bangkok Port
13.7,102.504,82.1,0.02,Aranyaprathet
13.733,-60.953,82.1,0.48,Hewanorra Intl
13.733,100.567,79.9,2.13,Bangkok Metropolis
13.737,-13.653,93.2,0.00,Tambacounda
13.767,109.217,80.8,0.00,Quy Nhon
13.779,8.984,96.2,0.00,Zinder
13.783,102.033,79.2,2.37,Srakaew
13.8,5.25,93.0,0.00,Birni-N'Konni
13.913,100.607,80.0,0.20,Bangkok Intl / Don Mueang Intl
13.936,-90.836,82.6,0.00,San Jose
13.983,10.3,93.9,0.00,Goure
13.983,101.7,80.9,0.09,Kabinburi
14.0,44.333,71.1,0.00,Ibb
14.005,108.017,75.2,0.00,Pleiku
14.017,99.533,81.2,0.94,Kanchana Buri
14.017,99.967,80.5,1.51,Nakhonpathom
14.017,121.6,80.5,0.00,Tayabas
14.02,-60.993,83.0,0.00,George F L Charles
14.033,-0.033,94.4,0.00,Dori
14.047,-83.387,83.2,0.00,Puerto Cabezas
14.061,-87.217,74.6,0.00,Toncontin Intl
14.078,101.38,81.1,0.48,Khao E To
14.083,121.05,83.0,0.00,Ambulong
14.1,98.217,82.1,0.00,Dawei
14.1,100.617,81.3,0.06,Pathumthani
14.1,122.017,81.6,0.00,Alabat
14.117,93.367,87.9,0.00,Coco Island
14.129,122.98,81.2,0.03,Daet
14.147,-16.051,87.1,0.00,Kaolack
14.172,145.243,81.8,0.00,Rota International Airport
14.2,1.45,94.0,0.00,Tillabery
14.233,76.433,83.3,0.00,Chitradurga
14.25,13.117,94.6,0.00,N'Guigmi
14.283,74.45,83.5,0.00,Honavar
14.3,99.867,80.4,0.00,U Thong Agromet
14.333,-88.167,65.6,0.53,La Esperanza
14.382,-87.621,76.2,0.01,Palmerola Intl
14.4,33.483,91.4,0.00,Wad Medani
14.433,-89.2,79.5,0.67,Nueva Ocotepeque
14.45,79.983,86.0,0.00,Nellore
14.467,100.133,81.5,0.00,Suphan Buri
14.482,-11.44,95.3,0.00,Kayes/Dag-Dag
14.495,120.904,86.1,0.00,Sangley Point Ab
14.5,-53.02,79.5,0.00,Moored Buoy 41040
14.5,-46.0,78.0,0.00,Moored Buoy 41041
14.509,121.02,85.3,0.00,Ninoy Aquino Intl
14.513,-4.08,90.9,0.00,Ambodedjo
14.517,100.717,82.7,0.00,Ayutthaya
14.521,-91.697,84.1,0.00,Retalhuleu
14.551,46.826,88.3,0.00,Ataq
14.57,-89.35,77.8,0.00,Esquipulas
14.583,-90.527,68.8,0.00,La Aurora
14.583,44.417,61.1,0.00,Dhamar
14.583,77.633,88.5,0.00,Pbo Anantapur
14.583,120.983,85.6,0.00,Manila
14.583,121.367,74.3,0.00,Tanay
14.591,-61.003,80.5,0.33,Le Lamentin
14.6,-56.2,79.5,0.00,Buoy 41101 / East Of Martinique
14.631,102.721,83.4,0.00,Nangrong
14.633,101.317,79.9,0.00,Pakchong Agromet
14.65,-16.233,82.6,0.00,Diourbel
14.65,121.05,84.4,0.00,Science Garden
14.663,49.375,83.3,0.00,Riyan / Mukalla Intl
14.717,102.167,84.0,0.43,Chok Chai
14.74,-17.49,70.8,0.00,Leopold Sedar Senghor Intl
14.75,98.633,80.6,0.00,Thong Phaphum
14.75,121.65,80.8,0.05,Infanta
14.753,42.976,86.0,0.00,Hodeidah
14.767,-60.883,81.7,0.00,Trinite Caravelle
14.783,-88.783,75.5,0.39,Santa Rosa De Copan
14.794,-92.37,82.2,0.00,Tapachula Intl
14.8,100.617,83.0,0.00,Lop Buri
14.8,106.833,91.4,0.00,Attopeu
14.8,120.267,86.1,0.00,Subic Bay Weather
14.866,-91.502,62.2,0.00,Quetzaltenango
14.876,5.265,94.6,0.00,Tahoua
14.883,103.45,85.3,0.00,Surin Agromet
14.883,103.5,84.2,0.00,Surin
14.9,-85.933,83.3,0.00,Catacamas
14.917,-92.25,84.3,0.00,Tapachula  Chis
14.933,-23.483,73.8,0.00,Praia
14.935,102.079,84.0,0.00,Khorat
14.967,-89.533,90.0,0.00,Zacapa
14.999,145.621,84.8,0.00,West Tinian
15.085,104.331,83.5,0.00,Si Saket Agromet
15.117,-10.567,94.7,0.00,Yelimane
15.117,105.767,85.0,0.00,Pakse
15.117,145.717,83.1,0.05,Francisco C. Ada/Saipan International Arpt
15.133,108.783,79.7,0.00,Quang Ngai
15.15,100.183,84.4,0.00,Chainat Agromet
15.167,-87.117,81.1,0.00,Yoro
15.167,-7.283,90.3,0.00,Nara/Keibane
15.183,120.55,83.2,0.00,Clark Intl
15.186,120.56,82.9,0.00,Clark Intl / Diosdado Macapagal Intl
15.233,-9.35,91.1,0.00,Nioro Du Sahel
15.233,103.25,85.1,0.00,Bureram
15.233,105.033,83.3,0.00,Ubon Ratchathani Agromet
15.251,104.87,83.3,0.02,Ubon Ratchathani
15.267,101.2,85.4,0.00,Bua Chum
15.317,-91.467,65.2,0.00,Huehuetenango
15.317,103.683,85.4,0.00,Tha Tum
15.333,-1.683,93.0,0.00,Hombori
15.333,106.683,88.2,0.03,Sekong
15.333,119.967,82.8,0.00,Iba/Luzon Island
15.337,-61.392,82.0,0.00,Canefield
15.35,100.5,85.5,0.00,Takfa Agromet
15.383,-15.117,91.0,0.00,Linguere
15.387,36.329,94.1,0.00,Kassala
15.417,75.633,82.6,0.00,Gadag
15.433,45.333,92.6,0.00,Marib
15.453,-87.924,82.9,0.00,La Mesa Intl / Ramon Villeda Morales Intl
15.467,120.95,84.7,0.00,Cabanatuan
15.469,-90.407,76.7,0.00,Coban
15.476,44.22,66.2,0.16,Sanaa Intl
15.483,73.817,85.1,0.00,Goa/Panjim
15.5,80.083,87.1,0.00,Ongole
15.547,-61.3,81.1,0.00,Melville Hall
15.589,32.553,94.9,0.00,Khartoum
15.65,-13.25,92.5,0.00,Matam/Ouro Sogui
15.657,101.105,86.9,0.00,Wichian Buri
15.673,100.137,85.2,0.02,Nakhon Sawan
15.683,-96.483,86.2,0.02,Puerto Angel  Oax.
15.683,106.417,88.9,0.00,Saravane
15.731,-88.584,80.9,0.00,Puerto Barrios
15.742,-86.853,79.4,0.00,Goloson Intl
15.75,121.633,79.3,0.01,Baler Radar
15.775,-96.263,82.8,0.00,Bahias De Huatulco Intl
15.776,-87.476,85.0,0.00,Tela
15.8,78.067,90.1,0.00,Kurnool
15.8,102.033,85.7,0.00,Chaiyaphum
15.833,43.583,71.6,0.00,Hajjah
15.859,74.618,79.2,0.00,Belgaum
15.867,2.217,94.8,0.00,Menaka
15.877,-97.089,83.4,0.00,Puerto Escondido Intl
15.93,-85.93,85.1,0.00,Trujillo Honduras
15.967,48.783,87.6,0.00,Sayun
15.983,48.95,87.3,0.00,Seiyoun
16.017,98.867,77.6,0.02,Umphang
16.044,108.199,77.0,0.00,Danang Intl
16.051,-16.463,76.3,0.00,Saint Louis Ousmane Masseck Ndiaye
16.067,103.617,85.9,0.00,Roi Et Agromet
16.07,103.646,85.6,0.00,Rob Muang
16.083,43.167,87.3,0.00,Abbs
16.083,52.083,87.3,0.00,Ai-Ghaidah
16.083,120.35,81.7,0.00,Dagupan
16.137,-22.889,76.1,0.00,Boa Vista Rabil
16.167,-95.183,86.0,0.00,Salina Cruz  Oax.
16.2,81.15,84.4,0.01,Machilipatnam/Franchpet
16.233,-93.9,85.5,0.00,Arriaga  Chis.
16.248,-0.005,91.2,0.00,Gao
16.25,-92.133,69.8,0.00,Comitan  Chis.
16.25,103.067,85.6,0.00,Kosumphisai
16.265,-61.532,77.7,0.03,Le Raizet
16.267,122.133,81.1,0.04,Casiguran
16.317,-86.523,84.4,0.00,Juan Manuel Galvez Intl
16.333,100.367,84.8,0.22,Pichit Agromet
16.333,102.817,85.3,0.00,Tha Phra Agromet
16.333,103.583,87.3,0.00,Kamalasai
16.375,120.62,70.2,0.00,Baguio
16.402,107.703,76.7,0.38,Phubai
16.449,-95.094,85.2,0.00,Ixtepec
16.467,-86.067,80.5,0.00,Guanaja Island
16.467,102.784,86.2,0.00,Khon Kaen
16.483,99.533,83.1,0.05,Kamphaeng Phet
16.5,-15.817,87.9,0.00,Rosso
16.53,80.797,84.7,0.00,Vijayawada
16.533,104.717,84.6,0.00,Mukdahan
16.533,111.617,80.6,0.00,Sanhu Dao
16.557,104.76,84.5,0.00,Savannakhet
16.59,-11.406,92.3,0.00,Kiffa
16.622,-7.317,91.9,0.00,Nema
16.65,-14.967,87.8,0.00,Podor
16.667,105.0,85.8,0.00,Seno
16.676,101.195,85.3,0.39,Phetchabun
16.7,98.545,80.6,0.00,Mae Sot
16.711,-9.638,88.7,0.00,Aioun El Atrouss
16.73,-3.008,89.0,0.00,Tombouctou
16.74,-93.173,83.6,0.00,General Div P A Angel H Corzo Molina / Teran
16.741,-22.949,72.1,0.00,Amilcar Cabral Intl
16.75,-99.75,85.1,0.00,Acapulco  Gro
16.75,-93.133,83.3,0.00,Francisco Sarabia / Tuxtla Gutierrez Intl
16.75,-92.633,64.0,0.00,Sn. Cristobal Las Casas  Chis.
16.75,98.933,71.2,0.02,Doi Mu Soe Agromet
16.757,-99.754,83.5,0.00,General Juan N Alvarez Intl / Acapulco Intl
16.767,94.767,85.3,0.00,Pathein
16.767,101.25,84.0,0.01,Lomsak
16.783,100.279,84.4,0.28,Phitsanulok
16.8,100.767,87.4,0.00,Phitsanulok
16.833,-25.05,73.3,0.00,Mindelo
16.833,112.333,79.3,0.00,Xisha Dao
16.896,99.253,81.3,0.07,Tak
16.901,42.586,88.7,0.00,King Abdullah Bin Abdulaziz
16.907,96.133,85.0,0.00,Yangon Intl
16.914,-89.866,81.4,0.00,Mundo Maya Intl
16.933,54.017,83.0,0.00,Mina Salalah
16.95,82.233,85.0,0.00,Kakinada
16.967,7.967,100.5,0.00,Agadez / Mano Dayak
16.967,43.733,76.3,0.00,Saada/Sadah
16.983,73.333,84.4,0.00,Ratnagiri
17.0,-96.733,76.2,0.00,Xoxocotlan Intl / Oaxaca Intl
17.039,54.091,83.3,0.00,Salalah
17.05,-96.717,75.5,0.00,Oaxaca  Oax.
17.1,99.8,83.3,0.04,Sukhothai
17.117,104.05,83.2,0.00,Sakon Nakhon Agromet
17.137,-61.793,80.5,0.00,V C Bird Intl
17.14,-157.79,76.1,0.00,Sw Hawaii 215 Nm South Southwest Of Hilo
17.15,104.133,84.4,0.00,Sakon Nakhon
17.167,99.867,82.6,0.00,Si Samrong Agromet
17.195,104.119,87.5,0.00,Sakon Nakhon
17.206,-62.59,83.2,0.00,Vance Winkworth Amory Intl
17.217,102.417,84.7,0.00,Nongbualamphu
17.233,78.417,83.5,0.00,Hyderabad Intl Airport / Rajiv Gandhi Intl
17.233,99.05,79.8,0.00,Bhumibol Dam
17.238,99.818,83.7,0.00,Sukhothai
17.25,54.083,70.5,0.00,Qairoon Hairiti
17.311,-62.719,82.8,0.00,Robert L Bradshaw
17.383,104.65,87.8,0.00,Thakhek
17.384,104.643,88.4,0.00,Nakhon Phanom
17.386,102.788,86.8,0.00,Udon Thani
17.4,101.733,82.3,0.00,Loei Agromet
17.417,104.783,84.1,0.00,Nakhon Phanom
17.433,104.783,84.2,0.00,Nakhon Phanom Agromet
17.439,101.722,82.1,0.00,Loei
17.452,78.461,87.6,0.00,Begumpet Airport / Hyderabad Intl
17.467,47.121,91.4,0.00,Sharurah
17.483,106.6,72.9,0.04,Dong Hoi
17.496,-62.979,80.1,0.00,F D Roosevelt
17.52,-152.48,74.7,0.00,Se Hawaii 185 Nm Southeast Of Hilo  Hi
17.539,-88.308,83.6,0.00,Philip S W Goldson Intl
17.55,-99.5,77.4,0.00,Chilpancingo  Ro.
17.555,120.356,83.0,0.00,Vigan
17.602,-101.461,82.3,0.00,Ixtapa Zihuatanejo Intl
17.611,44.419,84.4,0.20,Nejran
17.617,100.1,82.3,0.03,Uttaradit
17.628,75.935,87.1,0.00,Solapur
17.633,99.25,81.6,0.00,Thoen
17.638,121.731,83.8,0.00,Tuguegarao
17.666,54.025,80.0,0.00,Thumrait
17.7,-64.813,79.0,0.00,Henry E Rohlsen Airport
17.7,-64.75,80.5,0.00,Lime Tree Bay
17.7,33.967,91.2,0.00,Atbara
17.7,83.3,84.1,0.00,Cwc Vishakhapatnam/Waltair
17.75,-64.7,80.6,0.00,Christiansted Harbor
17.783,-64.767,79.9,0.00,Salt River Bay / St Croix
17.789,-97.772,78.6,0.01,Huajuapan De Leon Oax
17.867,102.75,86.3,0.00,Nong Khai
17.917,19.111,102.9,0.00,Faya Largeau
17.933,-67.05,79.5,0.00,Media Luna / La Parguera
17.936,-76.788,79.3,0.00,Norman Manley Intl
17.95,-66.233,79.9,0.00,Jobos Bay Reserve
17.97,-67.05,79.5,0.00,Maguesyes Islands
17.983,-92.933,82.1,0.00,Villahermosa  Tab.
17.983,-92.817,88.1,0.00,C P A Carlos Rovirosa Intl / Villahermosa Intl
17.988,102.563,85.0,0.00,Wattay Intl
18.008,-66.563,76.8,0.00,Mercedita
18.041,-63.109,81.2,0.00,Princess Juliana Intl
18.05,-65.833,78.9,0.00,Yabucoa Harbor
18.09,-67.939,79.5,0.00,Mona Island
18.094,-65.471,77.7,0.00,Esperanza
18.098,-15.948,76.7,0.00,Nouakchott
18.103,-94.581,87.8,0.00,Minatitlan
18.132,100.165,77.9,0.02,Phrae
18.133,55.183,83.4,0.00,Marmul
18.167,97.933,75.6,1.88,Mae Sariang
18.178,120.532,84.6,0.00,Laoag Intl
18.183,-94.5,85.0,0.00,Coatzacoalcos  Ver
18.205,-63.055,81.7,0.00,Wallblake / Clayton J Lloyd
18.217,-67.15,77.6,0.00,Mayaguez
18.217,109.583,73.0,0.01,Sanya
18.24,42.657,66.5,0.00,Abha
18.251,-71.12,83.7,0.52,Maria Montez Intl
18.254,-67.149,84.7,0.00,Eugenio Maria De Hostos Airport
18.255,-65.641,81.0,0.00,Naval Station Roosevelt Roads Ceiba
18.271,99.504,79.3,0.05,Lampang
18.283,102.633,76.7,0.00,Thangone
18.297,42.804,67.1,0.00,King Khaled Ab
18.303,109.412,78.3,0.00,Sanya Phoenix Intl
18.317,99.283,79.2,0.13,Lampang Agromet
18.333,-65.633,80.1,0.00,Fajardo
18.333,84.133,84.1,0.00,Kalingapatam
18.336,-64.98,81.2,0.00,Cyril E King Airport
18.35,105.9,75.3,0.00,Ha Tinh
18.367,121.633,83.7,0.00,Aparri
18.4,103.667,86.1,0.00,Paksane
18.417,-66.0,80.3,0.00,San Juan Intl Arpt
18.43,-69.669,77.6,0.00,De Las Americas Intl
18.433,-69.883,79.7,0.00,Santo Domingo
18.433,-66.011,80.4,0.00,Luis Munoz Marin In
18.445,-64.543,83.5,0.00,Terrance B Lettsome Intl
18.45,-68.92,81.5,0.00,De La Romana Intnal
18.45,-67.167,84.3,0.00,Aquadilla
18.451,-68.912,83.0,0.00,Casa De Campo Intl
18.467,94.35,83.5,0.00,Sandoway
18.467,102.4,83.6,0.00,Phonhong
18.47,-66.12,79.9,0.00,San Juan
18.483,-66.7,79.2,0.00,Arecibo
18.498,-67.129,79.8,0.00,Rafael Hernandez Airport
18.504,-77.913,80.4,0.00,Sangster Intl
18.505,-88.327,84.5,0.00,Chetumal Intl
18.533,73.85,83.7,0.00,Pune
18.567,-68.363,79.9,0.00,Punta Cana Intl
18.567,99.033,76.5,0.02,Lamphun
18.57,-11.424,85.3,0.00,Tidjikja
18.573,-69.986,84.2,0.00,Dr Joaquin Balaguer Intl
18.58,-72.293,87.1,0.00,Toussaint Louverture Intl / Port Au Prince Intl
18.654,-91.799,84.7,0.00,Ciudad Del Carmen Intl
18.683,12.917,96.0,0.00,Bilma
18.737,105.671,75.6,0.00,Vinh
18.767,79.433,85.5,0.02,Ramgundam
18.767,98.963,76.7,0.00,Chiang Mai Intl
18.8,95.217,83.4,0.00,Prome
18.808,100.783,79.5,1.53,Nan
18.835,-99.262,84.2,0.00,General Mariano Matamoros / Cuernavaca Intl
18.85,-97.1,76.2,0.00,Orizaba  Ver.
18.867,100.75,78.0,2.60,Nan Agromet
18.917,96.467,83.8,0.00,Toungoo
19.05,-104.317,76.0,0.00,Manzanillo  Col.
19.05,-69.383,80.0,0.00,Sabana De La Mar
19.083,82.033,82.3,0.00,Jagdalpur
19.089,72.868,85.0,0.00,Chhatrapati Shivaji Maharaj Intl
19.1,108.617,78.4,0.00,Dongfang
19.117,100.8,79.4,0.66,Tha Wang Pha
19.145,-104.559,78.8,0.00,Playa De Oro Intl / Manzanillo Intl
19.146,-96.187,85.7,0.00,General Heriberto Jara Intl / Veracruz Intl
19.15,-96.117,83.1,0.00,Hacienda Ylang Ylang Veracruz  Ver.
19.154,30.43,90.3,0.00,Dongola
19.158,-98.371,66.6,0.00,Hermanos Serdan Intl / Puebla Intl
19.16,-160.74,76.5,0.00,W Hawaii 205 Nm Southwest Of Honolulu  H
19.174,-96.093,81.7,0.00,Sacrifice Island
19.193,99.9,76.1,0.47,Phayao
19.202,-96.113,81.2,0.00,Veracurz Harbor
19.233,101.733,81.7,0.00,Sayaboury
19.233,110.467,77.1,0.00,Qionghai
19.267,-69.75,80.4,0.00,Samana / El Catey Intl
19.277,-103.577,77.2,0.00,Colima
19.28,166.62,80.4,0.00,Wake Island
19.283,-99.683,58.4,0.26,Toluca  Mex.
19.283,166.65,81.0,0.00,Wake Island Airfield
19.3,-81.367,82.0,0.00,Owen Roberts Airport
19.301,97.976,78.1,1.10,Mae Hong Son
19.317,-98.25,62.6,0.00,Tlaxcala  Tlax.
19.337,-99.566,60.6,0.00,Licenciado Adolfo Lopez Mateos Intl / Toluca Intl
19.397,-102.039,72.8,0.00,Licenciado Y Gen Ignacio Lopez Rayon / Uruapan
19.4,-99.183,67.9,0.00,Mexico (Central)   D.F.
19.406,-70.605,78.8,0.00,Cibao Intl
19.417,93.55,82.6,0.00,Kyaukpyu
19.417,100.883,79.3,0.69,Tung Chang
19.436,-99.072,71.1,0.00,Licenciado Benito Juarez Intl / Mexico City Intl
19.467,103.133,69.2,0.08,Plaine Des Jarres (Xiengkhouang)
19.517,109.583,75.9,0.00,Danxian
19.535,-155.576,46.9,0.00,Mauna Loa 5 Nne
19.55,-96.917,73.8,0.00,Jalapa  Ver.
19.567,-88.05,84.2,0.00,Felipe Carrillo Puerto  Q Roo
19.583,37.217,81.6,0.00,Port Sudan
19.6,-96.383,81.6,0.00,La Mancha Beach
19.617,57.633,85.2,0.00,Duqm
19.645,-155.083,69.7,0.06,Hilo 5 S
19.687,-79.883,83.0,0.00,Gerrard Smith Intl / Charles Kirkconnell Intl
19.699,-80.061,79.1,0.00,Little Cayman
19.7,-101.183,67.0,0.00,Morelia  Mich.
19.717,-155.05,76.9,0.00,Hilo
19.719,-155.053,74.1,0.04,Hilo International Airport
19.736,-156.049,78.6,0.00,Kona Intl At Keahole Arpt
19.75,-70.55,78.1,0.00,Puerto Plata
19.75,-14.367,83.4,0.00,Akjoujt
19.75,105.783,75.4,0.00,Thanh Hoa
19.758,-70.57,80.6,0.00,Gregorio Luperon Intl
19.76,-155.554,61.6,0.00,Bradshaw Army Airfield
19.817,-90.5,85.6,0.00,Ingeniero Alberto Acuna Ongay Intl / Campeche Intl
19.85,-101.026,71.4,0.00,General Francisco J Mujica Intl / Morelia Intl
19.85,-77.233,80.9,0.00,Cabo Cruz  Granma
19.863,75.398,85.2,0.00,Aurangabad
19.867,99.767,75.4,0.28,Chaing Rai Argomet
19.874,-85.059,80.0,0.00,Yucatan Basin
19.885,99.827,75.8,0.18,Chiang Rai
19.897,102.161,76.9,0.00,Luang Phabang Intl
19.9,-75.15,79.0,0.00,Guantanamo Bay Naval Air Station
19.917,99.033,62.6,0.98,Doi Ang Khang
19.935,110.459,72.8,0.00,Meilan
19.95,57.1,84.0,0.00,Yaaloni
19.952,99.883,76.6,0.00,Mae Fah Luang Chiang Rai Intl
19.967,73.817,84.9,0.00,Nasik City
19.97,-75.835,78.7,0.00,Antonio Maceo Intl
19.983,-102.317,75.4,0.00,Zamora  Mich.
19.984,42.621,81.4,0.00,Bisha
20.0,110.25,75.2,0.00,Haikou
20.083,-98.367,68.3,0.00,Tulancingo  Hgo.
20.133,-98.75,64.0,0.00,Pachuca  Hgo.
20.133,92.873,83.2,0.00,Sittwe
20.133,107.717,72.4,0.00,Bach Long Vi
20.243,0.977,87.9,0.00,Tessalit
20.244,85.818,84.8,0.00,Bhubaneshwar / Biju Patnaik Intl
20.25,-74.15,81.1,0.00,Punta De Maisi   Guantanamo
20.25,100.433,77.9,0.31,Houei-Sai *
20.283,-76.25,84.7,0.00,Contramaestre   Santiago De Cuba
20.296,41.634,73.4,0.00,Al Baha / King Saud Bin Abdulaziz
20.333,-77.117,85.1,0.00,Manzanillo  Oriente
20.417,104.067,71.4,0.00,Sam-Neua
20.417,104.233,71.3,0.00,Viengsay
20.433,106.15,76.1,0.00,Nam Dinh
20.433,121.967,74.9,0.00,Basco Radar
20.504,45.2,87.2,0.00,Wadi Al Dawasir
20.517,-86.917,75.4,0.00,Cozumel Intl
20.522,-103.311,73.8,0.00,Don Miguel Hidalgo Y Costilla Intl / Guadalajara Intl
20.603,-97.461,88.2,0.00,Tajin / Poza Rica
20.617,-100.186,73.5,0.00,Queretaro Intercontinental
20.641,-88.446,87.2,0.00,Chichen Itza Intl
20.667,-103.383,77.4,0.00,Guadalajara  Jal.
20.667,116.717,78.1,0.00,Dongsha Dao
20.675,58.89,83.7,0.00,Masirah
20.68,-105.254,76.3,0.00,Licenciado Gustavo Diaz Ordaz Intl / Puerto Vallarta Intl
20.683,-88.2,85.2,0.00,Valladolid  Yuc.
20.683,102.0,73.9,0.08,Oudomxay
20.7,77.033,89.0,0.00,Akola
20.717,-78.0,79.2,0.00,Santa Cruz Del Sur   Camaguey
20.783,97.05,64.1,0.00,Taunggyi
20.786,-76.315,78.6,0.00,Frank Pais Intl
20.79,-156.949,70.6,0.00,Lanai Airport
20.8,106.633,75.1,0.00,Phu Lien
20.8,121.85,74.8,0.02,Itbayat
20.833,95.833,80.6,0.00,Meiktila
20.867,58.25,84.1,0.00,Joba
20.9,-156.47,75.4,0.00,Moluoloe
20.9,-156.429,75.3,0.00,Kahului Airport
20.9,70.367,80.6,0.00,Veraval
20.933,-17.03,67.9,0.00,Nouadhibou
20.937,-89.658,85.1,0.00,Licenciado Manuel Crescencio Rejon Int / Merida Intl
20.95,-97.4,83.2,0.00,Tuxpan.Ver.
20.963,-156.675,79.5,0.00,Kaptalua Airport
20.983,-101.483,74.4,0.00,Guanajuato Intl / Leon Intl
20.983,-65.017,78.3,0.00,Data Buoy 41043
21.0,-101.283,73.5,0.00,Guanajuato  Gto.
21.033,-86.867,78.6,0.00,Cancun Intl
21.05,101.467,75.4,0.08,Luang Namtha (M.Sing)
21.067,-75.617,78.7,0.00,Punta Lucrecia   Holguin
21.092,79.047,90.2,0.00,Dr Baba Saheb Ambedkar Intl
21.155,-157.096,77.0,0.00,Molokai Airport
21.2,-76.617,79.5,0.00,Puerto Padre   Las Tunas
21.2,72.833,85.3,0.00,Surat
21.2,94.917,81.8,0.00,Nyaung-U
21.217,110.4,76.1,0.00,Zhanjiang
21.221,105.807,76.8,0.00,Noibai Intl
21.233,81.65,86.6,0.00,Pbo Raipur
21.3,-157.87,77.2,0.00,Honolulu
21.3,-89.65,82.3,0.00,Progreso  Yuc.
21.3,99.617,71.8,0.00,Kengtung
21.317,-158.067,74.5,0.00,Kalaeloa Airport (John Rodgers Field)
21.317,-98.817,89.2,0.00,Matlapa  S.L.P.
21.324,-157.929,76.6,0.04,Honolulu International Airport
21.333,0.95,81.4,0.00,Bordj Mokhtar
21.333,103.9,71.6,0.01,Son La
21.383,57.05,86.0,0.00,Qarn Alam
21.383,93.95,67.6,0.00,Mindat
21.4,-77.85,81.2,0.00,Camaguey  Camaguey
21.419,-104.843,73.7,0.00,Tepic
21.42,-77.848,79.2,0.00,Ignacio Agramonte Intl
21.433,39.767,87.3,0.00,Makkah
21.45,-157.768,76.3,0.00,Kaneohe Mcas
21.483,40.544,71.4,0.00,Taif
21.483,109.1,76.3,0.00,Beihai
21.487,-158.028,74.6,0.00,Wheeler Army Airfield
21.5,101.583,72.2,0.00,Mengla
21.517,86.933,82.4,0.00,Balasore
21.517,107.967,74.1,0.00,Mong Cai
21.533,-77.25,81.1,0.00,Nuevitas  Camaguey
21.55,-82.533,79.7,0.00,Punta Del Este   Isla De La Juventud
21.616,-81.546,79.9,0.00,Vilo Acuna Intl
21.617,-78.85,78.7,0.00,Jucaro  Ciego De Avila
21.633,101.883,63.7,0.24,Bounneua
21.68,39.157,80.8,0.00,King Abdulaziz Intl
21.702,95.978,82.6,0.00,Mandalay Intl
21.705,-102.318,76.0,0.00,Jesus Teran Intl / Aguascalientes Intl
21.733,112.767,73.6,0.00,Shangchuan Dao
21.774,-72.266,83.1,0.00,Providenciales
21.817,31.483,85.6,0.00,Halfa (Wadi)
21.833,106.767,73.6,0.00,Lang Son
21.835,-82.784,81.1,0.00,Rafael Cabrera
21.867,-84.95,79.4,0.00,Cabo San Antonio   Pinar Del Rio
21.867,111.967,74.8,0.00,Yangjiang
21.914,84.05,84.3,0.03,Jharsuguda / Veer Surendra Sai
21.917,-80.167,79.6,0.00,Cantarrana   Cienfuegos
21.933,-79.45,78.9,0.00,Sancti Spiritus   Sancti Spiritus
21.95,-159.35,75.9,0.00,Nawiliwili
21.95,108.617,77.7,0.00,Qinzhou
21.983,96.1,83.5,0.00,Mandalay
21.984,-159.341,77.7,0.00,Lihue Airport
22.0,-98.767,90.8,0.00,Tamuin  S.L.P.
22.0,100.783,72.9,0.01,Jinghong
22.0,120.75,77.5,0.00,Hengchun
22.02,-94.05,79.8,0.00,Buoy 42055 / Bay Of Campeche
22.033,-159.783,78.0,0.00,Barking Sands Pacific Missile Range Fac Arpt
22.033,121.55,70.8,0.00,Lan Yu
22.067,-81.033,77.8,0.00,Playa Giron  Matanzas
22.1,95.133,82.1,0.00,Monywa
22.15,-80.414,80.7,0.00,Jaime Gonzalez
22.15,113.592,73.8,0.00,Macau Intl
22.2,-97.85,82.2,0.00,Tampico  Tamps
22.2,114.017,73.5,0.00,Cheung Chau
22.25,91.813,82.5,0.00,Shah Amanat Intl
22.254,-100.931,76.7,0.00,Ponciano Arriaga Intl / San Luis Potosi Intl
22.296,-97.866,81.9,0.00,General Francisco Javier Mina Intl / Tampico Intl
22.3,59.817,81.4,0.00,Ras Al Hadd
22.309,70.78,88.3,0.00,Rajkot
22.309,113.915,76.1,0.00,Hong Kong Intl
22.35,110.933,77.9,0.00,Xinyi
22.367,106.75,76.4,0.00,Longzhou
22.376,31.612,83.5,0.00,Abu Simbel
22.4,114.2,74.7,0.00,Sha Tin
22.417,-83.683,77.2,0.00,Pinar Del Rio
22.433,41.75,86.0,0.00,Muwaih
22.461,-78.328,80.4,0.00,Jardines Del Rey
22.467,-79.983,77.3,0.00,El Yabu
22.492,-79.944,77.5,0.00,Abel Santamaria
22.5,57.367,85.6,0.00,Adam Airport
22.5,103.967,75.9,0.00,Lao Cai
22.517,-79.45,79.9,0.07,Caibarien  Villa Clara
22.533,-78.367,85.1,0.00,Cayo Coco
22.533,59.483,88.3,0.00,Sur
22.533,114.15,73.7,0.00,Ta Kwu Ling
22.567,99.933,69.5,0.03,Lancang
22.577,120.35,78.3,0.00,Kaohsiung Intl
22.608,108.172,76.5,0.00,Wuxu
22.617,101.817,66.9,0.01,Jiangcheng
22.639,113.811,75.9,0.00,Baoan Intl
22.655,88.447,81.1,0.03,Netaji Subhash Chandra Bose Intl
22.667,59.4,86.3,0.00,Qalhat
22.667,106.25,73.0,0.00,Cao Bang
22.717,-82.283,81.2,0.00,Batabano  La Habana
22.722,75.801,91.4,0.00,Devi Ahilyabai Holkar
22.75,121.15,75.8,0.00,Taidong
22.767,81.9,77.8,0.24,Pendra Road
22.767,100.983,66.9,0.02,Simao
22.783,-102.567,64.0,0.00,Zacatecas  Zac. (La Bufa  Zac.)
22.783,115.367,72.7,0.00,Shanwei
22.8,5.433,75.7,0.00,Tamanrasset
22.8,5.45,75.7,0.00,Tamanrasset
22.809,58.461,84.3,0.00,Ibra
22.813,86.169,84.5,0.00,Jamshedpur
22.867,57.55,85.1,0.00,Nizwa
22.872,-82.509,80.4,0.00,San Antonio De Los Banos
22.897,-102.687,70.1,0.00,General Leobardo C Ruiz Intl / Zacatecas Intl
22.912,57.257,84.2,0.00,Bahla
22.917,-83.167,79.9,0.00,Bahia Honda  Pinar Del Rio
22.933,97.75,72.6,0.00,Lashio
22.948,-109.939,76.2,0.00,Cabo San Lucas
22.989,-82.409,76.7,0.00,Jose Marti Intl
23.0,120.217,76.7,0.00,Tainan
23.034,-81.435,78.7,0.00,Juan Gualberto Gomez Intl
23.05,112.467,77.3,0.00,Gaoyao
23.067,57.633,67.5,0.00,Saiq
23.152,-109.721,78.0,0.00,Los Cabos Intl / San Jose Del Cabo Intl
23.161,-106.266,70.2,0.00,General Rafael Buelna Intl / Mazatlan Intl
23.167,-82.35,79.9,0.00,Casa Blanca   La Habana
23.178,80.052,89.3,0.00,Jabalpur
23.2,-106.417,74.0,0.00,Colonia Juan Carrasco Mazatlan  Sin.
23.2,94.3,82.9,0.00,Kalewa
23.217,2.583,83.5,0.00,In Ziza
23.233,56.433,87.6,0.00,Ibri
23.233,57.267,53.7,0.00,Jabal Shams
23.254,57.928,88.0,0.00,Samail
23.267,5.633,59.4,0.00,Assekrem
23.287,77.337,88.2,0.00,Bhopal / Raja Bhoj
23.288,69.67,88.6,0.00,Bhuj
23.3,105.95,70.1,0.00,Napo
23.314,85.322,80.0,0.00,Birsa Munda
23.383,87.083,78.3,1.50,Bankura
23.392,113.299,78.9,0.00,Baiyun Intl
23.4,110.083,77.9,0.00,Guiping
23.4,116.683,74.7,0.00,Shantou / Chaoshan
23.417,57.433,86.3,0.00,Rustaq
23.45,103.333,67.5,0.02,Mengzi
23.467,-75.782,77.1,0.00,George Town
23.483,11.233,85.8,0.00,In-Ezzane
23.483,111.3,76.1,0.00,Wuzhou
23.55,99.4,67.2,0.08,Gengma
23.593,58.284,86.2,0.00,Seeb Intl / Muscat Intl
23.6,101.983,73.7,0.10,Yuanjiang
23.633,58.567,85.5,0.00,Mina Sultan Qaboos
23.7,-15.867,66.0,0.00,Villa Cisneros(Mil)
23.704,-98.957,89.4,0.00,General Pedro Jose Mendez Intl / Ciudad Victoria Intl
23.718,-15.932,66.8,0.00,Dakhla
23.742,-99.17,86.2,0.00,Ciudad Victoria   Tamps.
23.767,-98.2,86.9,0.00,Soto La Marina   Tamps.
23.8,114.733,76.5,0.00,Heyuan
23.883,113.517,76.5,0.00,Fogang
23.887,91.24,79.7,0.00,Agartala
23.9,106.6,73.3,0.00,Baise
23.95,100.217,64.1,0.03,Lincang
23.964,32.82,80.2,0.00,Aswan Intl
24.0,97.85,68.5,0.05,Ruili
24.05,-104.6,71.6,0.00,Durango  Dgo.
24.05,84.067,86.8,0.00,Daltonganj
24.061,47.411,89.7,0.00,Al Kharj
24.067,105.067,67.5,0.00,Guangnan
24.073,-110.362,77.6,0.00,General Manuel Marquez De Leon Intl / La Paz Intl
24.124,-104.528,75.5,0.00,Durango Intl
24.144,38.063,79.0,0.00,Yenbo / Prince Abdulmohsin Bin Abdulaziz
24.15,120.683,78.2,0.00,Taizhong
24.167,-110.3,74.9,0.00,La Paz  Bcs
24.167,96.333,78.7,0.00,Katha
24.2,110.517,74.1,0.00,Mengshan
24.217,5.533,75.1,0.00,Mertouek
24.233,55.783,89.5,0.00,Buraimi (Aut)
24.25,54.55,88.5,0.00,Al Dhafra
24.262,55.609,90.0,0.00,Al Ain Intl
24.267,97.2,78.3,0.00,Bhamo
24.283,116.067,77.0,0.00,Mei Xian
24.29,153.979,75.6,0.00,Minami Torishima
24.293,9.452,83.7,0.00,Tiska
24.345,124.187,75.4,0.00,New Ishigaki
24.35,109.4,77.5,0.00,Liuzhou
24.367,114.483,75.6,0.00,Lianping
24.428,54.458,87.8,0.00,Al Bateen Executive
24.433,54.651,88.5,0.00,Abu Dhabi Intl / Zayed Intl
24.433,123.767,74.4,0.00,Iriomotejima
24.45,44.121,83.5,0.00,Prince Salman Bin Abdulaziz / Al Dawadmi
24.46,-81.88,78.2,0.00,Sand Key  Fl
24.467,56.65,83.7,0.00,Sohar Majis
24.467,123.017,74.4,0.00,Yonagunijima
24.533,103.767,60.2,0.00,Luxi
24.544,118.128,74.3,0.00,Gaoqi
24.55,-81.8,81.0,0.00,Key West
24.553,39.705,81.8,0.00,Prince Mohammad Bin Abdulaziz
24.557,-81.755,80.3,0.00,Key West International Airport
24.567,80.833,90.3,0.00,Satna
24.583,-81.683,81.7,0.00,Key West Nas
24.618,73.896,88.6,0.00,Udaipur / Maharana Pratap
24.63,-81.11,78.7,0.00,Sombrero Key  Fl
24.633,68.9,84.2,0.00,Badin
24.65,77.317,91.1,0.00,Guna
24.667,113.6,78.0,0.00,Shaoguan
24.68,-82.77,78.5,0.00,Pulaski Shoal Light
24.7,108.05,74.9,0.00,Hechi
24.717,4.65,78.9,0.00,Moulay Lachen
24.72,-81.1,79.5,0.00,Vaca Key
24.722,46.725,83.9,0.00,King Salman Ab
24.726,-81.052,81.2,0.00,The Fl Keys Marathon Arpt
24.744,84.951,88.1,0.00,Gaya
24.76,93.897,73.6,0.00,Imphal
24.765,-107.475,77.9,0.00,Culiacan Intl
24.783,125.295,73.0,0.00,Miyako
24.784,141.323,71.1,0.00,Iwoto
24.8,112.367,76.0,0.00,Lianzhou
24.827,125.145,74.2,0.00,Shimojishima
24.84,-80.86,78.3,0.00,Long Key  Fl
24.867,94.917,81.7,0.00,Homalin
24.886,55.172,86.7,0.00,Al Maktoum Intl Airport
24.907,67.161,84.1,0.00,Jinnah Intl
24.95,115.65,73.2,0.00,Xunwu
24.958,46.699,81.8,0.00,King Khaled Intl
24.983,98.5,61.3,0.01,Tengchong
24.992,102.744,59.5,0.10,Wujiaba / Changshui
25.01,-80.38,78.0,0.00,Molasses Reef  Fl
25.017,101.517,59.6,0.09,Chuxiong
25.033,121.517,74.6,0.00,Taibei
25.039,-77.466,81.0,0.03,Nassau Intl / Lynden Pindling Intl
25.068,61.805,80.0,0.00,Jiwani
25.069,121.552,73.8,0.00,Songshan
25.078,121.233,71.4,0.00,Chiang Kai Shek Intl / Taoyuan Intl
25.08,-81.09,79.4,0.00,Nfb - Northwest Florida Bay  Fl
25.112,56.324,84.7,0.00,Fujairah Intl
25.117,51.317,87.4,0.00,Al Udeid
25.117,99.183,62.2,0.02,Baoshan
25.15,51.333,76.8,0.00,Al Udeid Ab / Test
25.16,75.846,94.0,0.00,Kota
25.217,5.117,77.2,0.00,Abdennizi
25.218,110.039,73.7,0.00,Liangjiang
25.233,86.95,83.0,0.00,Bhagalpur
25.255,55.364,89.0,0.00,Dubai Intl
25.261,51.565,86.5,0.00,Doha Intl
25.267,3.733,79.4,0.00,Arak
25.283,60.617,81.8,0.00,Chahbahar
25.285,49.485,87.7,0.00,Al Ahsa
25.29,63.344,79.2,0.00,Pasni
25.3,117.4,73.4,0.00,Zhang Ping
25.329,55.517,84.9,0.00,Sharjah Intl
25.333,7.8,73.9,0.00,Afara
25.35,-105.75,70.0,0.00,Tepehuanes  Dgo.
25.367,-101.017,79.6,0.00,Plan De Guadalupe Intl / Saltillo Intl
25.367,97.4,78.3,0.00,Myitkyina
25.383,68.417,87.0,0.00,Hyderabad Airport
25.433,105.183,62.0,0.19,Xingren
25.433,106.767,72.1,0.00,Luodian
25.44,81.734,88.2,0.00,Allahabad Arpt
25.45,30.533,76.7,0.00,Kharga
25.45,82.867,90.1,0.00,Lal Bahadur Shastri Varanasi Intl
25.483,-80.383,79.2,0.00,Homestead Afb Airport
25.5,28.967,74.6,0.00,Dakhla
25.517,69.783,86.8,0.00,Chhor
25.517,119.783,68.6,0.00,Pingtan
25.557,34.582,74.1,0.00,Marsa Alam Intl
25.568,-103.411,83.3,0.00,Torreon Intl
25.583,103.833,59.8,0.01,Zhanyi
25.59,-80.1,77.8,0.00,Fowey Rocks  Fl
25.591,85.088,83.0,0.75,Jai Prakash Narayan Intl Patna
25.613,55.939,86.8,0.00,Ras Al Khaimah Intl
25.617,56.25,83.4,0.00,Diba
25.633,122.067,73.2,0.00,Pengjia Yu
25.648,-80.433,78.8,0.00,Kendall-Tamiami Exec Arpt
25.654,57.799,80.8,0.00,Jask
25.671,32.707,78.0,0.00,Luxor Intl
25.685,-109.081,73.7,0.00,Valle Del Fuerte Intl / Los Mochis Intl
25.7,100.183,59.7,0.00,Dali
25.717,118.1,61.5,0.00,Jiuxian Shan
25.73,-80.15,78.3,0.00,Virginia Key
25.733,-100.3,86.4,0.00,Monterrey  N.L.
25.733,101.867,67.4,0.00,Yuanmou
25.733,112.967,78.1,0.00,Chenzhou
25.77,-97.525,82.9,0.00,General Servando Canales Intl / Matamoros Intl
25.778,-100.107,87.3,0.00,General Mariano Escobedo Intl / Monterrey Intl
25.788,-80.317,80.5,0.00,Miami International Airport
25.833,54.833,82.3,0.00,Abu Musa
25.833,107.55,65.5,0.01,Dushan
25.84,-89.66,79.1,0.00,Mid Gulf 180 Nm South Of Southwest Pass
25.847,131.263,70.6,0.00,Minami Daito
25.85,114.95,76.6,0.00,Ganzhou
25.85,116.367,71.7,0.00,Changting
25.866,-100.237,92.3,0.00,Del Norte Intl
25.867,54.483,82.7,0.00,Siri Island
25.867,55.033,83.5,0.00,Abumusa Island
25.9,-81.318,75.3,0.00,Everglades City 5 Ne
