name,lat,lon,pop,rank
Tokyo,35.687,139.749,35676000,0
New York,40.722,-73.996,19040000,0
Mexico City,19.444,-99.133,19028000,0
Mumbai,19.068,72.876,18978000,0
São Paulo,-23.557,-46.627,18845000,0
Shanghai,31.218,121.435,14987000,0
Kolkata,22.57,88.369,14787000,0
Los Angeles,34.049,-118.232,12500000,0
Cairo,30.052,31.248,11893000,0
Rio de Janeiro,-22.907,-43.212,11748000,0
Beijing,39.902,116.394,11106000,0
Moscow,55.754,37.614,10452000,0
Istanbul,41.018,28.974,10061000,0
Paris,48.858,2.353,9904000,0
Lagos,6.445,3.39,9466000,0
Jakarta,-6.172,106.827,9125000,0
London,51.502,-0.119,8567000,0
Bogota,4.598,-74.085,7772000,0
Hong Kong,22.307,114.183,7206000,0
Santiago,-33.44,-70.651,5720000,0
Singapore,1.295,103.854,5183700,0
Sydney,-33.871,151.213,4630000,0
Riyadh,24.634,46.72,4465000,0
"Washington,  D.C.",38.901,-77.011,4338000,0
Rome,41.898,12.481,3339000,0
Cape Town,-33.918,18.433,3215000,0
Nairobi,-1.281,36.815,3010000,0
Buenos Aires,-34.611,-58.433,12795000,1
Ōsaka,34.691,135.504,11294000,1
Manila,14.606,120.98,11100000,1
Seoul,37.568,126.998,9796000,1
Chicago,41.848,-87.635,8990000,1
Lima,-12.046,-77.052,8012000,1
Tehran,35.674,51.422,7873000,1
Kinshasa,-4.328,15.313,7843000,1
Taipei,25.036,121.568,6900273,1
Bengaluru,12.972,77.558,6787000,1
Bangkok,13.752,100.515,6704000,1
Miami,25.79,-80.226,5585000,1
Madrid,40.402,-3.685,5567000,1
Toronto,43.665,-79.389,5213000,1
Baghdad,33.341,44.392,5054000,1
Atlanta,33.739,-84.368,4506000,1
Houston,29.741,-95.348,4459000,1
Melbourne,-37.818,144.973,4170000,1
Chengdu,30.672,104.068,4123000,1
Monterrey,25.672,-100.332,3712000,1
Ürümqi,43.807,87.573,3575000,1
San Francisco,37.784,-122.4,3450000,1
Johannesburg,-26.168,28.028,3435000,1
Berlin,52.524,13.4,3406000,1
Kabul,34.519,69.181,3277000,1
Athens,37.985,23.731,3242000,1
Casablanca,33.602,-7.618,3181000,1
Addis Ababa,9.035,38.698,3100000,1
Caracas,10.503,-66.919,2985000,1
Kyiv,50.435,30.515,2709000,1
Dakar,14.718,-17.475,2604000,1
Vienna,48.202,16.365,2400000,1
Vancouver,49.275,-123.124,2313328,1
Denver,39.741,-104.986,2313000,1
Tashkent,41.304,69.269,2184000,1
Dubai,25.215,55.287,1379000,1
Auckland,-36.848,174.763,1377200,1
Stockholm,59.324,18.066,1264000,1
Geneva,46.21,6.14,1240000,1
Amsterdam,52.352,4.915,1031000,1
New Delhi,28.6,77.2,317797,1
Delhi,28.672,77.228,15926000,2
Dhaka,23.725,90.407,12797394,2
Karachi,24.872,66.988,12130000,2
Guangzhou,23.125,113.262,8829000,2
Shenzhen,22.548,114.061,7581000,2
Wuhan,30.582,114.268,7243000,2
Tianjin,39.083,117.197,7180000,2
Chennai,13.092,80.278,7163000,2
Lahore,31.562,74.348,6577000,2
Chongqing,29.567,106.593,6461000,2
Hyderabad,17.402,78.478,6376000,2
Philadelphia,39.946,-75.18,5492000,2
Ahmedabad,23.032,72.578,5375000,2
Ho Chi Minh City,10.762,106.703,5314000,2
Luanda,-8.836,13.232,5172900,2
Barcelona,41.385,2.181,4920000,2
Dallas,32.772,-96.795,4798000,2
Shenyeng,41.807,123.448,4787000,2
Khartoum,15.59,32.532,4754000,2
Pune,18.516,73.852,4672000,2
St.  Petersburg,59.941,30.314,4553000,2
Chattogram,22.332,91.798,4529000,2
Dongguan,23.022,113.75,4528000,2
Boston,42.332,-71.072,4467000,2
Hanoi,21.035,105.848,4378000,2
Guadalajara,20.672,-103.332,4198000,2
Alexandria,31.202,29.948,4165000,2
Detroit,42.334,-83.051,4101000,2
Yangon,16.785,96.165,4088000,2
Xian,34.277,108.893,4009000,2
Porto Alegre,-30.048,-51.202,3917000,2
Surat,21.202,72.838,3842000,2
Abidjan,5.323,-4.02,3802000,2
Brasília,-15.781,-47.918,3716996,2
Ankara,39.929,32.862,3716000,2
Nanjing,32.052,118.778,3679000,2
Montréal,45.502,-73.585,3678000,2
Guiyang,26.582,106.718,3662000,2
Recife,-8.061,-34.909,3651000,2
Harbin,45.752,126.648,3621000,2
Fortaleza,-3.748,-38.582,3602319,2
Phoenix,33.448,-112.067,3551000,2
Salvador,-12.968,-38.482,3484000,2
Algiers,36.765,3.049,3354000,2
Pyongyang,39.021,125.753,3300000,2
Medellín,6.277,-75.577,3297000,2
Changchun,43.867,125.338,3183000,2
Kanpur,26.462,80.318,3162000,2
Kano,12.002,8.518,3140000,2
Tel Aviv,32.082,34.768,3112000,2
Curitiba,-25.418,-49.322,3084000,2
Seattle,47.6,-122.315,3074000,2
Zibo,36.821,117.996,3061000,2
Jeddah,21.519,39.217,3012000,2
Hangzhou,30.252,120.168,3007000,2
Milan,45.472,9.203,2945000,2
Kunming,25.043,102.697,2931000,2
Dar es Salaam,-6.798,39.266,2930000,2
Jaipur,26.923,75.808,2917000,2
San Diego,32.719,-117.151,2916000,2
Taiyuan,37.877,112.543,2913000,2
Frankfurt,50.1,8.675,2895000,2
Surabaya,-7.247,112.749,2845000,2
Lisbon,38.725,-9.147,2812000,2
Jinan,36.677,116.993,2798000,2
Aleppo,36.232,37.168,2738000,2
Durban,-29.861,31.011,2729000,2
Zhengzhou,34.757,113.663,2636000,2
Minneapolis,44.982,-93.254,2616000,2
Fuzhou,26.082,119.298,2606000,2
Changsha,28.202,112.968,2604000,2
Lanzhou,36.058,103.79,2561000,2
Sapporo,43.077,141.338,2544000,2
Guayaquil,-2.218,-79.922,2514000,2
Mashhad,36.272,59.568,2469000,2
Damascus,33.502,36.298,2466000,2
Nagpur,21.172,79.088,2454000,2
Bandung,-6.948,107.568,2394000,2
Nanchang,28.682,115.878,2350000,2
Tampa,27.949,-82.461,2314000,2
Cali,3.402,-76.502,2254000,2
Naples,40.842,14.243,2250000,2
St. Louis,38.637,-90.242,2199000,2
Puebla,19.033,-98.204,2195000,2
Tripoli,32.892,13.18,2189000,2
Havana,23.134,-82.366,2174000,2
Nanning,22.822,108.318,2167000,2
Belém,-1.448,-48.482,2167000,2
Patna,25.627,85.128,2158000,2
Santo Domingo,18.471,-69.93,2154000,2
Accra,5.552,-0.219,2121000,2
Medan,3.582,98.648,2115000,2
Maracaibo,10.732,-71.662,2072000,2
Kuwait City,29.372,47.976,2063000,2
Hiroshima,34.39,132.441,2045000,2
Baotou,40.654,109.82,2036000,2
Goiânia,-16.718,-49.302,2022000,2
Sanaa,15.357,44.205,2008000,2
Bucharest,44.435,26.098,1942000,2
Hamburg,53.552,9.998,1757000,2
Brussels,50.835,4.331,1743000,2
Warsaw,52.231,21.005,1707000,2
Budapest,47.502,19.081,1679000,2
Perth,-31.953,115.838,1532000,2
Kuala Lumpur,3.14,101.689,1448000,2
Makkah,21.432,39.818,1385000,2
Munich,48.132,11.573,1275000,2
Prague,50.087,14.423,1162000,2
Helsinki,60.164,24.932,1115000,2
Zürich,47.382,8.548,1108000,2
København,55.681,12.562,1085000,2
Dublin,53.347,-6.257,1059000,2
Edmonton,53.552,-113.502,1058000,2
Monrovia,6.315,-10.8,1041000,2
Oslo,59.919,10.748,835000,2
Honolulu,21.303,-157.858,786000,2
New Orleans,29.969,-90.088,785000,2
Anchorage,61.214,-149.887,260283,2
Kaohsiung,22.633,120.267,2769072,3
San Juan,18.44,-66.13,2478905,3
Tunis,36.803,10.18,2412500,3
Baku,40.397,49.86,2122300,3
Santa Cruz,-17.752,-63.228,2102998,3
Port-au-Prince,18.543,-72.338,1998000,3
Cleveland,41.472,-81.697,1890000,3
Portland,45.522,-122.682,1875000,3
Asunción,-25.291,-57.626,1870000,3
Brisbane,-27.453,153.033,1860000,3
Beirut,33.874,35.508,1846000,3
Pittsburgh,40.432,-80.002,1838000,3
Las Vegas,36.165,-115.151,1823000,3
Minsk,53.902,27.565,1805000,3
Valencia,10.232,-67.982,1770000,3
Manaus,-3.098,-60.002,1753000,3
Palembang,-2.978,104.748,1749000,3
Bhopal,23.252,77.408,1727000,3
Rabat,34.025,-6.836,1705000,3
Quito,-0.213,-78.502,1701000,3
Antananarivo,-18.915,47.515,1697000,3
Coimbatore,11.002,76.948,1696000,3
San Jose,37.331,-121.888,1668000,3
Qiqihar,47.347,123.988,1641000,3
Cincinnati,39.164,-84.459,1636000,3
Isfahan,32.702,51.698,1628000,3
Yaoundé,3.869,11.515,1611000,3
Sacramento,38.577,-121.472,1604000,3
Shantou,23.372,116.668,1601000,3
La Paz,-16.496,-68.152,1590000,3
Abuja,9.055,7.49,1576000,3
Harare,-17.816,31.043,1572000,3
Tijuana,32.502,-117.082,1553000,3
Vishakhapatnam,17.683,83.22,1529000,3
Multan,30.202,71.453,1522000,3
Montevideo,-34.905,-56.187,1513000,3
Bamako,12.652,-8.002,1494000,3
Conakry,9.533,-13.682,1494000,3
San Antonio,29.42,-98.493,1473000,3
Phnom Penh,11.552,104.915,1466000,3
Hyderabad,25.382,68.373,1459000,3
Lomé,6.134,1.221,1452000,3
Córdoba,-31.398,-64.184,1452000,3
Huainan,32.632,116.978,1451000,3
Maputo,-25.953,32.587,1446000,3
San Salvador,13.703,-89.216,1433000,3
Lyon,45.772,4.828,1423000,3
Kampala,0.319,32.581,1420000,3
Davao,7.112,125.628,1402000,3
Semarang,-6.965,110.418,1396000,3
Novosibirsk,55.032,82.958,1389000,3
Milwaukee,43.03,-87.917,1388000,3
Brazzaville,-4.257,15.283,1355000,3
Lubumbashi,-11.678,27.478,1352000,3
Varanasi,25.332,82.998,1352000,3
Pretoria,-25.705,28.227,1338000,3
Lusaka,-15.415,28.281,1328000,3
Asansol,23.685,86.981,1328000,3
Yekaterinburg,56.852,60.598,1313000,3
Peshawar,34.007,71.533,1303000,3
Jamshedpur,22.789,86.196,1300000,3
Madurai,9.922,78.118,1294000,3
San José,9.93,-84.079,1284000,3
Panama City,8.97,-79.535,1281000,3
Nizhny Novgorod,56.335,43.998,1278000,3
Makassar,-5.138,119.43,1262000,3
Shiraz,29.632,52.568,1240000,3
Seville,37.405,-5.98,1212045,3
Amritsar,31.642,74.868,1212000,3
Almaty,43.327,76.913,1209000,3
Sofia,42.685,23.315,1185000,3
Banghazi,32.119,20.065,1180000,3
Raleigh,35.773,-78.647,1163515,3
Glasgow,55.862,-4.239,1160000,3
Ouagadougou,12.372,-1.527,1149000,3
Ottawa,45.419,-75.702,1145000,3
Adelaide,-34.933,138.598,1145000,3
Samara,53.197,50.149,1137000,3
Kazan,55.752,49.124,1115000,3
Calgary,51.085,-114.082,1110000,3
Yerevan,40.183,44.512,1102000,3
Mogadishu,2.069,45.365,1100000,3
Tbilisi,41.727,44.789,1100000,3
Huambo,-12.748,15.758,1100000,3
Belgrade,44.821,20.466,1099000,3
Bhilai,21.211,81.372,1097000,3
Dushanbe,38.56,68.774,1086244,3
Memphis,35.145,-90.029,1081000,3
Amman,31.952,35.931,1060000,3
Xining,36.622,101.768,1048000,3
Norfolk,36.85,-76.28,1047869,3
Jerusalem,31.778,35.207,1029300,3
Guatemala City,14.623,-90.529,1024000,3
Florianópolis,-27.578,-48.522,1023000,3
Port Elizabeth,-33.968,25.598,1021000,3
Ufa,54.792,56.038,1018000,3
Buffalo,42.882,-78.882,1016000,3
Fez,34.057,-5.002,1002000,3
Aden,12.78,45.009,1000000,3
Perm,58.002,56.248,997000,3
Yinchuan,38.47,106.271,991000,3
N'Djamena,12.115,15.047,989000,3
Guilin,25.282,110.278,987000,3
Volgograd,48.712,44.498,984000,3
Salt Lake City,40.777,-111.932,966000,3
Mérida,20.969,-89.619,965000,3
Pingxiang,27.622,113.848,961000,3
Kozhikode,11.252,75.768,953000,3
Tegucigalpa,14.104,-87.219,946000,3
Kingston,17.977,-76.767,937700,3
Naypyidaw,19.769,96.117,930000,3
Krasnoyarsk,56.016,92.864,925000,3
Managua,12.155,-86.27,920000,3
Niamey,13.519,2.115,915000,3
Tirana,41.328,19.819,895350,3
Kathmandu,27.719,85.315,895000,3
Mendoza,-32.881,-68.819,893000,3
Concepción,-36.83,-73.05,889725,3
Cartagena,10.402,-75.516,887000,3
Ulaanbaatar,47.919,106.915,885000,3
Mombasa,-4.038,39.688,882000,3
Omaha,41.24,-96.01,877110,3
Nashville,36.172,-86.782,877000,3
Marrakesh,31.632,-8.002,872000,3
Palermo,38.127,13.348,863000,3
Tampico,22.3,-97.87,859419,3
Padang,-0.958,100.358,855000,3
Valparaíso,-33.048,-71.617,854000,3
Bhubaneswar,20.272,85.825,844000,3
Bishkek,42.875,74.583,837000,3
Bangui,4.367,18.558,831925,3
Thessaloniki,40.698,22.883,828000,3
Freetown,8.472,-13.236,827000,3
Cebu,10.322,123.898,815000,3
Valencia,39.487,-0.402,808000,3
Oran,35.712,-0.622,798000,3
Chihuahua,28.647,-106.087,793000,3
Oklahoma City,35.472,-97.521,788000,3
Islamabad,33.689,73.081,780000,3
Campo Grande,-20.448,-54.619,778000,3
Trujillo,-8.12,-79.02,765171,3
Cotonou,6.363,2.404,762000,3
Vientiane,17.967,102.6,754000,3
Ciudad Guayana,8.37,-62.62,746535,3
Riga,56.95,24.1,742572,3
Nouakchott,18.086,-15.975,742144,3
Muscat,23.585,58.378,734697,3
Sokoto,13.06,5.24,732178,3
Ashgabat,37.95,58.383,727700,3
Zagreb,45.8,16.0,722526,3
Acapulco,16.85,-99.916,715584,3
Kandahar,31.61,65.695,715542,3
Samarkand,39.67,66.945,708000,3
Bulawayo,-20.17,28.58,699385,3
Sarajevo,43.85,18.383,696731,3
Enugu,6.45,7.5,688862,3
Chișinău,47.005,28.858,688134,3
Lilongwe,-13.983,33.783,646750,3
Kikwit,-5.03,18.85,637736,3
Winnipeg,49.883,-97.166,632063,3
Québec,46.84,-71.246,624177,3
Asmara,15.333,38.933,620802,3
Luxor,25.7,32.65,609248,3
Bandjarmasin,-3.33,114.58,603576,3
Abu Dhabi,24.467,54.367,603492,3
Barnaul,53.355,83.745,599579,3
Vladivostok,43.13,131.91,587022,3
Irkutsk,52.285,104.284,586695,3
Hami,42.827,93.515,580000,3
Veracruz,19.177,-96.16,578963,3
Libreville,0.385,9.458,578156,3
Mar del Plata,-38.0,-57.58,555897,3
Vilnius,54.683,25.317,542366,3
Cancún,21.17,-86.83,542043,3
Newcastle,-32.93,151.77,540796,3
Tomsk,56.495,84.975,535479,3
Beira,-19.82,34.87,530604,3
Kashgar,39.476,75.97,506640,3
Macapá,0.033,-51.05,499166,3
Port Sudan,19.616,37.216,489725,3
Feira de Santana,-12.25,-38.97,481911,3
Tuxtla Gutiérrez,16.75,-93.15,481128,3
Hargeisa,9.56,44.065,477876,3
Bloemfontein,-29.12,26.23,463064,3
Qaraghandy,49.885,73.115,451800,3
San Cristóbal,7.77,-72.25,438798,3
Nagasaki,32.765,129.885,435455,3
Kolwezi,-10.717,25.472,418000,3
Hotan,37.1,79.927,408894,3
Zanzibar,-6.16,39.2,403658,3
Bissau,11.865,-15.598,403339,3
Kassala,15.46,36.39,401477,3
Surgut,61.26,73.425,400000,3
Tallinn,59.434,24.728,394024,3
Wellington,-41.292,174.777,393400,3
Nyala,12.06,24.89,392373,3
Iloilo,10.705,122.545,387681,3
Des Moines,41.58,-93.62,380655,3
Sevastopol,44.604,33.524,379200,3
Valletta,35.9,14.515,368250,3
Mazatlán,23.221,-106.42,368204,3
Christchurch,-43.535,172.63,363200,3
Maseru,-29.317,27.483,361324,3
Cusco,-13.525,-71.972,361182,3
Halifax,44.65,-63.6,359111,3
Posadas,-27.358,-55.885,357119,3
Archangel,64.575,40.545,356051,3
Nur-Sultan,51.181,71.428,345604,3
Boise,43.609,-116.227,338071,3
Canberra,-35.283,149.129,327700,3
Maroua,10.596,14.325,319941,3
Murmansk,68.97,33.1,319263,3
Antofagasta,-23.65,-70.4,309832,3
Chita,52.055,113.465,308500,3
Bandar Seri Begawan,4.883,114.933,296500,3
Mbeya,-8.89,33.43,291649,3
Victoria,48.433,-123.35,289625,3
Port Moresby,-9.465,147.193,283733,3
Bahía Blanca,-38.74,-62.265,281536,3
Tacna,-18.0,-70.25,280098,3
Ica,-14.068,-75.725,279420,3
Windhoek,-22.57,17.084,268132,3
Georgetown,6.802,-58.167,264350,3
Paramaribo,5.835,-55.167,254169,3
Jackson,32.299,-90.185,250902,3
Bratsk,56.157,101.615,246348,3
Matadi,-5.817,13.45,245862,3
Yakutsk,62.035,129.735,235600,3
Boa Vista,2.816,-60.666,235150,3
Dili,-8.559,125.579,234331,3
Santarém,-2.433,-54.7,230428,3
Zinder,13.8,8.983,230358,3
Nassau,25.083,-77.35,227940,3
Iquique,-20.25,-70.13,227499,3
Sucre,-19.041,-65.26,224838,3
Nacala,-14.519,40.715,224795,3
Nicosia,35.167,33.367,224300,3
Lhasa,29.645,91.1,219599,3
Colombo,6.932,79.858,217000,3
Bergen,60.391,5.325,213585,3
Gaborone,-24.646,25.912,208411,3
Yamoussoukro,6.818,-5.276,206499,3
Saskatoon,52.17,-106.67,198958,3
Tarakan,3.3,117.633,193069,3
Petropavlovsk-Kamchatsky,53.062,158.623,187282,3
Regina,50.45,-104.617,176183,3
Suva,-18.133,178.442,175399,3
Puerto Montt,-41.47,-72.93,174629,3
Reykjavík,64.143,-21.937,166212,3
Marabá,-5.35,-49.116,166182,3
Bumba,2.19,22.46,160539,3
Valdivia,-39.822,-73.233,159599,3
Abéché,13.84,20.83,158317,3
Gondar,12.61,37.46,156230,3
Malabo,3.75,8.783,155963,3
Jiayuguan,39.82,98.3,148279,3
Trondheim,63.417,10.417,147139,3
Comodoro Rivadavia,-45.87,-67.5,140850,3
Townsville,-19.25,146.77,138954,3
Caxias,-4.833,-43.35,134640,3
St. John's,47.585,-52.681,131469,3
Wau,7.7,27.99,127384,3
Ghardaia,32.49,3.67,125480,3
Agadez,16.996,7.983,117770,3
Punta Arenas,-53.165,-70.94,117430,3
Port-Gentil,-0.72,8.78,116836,3
Praia,14.917,-23.517,113364,3
Malé,4.172,73.509,112927,3
Sabha,27.033,14.433,100249,3
Thunder Bay,48.446,-89.275,99334,3
Thimphu,27.473,89.639,98676,3
Magadan,59.575,150.81,95282,3
Darwin,-12.425,130.85,93080,3
Santa Fe,35.687,-105.937,92681,3
São Tomé,0.337,6.73,88219,3
Río Gallegos,-51.633,-69.217,85700,3
Hobart,-42.85,147.295,80870,3
Erdenet,49.053,104.118,79647,3
Honiara,-9.438,159.95,76328,3
Tamanrasset,22.785,5.523,76000,3
Riberalta,-10.983,-66.1,74014,3
Cheyenne,41.14,-104.82,72927,3
Timbuktu,16.767,-3.017,68872,3
Ji-Paraná,-10.833,-61.967,65016,3
Bismarck,46.808,-100.783,63871,3
Vilhena,-12.717,-60.117,63231,3
Apia,-13.836,-171.769,61916,3
Cayenne,4.933,-52.33,61550,3
Leticia,-4.201,-69.955,59575,3
Fairbanks,64.837,-147.711,56993,3
Cruzeiro do Sul,-7.63,-72.67,56862,3
Tromsø,69.635,18.992,52436,3
Hamilton,32.294,-64.784,52320,3
Atar,20.517,-13.05,44265,3
Port Vila,-17.733,168.317,44040,3
Nuku'alofa,-21.139,-175.221,42620,3
Charlottetown,46.249,-63.131,42402,3
Helena,46.593,-112.035,38725,3
Victoria,-4.617,55.45,33576,3
Djenné,13.9,-4.55,32944,3
Juneau,58.303,-134.401,30711,3
Alice Springs,-23.701,133.88,27710,3
Dongola,19.167,30.483,26404,3
Grootfontein,-19.567,18.117,24099,3
Whitehorse,60.717,-135.05,23276,3
Yellowknife,62.442,-114.397,19234,3
Belmopan,17.252,-88.767,15220,3
Nuuk,64.198,-51.733,14798,3
Prince Rupert,54.317,-130.33,14708,3
Pierre,44.368,-100.351,13879,3
Menongue,-14.667,17.7,13030,3
Obo,5.4,26.5,12887,3
N'Délé,8.409,20.653,11764,3
Anadyr,64.737,177.475,10332,3
Kodiak,57.79,-152.407,9461,3
Bethel,60.793,-161.756,6228,3
Mitú,1.198,-70.174,5917,3
Tiksi,71.627,128.835,5700,3
Utqiaġvik,71.291,-156.789,4336,3
Valdez,61.136,-146.348,4036,3
Palana,59.084,159.95,3671,3
Nome,64.506,-165.406,3485,3
Puerto Deseado,-47.75,-65.9,3305,3
Prudhoe Bay,70.292,-148.669,2500,3
Stanley,-51.7,-57.85,2213,3
Nain,56.547,-61.686,1151,3
Dikson,73.507,80.545,1113,3
Churchill,58.766,-94.166,1000,3
Naujaat,66.529,-86.283,1000,3
Arctic Bay,73.033,-85.167,604,3
Fort Good Hope,66.267,-128.633,597,3
Point Hope,68.348,-166.808,461,3
Nizhneyansk,71.433,136.067,400,3
Resolute,74.683,-94.9,250,3
Cold Bay,55.2,-162.715,200,3
Fort Severn,55.983,-87.65,125,3
Amaravati,16.534,80.524,5800000,4
Belo Horizonte,-19.913,-43.917,5575000,4
Busan,35.097,129.008,3480000,4
Nagoya,35.157,136.913,3230000,4
Dalian,38.925,121.628,3167000,4
Qingdao,36.092,120.328,2866000,4
Fukuoka,33.597,130.408,2792000,4
Campinas,-22.908,-47.056,2791000,4
Lucknow,26.857,80.913,2695000,4
Taichung,24.152,120.682,2629323,4
Ibadan,7.382,3.928,2628000,4
İzmir,38.438,27.15,2587000,4
Incheon,37.478,126.64,2550000,4
Xiamen,24.452,118.078,2519000,4
George Town,5.414,100.329,2500000,4
Jinxi,40.752,120.828,2426000,4
Shijiazhuang,38.052,114.478,2417000,4
Jilin,43.852,126.548,2396000,4
Omdurman,15.617,32.48,2395159,4
Wenzhou,28.022,120.648,2350000,4
Birmingham,52.477,-1.922,2285000,4
Baltimore,39.282,-76.615,2255000,4
Sendai,38.268,140.87,2250000,4
Manchester,53.475,-2.249,2230000,4
Nanchong,30.782,106.128,2174000,4
Zaozhuang,34.882,117.568,2145000,4
Yantai,37.532,121.398,2116000,4
Xuzhou,34.282,117.178,2091000,4
Linyi,35.082,118.328,2082000,4
Hefei,31.852,117.278,2035000,4
Indore,22.717,75.863,2026000,4
Haiphong,20.832,106.678,1969000,4
Suzhou,33.638,116.977,1964000,4
Nanyang,33.002,112.528,1944000,4
Ningbo,29.882,121.548,1923000,4
Douala,4.062,9.708,1906000,4
Kyoto,35.032,135.748,1805000,4
Barranquilla,10.962,-74.802,1798000,4
Vadodara,22.312,73.178,1756000,4
Wuxi,31.582,120.298,1749000,4
San Bernardino,34.122,-117.302,1745000,4
Hohhot,40.822,111.658,1726000,4
Daqing,46.582,124.998,1693000,4
Suzhou,31.302,120.618,1650000,4
Ludhiana,30.93,75.87,1649000,4
Anshan,41.117,122.938,1639000,4
Handan,36.582,114.478,1631000,4
Agra,27.172,78.013,1592000,4
Zhanjiang,21.202,110.378,1590000,4
Khulna,22.842,89.558,1553000,4
Santiago,19.5,-70.67,1550753,4
Kochi,10.017,76.222,1519000,4
Gujranwala,32.162,74.183,1513000,4
Florence,43.78,11.25,1500000,4
Bursa,40.202,29.068,1492000,4
León,21.152,-101.702,1488000,4
Nasik,20.002,73.778,1473000,4
Kansas City,39.109,-94.606,1469000,4
Daejeon,36.337,127.423,1468000,4
Neijiang,29.582,105.048,1466000,4
Quanzhou,24.902,118.578,1463000,4
Kharkiv,50.002,36.248,1461000,4
Doha,25.287,51.533,1450000,4
Kaduna,10.522,7.438,1442000,4
Ft.  Worth,32.74,-97.34,1440454,4
Gwangju,35.173,126.908,1440000,4
Indianapolis,39.752,-86.172,1436000,4
Tabriz,38.088,46.299,1413000,4
The Hague,52.08,4.27,1406000,4
Marseille,43.292,5.373,1400000,4
Meerut,29.002,77.698,1398000,4
Mianyang,31.465,104.69,1396000,4
Faridabad,28.435,77.315,1394000,4
Orlando,28.512,-81.382,1350000,4
Ghaziabad,28.662,77.406,1341000,4
Mosul,36.347,43.143,1316000,4
Mandalay,21.972,96.083,1300000,4
Mbuji-Mayi,-6.148,23.598,1295000,4
Adana,36.997,35.318,1293000,4
Jabalpur,23.177,79.953,1285000,4
Chifeng,42.272,118.948,1277000,4
Huaiyin,33.585,119.066,1264000,4
Rajkot,22.312,70.798,1260000,4
Dhanbad,23.802,86.418,1246000,4
Tianshui,34.602,105.918,1225000,4
Liupanshui,26.596,104.831,1221000,4
Vila Velha,-20.338,-40.29,1209091,4
Rosario,-32.949,-60.668,1203000,4
Allahabad,25.457,81.838,1201000,4
Benin City,6.342,5.618,1190000,4
Maceió,-9.618,-35.732,1186000,4
Austin,30.269,-97.745,1161000,4
Torreón,25.572,-103.422,1144000,4
Srinagar,34.069,74.828,1140000,4
Vijayawada,16.522,80.628,1137000,4
Omsk,54.992,73.398,1135000,4
Yulin,22.632,110.148,1127000,4
Aurangabad,19.862,75.329,1113000,4
Ankang,32.68,109.02,1100000,4
Chelyabinsk,55.157,61.437,1091000,4
Natal,-5.778,-35.242,1088000,4
Sholapur,17.672,75.898,1057000,4
Rostov,47.237,39.711,1052000,4
Dnipro,48.482,34.998,1050000,4
Ranchi,23.372,85.328,1044000,4
São Luís,-2.514,-44.268,1038000,4
Port Harcourt,4.812,7.008,1020000,4
Jiamusi,46.832,130.348,1020000,4
Bridgeport,41.182,-73.202,1018000,4
Hengyang,26.882,112.588,1016000,4
Medina,24.502,39.578,1010000,4
Da Nang,16.06,108.25,1000000,4
Baoshan,25.12,99.15,1000000,4
Ahvaz,31.282,48.718,996000,4
Jodhpur,26.294,73.015,995000,4
San Luis Potosí,22.172,-101.002,992000,4
Odessa,46.492,30.708,991000,4
Jacksonville,30.332,-81.672,988000,4
Donetsk,48.002,37.828,988000,4
Guwahati,26.162,91.768,983000,4
Chandigarh,30.722,76.778,979000,4
Gwalior,26.2,78.169,978000,4
Jixi,45.302,130.968,965000,4
Thiruvananthapuram,8.516,76.925,954000,4
Ogbomosho,8.132,4.238,951000,4
Tiruchirappalli,10.801,78.688,951000,4
General Santos,6.111,125.175,950530,4
Tulsa,36.12,-95.93,946962,4
Djibouti,11.595,43.148,923000,4
Konya,37.877,32.473,919000,4
Richmond,37.552,-77.452,912000,4
Teresina,-5.093,-42.782,907000,4
Naha,26.207,127.673,905238,4
Albuquerque,35.105,-106.641,898642,4
Maiduguri,11.852,13.158,896000,4
Hubballi,15.362,75.123,890000,4
Mysuru,12.312,76.658,887000,4
Mexicali,32.652,-115.482,885000,4
Tongliao,43.622,122.268,884000,4
Bilbao,43.25,-2.93,875552,4
Raipur,21.237,81.633,875000,4
Salem,11.672,78.178,873000,4
Basra,30.515,47.812,870000,4
Bandar Lampung,-5.428,105.268,865000,4
Kigali,-1.952,30.059,860000,4
Jullundur,31.337,75.567,855000,4
Shache,38.426,77.25,851374,4
Voronezh,51.665,39.187,844000,4
Saratov,51.582,46.028,843000,4
Warri,5.52,5.76,830106,4
Tucumán,-26.814,-65.219,830000,4
Kota,25.182,75.833,827000,4
Yueyang,29.382,113.098,826000,4
Tucson,32.207,-110.892,823000,4
Arequipa,-16.418,-71.532,815000,4
Rajshahi,24.377,88.603,810000,4
Culiacán,24.832,-107.382,809000,4
Cuiabá,-15.568,-56.087,806000,4
Aligarh,27.894,78.06,805000,4
Malang,-7.978,112.608,805000,4
Lviv,49.835,24.03,803880,4
Bordeaux,44.852,-0.597,803000,4
Jammu,32.714,74.845,791000,4
Moradabad,28.844,78.755,787000,4
Mangaluru,12.9,74.85,776632,4
Zamboanga,6.922,122.078,773000,4
Quetta,30.222,67.023,768000,4
Kananga,-5.888,22.398,765000,4
Kraków,50.062,19.958,756000,4
Rochester,43.172,-77.622,755000,4
El Paso,31.782,-106.512,753000,4
Taizz,13.606,44.037,751000,4
Kolhapur,16.7,74.22,750000,4
Gdańsk,54.36,18.64,740000,4
St.  Paul,44.944,-93.085,734854,4
Shaoguan,24.8,113.58,720266,4
Catania,37.5,15.08,674542,4
Najaf,32.0,44.335,665552,4
Syracuse,43.05,-76.15,662577,4
Pointe-Noire,-4.77,11.88,659084,4
Knoxville,35.97,-83.92,655400,4
Andijan,40.79,72.34,650000,4
Krasnodar,45.02,39.0,649851,4
Ulyanovsk,54.33,48.41,640680,4
Bur Said,31.26,32.29,623864,4
Nanded,19.197,77.308,623708,4
Dresden,51.05,13.75,617515,4
Fresno,36.748,-119.773,616353,4
Samsun,41.28,36.344,609339,4
Yaroslavl,57.62,39.87,606730,4
Constantine,36.36,6.6,605179,4
Kirkuk,35.472,44.392,601433,4
Hermosillo,29.099,-110.954,595811,4
Port Louis,-20.167,57.5,595491,4
Nagano,36.65,138.17,594311,4
Blantyre,-15.79,34.99,584877,4
Cuttack,20.47,85.89,580000,4
Khabarovsk,48.455,135.12,579000,4
Kisangani,0.52,25.22,578470,4
Quetzaltenango,14.83,-91.52,575263,4
Kuching,1.53,110.33,570407,4
Bouaké,7.69,-5.03,567481,4
Manama,26.236,50.583,563920,4
Uberlândia,-18.9,-48.28,563536,4
Sorocaba,-23.49,-47.47,563281,4
Santiago de Cuba,20.025,-75.821,555865,4
Surakarta,-7.565,110.825,555308,4
Ribeirão Preto,-21.17,-47.83,551267,4
Orenburg,51.78,55.11,550204,4
Tabuk,28.384,36.555,547957,4
Yining,43.9,81.35,542507,4
Novokuznetsk,53.75,87.115,539616,4
Matamoros,25.88,-97.5,538785,4
Oaxaca,17.083,-96.67,530728,4
Hamadan,34.796,48.515,528256,4
Gold Coast,-28.082,153.448,527660,4
Vancouver,45.63,-122.64,525802,4
Ryazan,54.62,39.72,520173,4
Tyumen,57.14,65.53,519119,4
Banda Aceh,5.55,95.32,513698,4
Salta,-24.783,-65.417,512686,4
Penza,53.18,45.0,512602,4
Suez,30.005,32.55,508335,4
Gaza City,31.53,34.445,505700,4
Annaba,36.92,7.76,503524,4
Akola,20.71,77.01,503502,4
Astrakhan,46.349,48.055,502533,4
Skopje,42.0,21.433,494087,4
Mwanza,-2.52,32.93,493944,4
Colorado Springs,38.863,-104.792,493654,4
Wuwei,37.928,102.641,493092,4
Santa Fe,-31.624,-60.69,489505,4
Saharanpur,29.97,77.55,484873,4
Kalaburagi,17.35,76.82,483615,4
Herat,34.33,62.17,481009,4
Yazd,31.92,54.37,477905,4
Kemerovo,55.34,86.09,477090,4
Shymkent,42.32,69.595,465392,4
Pristina,42.667,21.166,465186,4
Bandar-e-Abbas,27.204,56.272,461499,4
Iquitos,-3.75,-73.25,458729,4
Mazar-i-Sharif,36.7,67.1,458151,4
Kirov,58.59,49.67,457437,4
Belfast,54.594,-5.928,450406,4
Baguio,16.43,120.57,447824,4
San Juan,-31.55,-68.52,447048,4
Balikpapan,-1.25,116.83,445905,4
Bamenda,5.96,10.15,445299,4
Wuzhou,23.48,111.32,442315,4
Garoua,9.3,13.39,436899,4
Kaliningrad,54.7,20.497,434954,4
Laredo,27.506,-99.507,434768,4
Welkom,-27.97,26.73,431944,4
Bryansk,53.26,34.43,427236,4
Bratislava,48.15,17.117,423737,4
Baton Rouge,30.458,-91.14,422072,4
Asyut,27.19,31.18,420585,4
Magnitogorsk,53.423,58.98,413351,4
Huancayo,-12.08,-75.2,412733,4
Oujda,34.69,-1.91,409391,4
Kitwe,-12.81,28.22,404901,4
Tver,56.86,35.89,400212,4
Columbia,33.997,-81.031,398093,4
Chiang Mai,18.8,98.98,397211,4
Piura,-5.21,-80.63,396932,4
Al-Ubayyid,13.183,30.217,393311,4
Nampula,-15.136,39.293,388526,4
Misrata,32.38,15.1,386120,4
Pasto,1.214,-77.281,382236,4
Caxias do Sul,-29.18,-51.17,381270,4
Nizhny Tagil,57.92,59.975,381116,4
Xichang,27.88,102.3,379993,4
Vigo,42.22,-8.73,378952,4
Las Palmas,28.1,-15.43,378495,4
Manizales,5.06,-75.52,375848,4
Manukau,-37.0,174.885,375600,4
Gorontalo,0.55,123.07,365497,4
Larkana,27.562,68.207,364033,4
Stavropol,45.05,41.98,363064,4
Bhagalpur,25.23,86.98,361548,4
Ulan-Ude,51.825,107.625,360278,4
Bobo Dioulasso,11.18,-4.29,360106,4
Taraz,42.9,71.365,358153,4
Ambon,-3.717,128.2,355596,4
Safi,32.32,-9.24,353476,4
Eldoret,0.52,35.27,353381,4
Chimbote,-9.07,-78.57,349846,4
Nuevo Laredo,27.5,-99.55,349550,4
Spokane,47.67,-117.42,347705,4
Mérida,8.57,-71.183,345489,4
Arusha,-3.36,36.67,341136,4
Chitungwiza,-18.0,31.1,340360,4
East London,-32.97,27.87,338627,4
Kōchi,33.562,133.538,335570,4
Nakhon Ratchasima,15.0,102.1,334984,4
Montes Claros,-16.72,-43.86,332379,4
Bujumbura,-3.376,29.36,331700,4
Wonsan,39.16,127.431,329207,4
Pavlodar,52.3,76.95,329002,4
Reno,39.53,-119.82,328585,4
Sochi,43.59,39.73,327608,4
Sousse,35.83,10.625,327004,4
Iași,47.168,27.575,325914,4
Miyazaki,31.918,131.418,324384,4
Córdoba,37.88,-4.77,321376,4
Smolensk,54.783,32.047,320991,4
Ciudad del Este,-25.517,-54.616,320872,4
Pelotas,-31.75,-52.33,320674,4
Bukhara,39.78,64.43,319476,4
Oskemen,49.99,82.615,319067,4
El Faiyum,29.31,30.84,316772,4
Ljubljana,46.055,14.515,314807,4
Aswan,24.088,32.899,313442,4
Semey,50.435,80.275,311353,4
Pucallpa,-8.369,-74.535,310750,4
Vitória da Conquista,-14.85,-40.84,308204,4
Nalchik,43.498,43.618,307866,4
Porto Velho,-8.75,-63.9,306180,4
Constanța,44.203,28.61,303399,4
Hakodate,41.795,140.74,302984,4
Brest,52.1,23.7,300715,4
Qyzylorda,44.8,65.465,300000,4
Porto-Novo,6.483,2.617,300000,4
Port-of-Spain,10.652,-61.517,294934,4
Vologda,59.21,39.92,294889,4
Makurdi,7.73,8.53,292645,4
Ponta Grossa,-25.09,-50.16,292177,4
Sinuiju,40.086,124.421,288112,4
Cuenca,-2.9,-79.0,286878,4
Butembo,0.13,29.28,286403,4
Kupang,-10.179,123.583,282396,4
Zhytomyr,50.246,28.662,282192,4
Kaolack,14.15,-16.1,277812,4
Corpus Christi,27.743,-97.402,277454,4
Bern,46.917,7.467,275329,4
Mbandaka,0.04,18.26,274996,4
Venice,45.439,12.335,270816,4
Malmö,55.599,13.023,269349,4
Petrozavodsk,61.781,34.361,265025,4
Aqtobe,50.28,57.17,262457,4
Petrolina,-9.38,-40.51,260985,4
Tampere,61.5,23.75,259279,4
Rio Branco,-9.967,-67.8,257642,4
Dire Dawa,9.59,41.86,252279,4
Morogoro,-6.82,37.66,250902,4
Shreveport,32.5,-93.77,248053,4
Angarsk,52.56,103.92,243158,4
Berbera,10.436,45.016,242344,4
Le Havre,49.505,0.105,242124,4
Neuquén,-38.95,-68.06,242092,4
Ulan Hot,46.08,122.08,241894,4
Türkmenabat,39.11,63.58,234817,4
Niamey,13.492,7.096,232555,4
Hailar,49.2,119.7,231171,4
Zhangye,38.93,100.45,230728,4
Nukus,42.47,59.615,230006,4
Salem,44.928,-123.024,229010,4
Puducherry,11.935,79.83,227411,4
Grozny,43.319,45.699,226100,4
Colima,19.23,-103.72,223287,4
Formosa,-26.173,-58.183,221383,4
Blagoveshchensk,50.267,127.533,221296,4
Tallahassee,30.45,-84.28,221222,4
Dodoma,-6.183,35.75,218269,4
Laoag,18.199,120.594,207048,4
Bahir Dar,11.6,37.383,206748,4
Kalemie,-5.933,29.2,206257,4
Campeche,19.83,-90.5,205212,4
Pskov,57.83,28.33,201990,4
Kushiro,42.975,144.375,198566,4
Montgomery,32.362,-86.279,198325,4
Bridgetown,13.102,-59.617,191152,4
St.-Denis,-20.879,55.448,190047,4
La Paz,24.14,-110.32,189767,4
Kabwe,-14.44,28.45,188979,4
Quelimane,-17.88,36.89,188964,4
Parakou,9.34,2.62,188853,4
Laayoune,27.15,-13.2,188084,4
Ternate,0.793,127.363,187521,4
Arica,-18.5,-70.29,185999,4
Fianarantsoa,-21.433,47.083,184184,4
Atyrau,47.113,51.92,182753,4
Amarillo,35.23,-101.83,181766,4
Santa Barbara,34.411,-119.717,181632,4
Zuwara,32.934,12.079,180310,4
Savannah,32.021,-81.11,180187,4
Sittwe,20.14,92.88,179032,4
Mary,37.6,61.833,178708,4
Nogales,31.305,-110.945,178097,4
Yuzhno Sakhalinsk,46.965,142.74,176484,4
Bose,23.9,106.613,175282,4
George,-33.95,22.45,174582,4
Jayapura,-2.533,140.7,169341,4
Nzérékoré,7.76,-8.83,168121,4
Abakan,53.704,91.445,167289,4
Norilsk,69.34,88.225,165873,4
Livingstone,-17.86,25.86,165480,4
Geneina,13.45,22.44,162981,4
Fargo,46.877,-96.789,162842,4
Wilmington,34.226,-77.945,161560,4
Malakal,9.537,31.656,160765,4
Tarija,-21.517,-64.75,159269,4
Barreiras,-12.14,-45.0,158292,4
Surat Thani,9.15,99.34,157627,4
Olympia,47.038,-122.899,156984,4
Moundou,8.55,16.09,156705,4
Yulin,38.283,109.733,155960,4
Sioux Falls,43.55,-96.73,155724,4
Bei'an,48.246,126.529,154936,4
Battambang,13.1,103.2,154773,4
Mahajanga,-15.67,46.345,154657,4
La Serena,-29.9,-71.25,154521,4
Cairns,-16.888,145.763,154225,4
Mufulira,-12.55,28.26,153624,4
Benguela,-12.578,13.407,151226,4
Gejiu,23.38,103.15,149105,4
Hamilton,-37.778,175.29,148200,4
Gulu,2.78,32.28,146858,4
Podgorica,42.466,19.266,145850,4
Los Angeles,-37.48,-72.347,145239,4
Goma,-1.679,29.222,144124,4
Altay,47.867,88.117,142000,4
Dunhuang,40.143,94.662,140094,4
Shizuishan,39.233,106.769,136570,4
Moçâmedes,-15.19,12.16,132900,4
Topeka,39.05,-95.67,132091,4
Papeete,-17.533,-149.567,131695,4
Lae,-6.733,146.99,131052,4
Tete,-16.17,33.58,129316,4
Copiapó,-27.372,-70.33,129280,4
Xai-Xai,-25.04,33.64,128805,4
Ekibastuz,51.73,75.32,127868,4
Worcester,-33.64,19.44,127597,4
Malanje,-9.54,16.34,125856,4
Lubango,-14.91,13.49,125632,4
Rudniy,52.953,63.13,124000,4
Charleston,38.35,-81.633,123799,4
Ségou,13.44,-6.26,122952,4
Bandundu,-3.31,17.38,118211,4
Dunedin,-45.885,170.491,117700,4
Gao,16.267,-0.05,116967,4
Tahoua,14.9,5.26,115956,4
Sri Jayawardenepura Kotte,6.9,79.95,115826,4
Toliara,-23.357,43.69,115319,4
Kankan,10.39,-9.31,114009,4
Juba,4.83,31.58,111975,4
Kandy,7.28,80.67,111701,4
Santa Rosa,-36.62,-64.3,111424,4
Pemba,-12.983,40.532,110643,4
Mzuzu,-11.46,34.02,110201,4
David,8.433,-82.433,110037,4
Siem Reap,13.367,103.85,109398,4
Kyzyl,51.707,94.383,108240,4
Golmud,36.417,94.883,107092,4
Raba,-8.45,118.767,106101,4
Assab,13.01,42.73,105496,4
Billings,45.788,-108.54,104552,4
Guaymas,27.93,-110.89,103449,4
Houma,35.62,111.21,102400,4
Sakata,38.92,139.85,100446,4
Ust-Ilimsk,57.99,102.633,100271,4
Corumbá,-19.016,-57.65,96520,4
Mekele,13.5,39.47,95856,4
Bariloche,-41.15,-71.3,95394,4
Burlington,44.476,-73.212,93807,4
Mbabane,-26.317,31.133,90138,4
Francistown,-21.17,27.5,89979,4
Ebolowa,2.9,11.15,87875,4
Parepare,-4.017,119.633,87776,4
Nouadhibou,20.9,-17.056,86738,4
Limón,10.0,-83.033,85001,4
Trinidad,-14.833,-64.9,84259,4
Sault Ste. Marie,46.495,-84.345,83805,4
Antsiranana,-12.277,49.312,82937,4
Bendigo,-36.76,144.28,81657,4
Atakpamé,7.53,1.12,80683,4
Vorkuta,67.5,64.01,80039,4
Xigaze,29.25,88.883,80000,4
Kayes,14.45,-11.44,77207,4
Sundsvall,62.4,17.317,73389,4
Mandurah,-32.523,115.747,73356,4
Missoula,46.872,-113.993,72856,4
Upington,-28.46,21.23,71373,4
Türkmenbaşy,40.023,52.97,68292,4
Putrajaya,2.933,101.695,67964,4
Great Falls,47.5,-111.3,66558,4
Rockhampton,-23.364,150.52,65850,4
Flagstaff,35.198,-111.651,63993,4
Kristiansand,58.146,7.975,63814,4
Kasongo,-4.45,26.66,63000,4
Kayes,-4.18,13.28,62521,4
Tanjung Pandan,-2.75,107.65,62374,4
Bambari,5.762,20.667,62098,4
Ponta Delgada,37.748,-25.667,61526,4
Casper,42.847,-106.323,60791,4
Mt.  Hagen,-5.863,144.217,59064,4
Napier,-39.49,176.926,57800,4
Vaasa,63.1,21.6,57014,4
Puerto Ayacucho,5.664,-67.624,52526,4
Hilo,19.706,-155.082,52391,4
Walvis Bay,-22.958,14.505,52058,4
Mahalapye,-23.1,26.82,50744,4
North Bay,46.3,-79.45,50170,4
Kingstown,13.156,-61.22,49485,4
Luleå,65.597,22.158,48638,4
Serowe,-22.39,26.71,48573,4
Meru,0.06,37.64,47226,4
Coihaique,-45.57,-72.07,45787,4
Banjul,13.454,-16.592,43094,4
Franceville,-1.633,13.583,42967,4
Eureka,40.793,-124.15,42398,4
Alta Floresta,-9.9,-55.91,40466,4
Mirny,62.54,113.961,40308,4
Goroka,-6.083,145.385,39699,4
Minot,48.232,-101.296,39439,4
Orange,-33.28,149.1,39329,4
Castries,14.008,-60.993,37963,4
Sydney,46.066,-60.18,37538,4
Kalgoorlie,-30.735,121.46,36852,4
Saint John's,17.118,-61.85,35499,4
Timmins,48.467,-81.333,34974,4
Rovaniemi,66.5,25.716,34781,4
Durazno,-33.41,-56.51,34037,4
Saint George's,12.053,-61.742,33734,4
Choibalsan,48.067,114.506,33376,4
Mount Isa,-20.724,139.49,33200,4
Dubbo,-32.26,148.597,31574,4
Leh,34.162,77.572,30870,4
Dund-Us,48.017,91.633,30500,4
Blenheim,-41.514,173.955,30300,4
Cottica,3.85,-54.233,29210,4
Brandon,49.833,-99.95,28418,4
Geraldton,-28.767,114.6,27258,4
Colíder,-10.817,-55.451,27139,4
Okha,53.574,142.948,26560,4
Albany,-35.017,117.892,26445,4
Rawson,-43.3,-65.1,26335,4
Lensk,60.725,114.947,25589,4
Freeport,26.533,-78.7,25383,4
Aldan,58.603,125.389,24426,4
Al Jawf,24.2,23.29,24132,4
Augusta,44.311,-69.78,24042,4
Roseau,15.301,-61.387,23336,4
Armidale,-30.512,151.667,22673,4
Whyalla,-33.025,137.561,22559,4
Basseterre,17.302,-62.717,21887,4
Fort McMurray,56.733,-111.383,21863,4
Kaédi,16.15,-13.5,21656,4
Devonport,-41.193,146.331,19317,4
Elko,40.833,-115.762,19252,4
Fort St. John,56.25,-120.833,18776,4
Middelburg,-31.5,25.01,18164,4
Broken Hill,-31.95,141.433,17395,4
Karratha,-20.73,116.87,16796,4
Dispur,26.144,91.767,16140,4
Griffith,-34.29,146.04,15455,4
International Falls,48.601,-93.411,15240,4
Lüderitz,-26.648,15.159,15137,4
Dalandzadgad,43.584,104.44,15093,4
Port Hedland,-20.31,118.606,14288,4
Wangaratta,-36.36,146.3,14022,4
Thompson,55.75,-97.867,13727,4
Port Lincoln,-34.733,135.867,13630,4
Broome,-17.962,122.231,13218,4
Pago Pago,-14.277,-170.707,12576,4
Portland,-38.34,141.59,11808,4
Santa Cruz,-0.533,-90.35,11262,4
Springbok,-29.667,17.883,10438,4
Labrador City,52.941,-66.916,10313,4
Alvorada,-12.47,-49.082,10232,4
Busselton,-33.656,115.349,10214,4
Katherine,-14.467,132.267,10141,4
Hammerfest,70.661,23.688,10000,4
Ust-Nera,64.567,143.2,9148,4
Sitka,57.06,-135.328,8931,4
Dalnegorsk,44.537,135.517,8123,4
Rabaul,-4.205,152.143,8074,4
El Calafate,-50.333,-72.3,8000,4
Iqaluit,63.75,-68.5,6124,4
Okhotsk,59.383,143.217,5570,4
Peace River,56.233,-117.283,5340,4
Sisimiut,66.95,-53.667,5227,4
Batagay,67.656,134.635,4266,4
Bukachacha,52.983,116.917,3372,4
Ugolnye Kopi,64.733,177.7,3367,4
Zhigansk,66.77,123.371,3237,4
Khatanga,72.041,102.465,3205,4
Chokurdakh,70.618,147.895,2506,4
Arviat,61.109,-94.059,1868,4
Igloolik,69.257,-81.794,1612,4
Cambridge Bay,69.117,-105.033,1477,4
Ayoun el Atrous,16.667,-9.617,1423,4
Dawson City,64.067,-139.417,1319,4
Kugluktuk,67.799,-115.125,1302,4
Kuujjuaq,58.1,-68.4,1273,4
Kuujjuarapik,55.281,-77.766,1243,4
Upernavik,72.709,-56.142,1129,4
Taloyoak,69.533,-93.533,774,4
Qaanaaq,77.467,-69.23,616,4
Fort Smith,60.0,-111.883,518,4
Tmassa,26.367,15.8,500,4
Chesterfield Inlet,63.338,-90.7,374,4
Windorah,-25.433,142.65,158,4
Narsarsuaq,61.167,-45.417,145,4
Dulan,36.167,98.267,100,4
Ambarchik,69.651,162.334,0,4
New Taipei,25.013,121.465,3893740,5
Magong,23.567,119.583,56435,5
Yokohama,35.431,139.602,3697894,6
Benoni,-26.148,28.328,2986000,6
Stuttgart,48.78,9.2,2944700,6
Giza,30.01,31.19,2681863,6
Faisalabad,31.412,73.108,2617000,6
Daegu,35.869,128.605,2460000,6
Haikou,20.05,110.32,2046189,6
Long Beach,33.777,-118.2,2036134,6
Tangshan,39.626,118.192,1879000,6
Tainan,23.0,120.2,1876312,6
Datong,40.082,113.298,1873000,6
Saidu,34.75,72.35,1860310,6
Rawalpindi,33.591,73.068,1858000,6
Shangqiu,34.413,115.65,1753000,6
Luoyang,34.644,112.444,1715000,6
Santos,-23.962,-46.328,1709000,6
Jianmen,30.652,113.158,1708000,6
Vitória,-20.332,-40.354,1704000,6
Luan,31.752,116.478,1690000,6
Wanzhou,30.82,108.4,1680000,6
Turin,45.072,7.668,1652000,6
Kumasi,6.692,-1.632,1646000,6
Taian,36.202,117.118,1629000,6
Xiantao,30.372,113.438,1556000,6
Weifang,36.702,119.156,1553000,6
Xinyang,32.132,114.068,1541000,6
Luzhou,28.882,105.378,1537000,6
Leeds,53.79,-1.551,1529000,6
Kōbe,34.68,135.17,1528478,6
Oakland,37.805,-122.278,1510271,6
Ganzhou,25.92,114.95,1500000,6
Liuzhou,24.321,109.414,1497000,6
Virginia Beach,36.855,-75.98,1491000,6
Fushun,41.867,123.868,1470000,6
Changde,29.032,111.678,1469000,6
Suining,30.535,105.531,1425000,6
Yiyang,28.602,112.328,1352000,6
Ciudad Juárez,31.692,-106.492,1343000,6
Heze,35.232,115.448,1338000,6
Porto,41.152,-8.622,1337000,6
Changzhou,31.782,119.968,1327000,6
Providence,41.823,-71.417,1277000,6
Columbus,39.982,-82.992,1270000,6
West Palm Beach,26.745,-80.124,1250000,6
Mudangiang,44.577,129.588,1244000,6
Huzhou,30.872,120.098,1231000,6
Vila Velha,3.217,-51.217,1209091,6
Warangal,18.01,79.58,1203853,6
Jining,35.402,116.548,1186000,6
Leshan,29.569,103.731,1157000,6
Birmingham,33.53,-86.825,1128047,6
Nampo,38.769,125.45,1127000,6
Xianyang,34.348,108.713,1126000,6
Cagayan de Oro,8.451,124.685,1121561,6
Can Tho,10.05,105.77,1121000,6
Barquisimeto,10.052,-69.302,1116000,6
Jinhua,29.12,119.65,1092852,6
Zhuzhou,27.832,113.148,1080000,6
Suwon,37.26,127.009,1078000,6
Vereeniging,-26.648,27.958,1074000,6
Xiangyang,32.022,112.128,1069000,6
Ulsan,35.549,129.315,1061000,6
Zhangjiakou,40.805,114.852,1046000,6
Lille,50.652,3.078,1044000,6
Gaziantep,37.077,37.383,1044000,6
Zhuhai,22.279,113.566,1023000,6
Benxi,41.332,123.748,1012000,6
Bucaramanga,7.132,-73.128,1009000,6
Maracay,10.249,-67.598,1007000,6
Rotterdam,51.922,4.478,1005000,6
Homs,34.732,36.718,1005000,6
Cologne,50.932,6.948,1004000,6
Qinhuangdao,39.932,119.618,1003000,6
Yongzhou,26.418,111.609,1000000,6
Cochabamba,-17.41,-66.17,1000000,6
Charlotte,35.207,-80.832,995000,6
Jiaxing,30.772,120.748,988000,6
Joinville,-26.318,-48.842,988000,6
Yichun,27.835,114.398,982000,6
Natal,-6.984,-60.27,980588,6
Qom,34.652,50.948,973000,6
Querétaro,20.578,-100.387,961000,6
Kelang,3.043,101.447,956000,6
Jinzhou,41.122,121.098,956000,6
João Pessoa,-7.099,-34.878,956000,6
Hue,16.47,107.58,950000,6
Bacolod,10.632,122.982,949354,6
Louisville,38.227,-85.751,948000,6
Nantong,31.982,120.925,947000,6
Foshan,23.01,113.114,943000,6
Nice,43.717,7.263,927000,6
Irbil,36.181,44.007,926000,6
Antwerpen,51.222,4.413,920000,6
Bogor,-6.568,106.748,918000,6
Hartford,41.772,-72.682,913000,6
Huaibei,33.952,116.748,913000,6
Xinyu,27.802,114.928,913000,6
Xinxiang,35.302,113.909,903000,6
Yibin,28.772,104.568,902000,6
Bengbu,32.952,117.328,894000,6
Zaria,11.082,7.708,889000,6
Anyang,36.082,114.348,887000,6
Newcastle,54.99,-1.612,882000,6
Callao,-12.07,-77.135,876877,6
Johor Bahru,1.482,103.728,875000,6
Yichang,30.702,111.278,875000,6
Kaifeng,34.794,114.355,872000,6
Albany,42.654,-73.758,870716,6
Dandong,40.146,124.392,870000,6
Aguascalientes,21.881,-102.292,869000,6
Xuanzhou,30.954,118.753,866000,6
Cardiff,51.483,-3.168,861400,6
Jiaozuo,35.201,113.26,857000,6
Zhenjiang,32.176,119.43,854000,6
Anshun,26.252,105.928,849000,6
Zunyi,27.702,106.918,849000,6
Pingdingshan,33.732,113.298,849000,6
Toulouse,43.622,1.448,847000,6
Yuci,37.682,112.728,840000,6
Yancheng,33.338,120.168,839000,6
Cuernavaca,18.921,-99.24,834001,6
Linfen,36.082,111.518,834000,6
Kermanshah,34.382,47.058,828313,6
Agadir,30.44,-9.62,825467,6
Jos,9.93,8.89,816824,6
Xingyi,25.092,104.888,816000,6
Liverpool,53.405,-2.962,811000,6
Wuhu,31.352,118.368,810000,6
Langfang,39.522,116.678,810000,6
Zhaotang,27.322,103.718,809000,6
Lingyuan,41.242,119.399,806000,6
Qui Nhon,13.78,109.18,805290,6
St. Petersburg,27.771,-82.679,800313,6
Baoji,34.38,107.15,800000,6
Pekanbaru,0.567,101.423,799000,6
Yingkow,40.672,122.278,795000,6
Bhiwandi,19.352,73.128,795000,6
Liaoyang,41.282,123.178,794000,6
Malacca,2.206,102.246,788706,6
Zaporizhzhya,47.859,35.175,788000,6
Antalya,36.892,30.698,783000,6
Al Hudaydah,14.8,42.951,780000,6
Shaoxing,30.002,120.568,777000,6
Yichun,47.702,128.898,777000,6
Dayton,39.752,-84.202,773000,6
Hamhung,39.912,127.543,773000,6
Ilorin,8.492,4.548,771000,6
Fuyang,30.055,119.95,771000,6
Fuxin,42.012,121.658,770000,6
Trabzon,40.98,39.72,764714,6
Łódź,51.768,19.458,758000,6
Saltillo,25.422,-101.007,754000,6
Pietermaritzburg,-29.61,30.39,750845,6
Tangier,35.776,-5.806,750060,6
Hsinchu,24.817,120.977,750000,6
Fargona,40.39,71.78,750000,6
Namangan,41.0,71.67,750000,6
Hegang,47.347,130.297,743307,6
Naga,13.619,123.181,741635,6
Nürnberg,49.45,11.08,737304,6
Amravati,20.926,77.782,734451,6
Denpasar,-8.65,115.22,732344,6
Bremen,53.08,8.8,724909,6
Cúcuta,7.92,-72.52,722146,6
Hamilton,43.25,-79.83,721053,6
Tacoma,47.241,-122.447,719868,6
Aksu,41.15,80.25,695000,6
Huangshi,30.22,115.1,688090,6
Aracaju,-10.9,-37.12,685356,6
San Pedro Sula,15.5,-88.03,680091,6
Nellore,14.44,79.99,678004,6
Gorakhpur,26.75,83.38,674246,6
Ipoh,4.6,101.065,673318,6
Chongjin,41.785,129.79,672614,6
Biên Hòa,10.97,106.83,652646,6
Zaragoza,41.65,-0.89,649404,6
Genoa,44.41,8.93,647497,6
Shihezi,44.3,86.03,640000,6
Hofuf,25.349,49.586,637389,6
Yogyakarta,-7.78,110.375,636660,6
Izhevsk,56.85,53.23,631038,6
Korla,41.73,86.15,613000,6
Palu,-0.907,119.833,612445,6
Belagavi,15.865,74.505,608756,6
Pontianak,-0.03,109.32,607311,6
Zahedan,29.5,60.83,598887,6
Chiclayo,-6.763,-79.837,596792,6
Chandrapur,19.97,79.3,595118,6
Rasht,37.3,49.63,594590,6
Vinh,18.7,105.68,593645,6
Kayseri,38.735,35.49,592840,6
Samarinda,-0.5,117.15,592228,6
Sarasota,27.336,-82.531,589959,6
Anqing,30.5,117.05,580497,6
Kerman,30.3,57.08,577514,6
Niigata,37.92,139.04,569797,6
Macau,22.189,113.544,568700,6
Weihai,37.5,122.1,560255,6
Siping,43.17,124.33,555609,6
Kagoshima,31.586,130.561,555352,6
Makhachkala,42.98,47.5,554981,6
Bahawalpur,29.39,71.675,552607,6
Kanazawa,36.56,136.64,551249,6
Jiujiang,29.73,115.98,545616,6
Göteborg,57.709,11.979,537797,6
Matsuyama,33.846,132.766,533541,6
Guntur,16.33,80.45,530577,6
Ṭarābulus,34.438,35.832,530000,6
Harrisburg,40.274,-76.885,528892,6
Kota Kinabalu,5.98,116.11,527671,6
Londrina,-23.3,-51.18,520238,6
Bello,6.33,-75.57,519670,6
Lipetsk,52.62,39.64,515655,6
Eskişehir,39.795,30.53,514869,6
Liaoyuan,42.9,125.13,506548,6
Kota Baharu,6.12,102.23,505583,6
Edinburgh,55.948,-3.219,504966,6
Davangere,14.47,75.92,503564,6
Thái Nguyên,21.6,105.83,500000,6
El Minya,28.09,30.75,500000,6
Tula,54.2,37.63,489486,6
Mariupol,47.096,37.556,481626,6
Homyel,52.43,31.0,480951,6
Dhule,20.9,74.77,479073,6
Nazret,8.55,39.27,476892,6
Kuqa,41.728,82.936,470600,6
Juiz de Fora,-21.77,-43.375,470193,6
Toledo,41.64,-83.553,469924,6
Udaipur,24.6,73.73,469737,6
Qazvin,36.27,50.0,464551,6
Panzhihua,26.55,101.73,461513,6
Durango,24.031,-104.67,457140,6
Jambi,-1.59,103.61,457090,6
Sfax,34.75,10.72,453050,6
Manado,1.48,124.85,451893,6
Qitaihe,45.768,131.009,450617,6
Şanlıurfa,37.17,38.795,449549,6
Cheboksary,56.13,47.25,446781,6
Ballari,15.15,76.915,445388,6
Bakersfield,35.37,-119.02,443129,6
Strasbourg,48.58,7.75,439972,6
Khujand,40.29,69.62,437684,6
Guangyuan,32.43,105.87,437435,6
Bukavu,-2.51,28.84,436779,6
Tuticorin,8.798,78.132,436094,6
Pohang,36.021,129.372,435266,6
Likasi,-10.97,26.78,434408,6
San Luis,-33.3,-66.35,432310,6
Santa Marta,11.247,-74.202,431781,6
Villahermosa,18.0,-92.9,428564,6
Bengkulu,-3.8,102.27,426673,6
Kurnool,15.83,78.03,424920,6
Batangas,13.782,121.022,424508,6
Gaya,24.8,85.0,423692,6
Arak,25.28,3.75,423251,6
Ibagué,4.439,-75.232,421685,6
Ivanovo,57.01,41.01,420839,6
Sukkur,27.714,68.849,417767,6
Campina Grande,-7.23,-35.88,417261,6
Ardabil,38.25,48.3,414603,6
Charleston,32.792,-79.992,411940,6
Nha Trang,12.25,109.17,411556,6
Maturín,9.75,-63.17,410972,6
Kursk,51.74,36.19,409431,6
Murcia,37.98,-1.13,406807,6
Wichita,37.676,-97.328,401843,6
Tumakuru,13.33,77.1,399606,6
Ndola,-13.0,28.65,396339,6
Yuxi,24.38,102.57,396325,6
Kisumu,-0.09,34.75,395615,6
Sandakan,5.843,118.108,392288,6
Ahmednagar,19.082,74.746,391760,6
Greensboro,36.07,-79.8,388887,6
Granada‎,37.165,-3.585,388290,6
Campos,-21.75,-41.32,387417,6
Resistencia,-27.46,-58.99,387158,6
Baicheng,45.62,122.82,386861,6
Palma,39.574,2.654,375773,6
Villavicencio,4.153,-73.635,374763,6
Latur,18.4,76.57,374394,6
La Coruña,43.33,-8.42,370610,6
Abadan,30.331,48.28,370180,6
Trenton,40.217,-74.743,366513,6
Kuantan,3.83,103.32,366229,6
Nakuru,-0.28,36.07,364727,6
Sanya,18.259,109.504,362689,6
Provo,40.249,-111.638,356712,6
Asahikawa,43.755,142.38,356612,6
Mirpur Khas,25.532,69.012,356435,6
Santiago del Estero,-27.783,-64.267,354692,6
Hualien,23.984,121.6,350468,6
Camagüey,21.381,-77.917,347562,6
Belgorod,50.63,36.6,345289,6
Kosti,13.17,32.66,345068,6
Kurgan,55.46,65.345,343129,6
Vitsyebsk,55.189,30.185,342700,6
Pematangsiantar,2.961,99.061,341200,6
Ciudad Bolívar,8.1,-63.6,338000,6
Santa Cruz de Tenerife,28.47,-16.25,336061,6
Bauru,-22.33,-49.08,335024,6
Orel,52.97,36.07,334552,6
Medani,14.4,33.52,332714,6
Madison,43.073,-89.401,327447,6
Brahmapur,19.32,84.8,324726,6
Birjand,32.88,59.22,324703,6
Valladolid,41.65,-4.75,322304,6
Legazpi,13.17,123.75,320081,6
Akita,39.71,140.09,320069,6
Windsor,42.315,-83.037,319246,6
Holguín,20.887,-76.263,319102,6
Vladimir,56.13,40.41,318648,6
Hat Yai,6.996,100.471,317954,6
Cumaná,10.45,-64.18,317603,6
Cluj-Napoca,46.788,23.598,316748,6
Angeles,15.145,120.545,314493,6
Youngstown,41.1,-80.65,311990,6
Antsirabe,-19.85,47.033,307921,6
Tawau,4.271,117.896,306462,6
San Salvador de Jujuy,-24.183,-65.3,305891,6
Franca,-20.53,-47.39,305041,6
Kom Ombo,24.47,32.95,303962,6
Barddhaman,23.25,87.865,301725,6
Tambov,52.73,41.43,301482,6
Jember,-8.173,113.687,298585,6
Aomori,40.825,140.71,298394,6
Morioka,39.72,141.13,295172,6
Sumy,50.924,34.781,294456,6
Fukushima,37.74,140.47,294237,6
Kakinada,16.967,82.238,292923,6
Minna,9.62,6.55,291905,6
Sekondi,4.943,-1.704,286248,6
Rangpur,25.75,89.28,285564,6
Bago,17.32,96.515,284318,6
Cádiz,36.525,-6.286,283157,6
Tongchuan,35.08,109.03,282258,6
Jining,41.03,113.08,281716,6
Cap-Haïtien,19.759,-72.213,281487,6
Batna,35.57,6.17,280798,6
Lansing,42.734,-84.547,279952,6
Cotabato,7.217,124.248,279519,6
Kostroma,57.77,40.94,277656,6
Komsomolsk na Amure,50.555,137.02,275908,6
Prokopyevsk,53.9,86.71,275615,6
Montería,8.758,-75.89,275198,6
Ciudad Victoria,23.72,-99.13,274900,6
Sétif,36.18,5.4,274744,6
Pamplona,42.82,-1.65,274545,6
Ubon Ratchathani,15.25,104.83,273893,6
Crato,-7.464,-63.04,273883,6
Guantánamo,20.145,-75.206,272801,6
Tasikmalaya,-7.325,108.215,271143,6
Vijayapura,16.835,75.71,271064,6
Little Rock,34.736,-92.331,270893,6
Thohoyandou,-22.95,30.48,269707,6
Tshikapa,-6.41,20.77,267462,6
Sterlitamak,53.63,55.96,267231,6
Myeik,12.454,98.611,266720,6
Temuco,-38.73,-72.58,265901,6
Imphal,24.8,93.95,264986,6
Lexington,38.05,-84.5,264578,6
Tubruq,32.08,23.96,263527,6
Kindu,-2.964,25.91,262914,6
Augusta,33.461,-81.985,262332,6
Karamay,45.59,84.86,261445,6
Wollongong,-34.415,150.89,260914,6
Uberaba,-19.78,-47.95,260843,6
Adapazarı,40.8,30.415,260109,6
Popayán,2.42,-76.61,258750,6
Canton,40.799,-81.379,258660,6
Al Mukalla,14.541,49.126,258132,6
Chattanooga,35.07,-85.25,257589,6
Chimoio,-19.12,33.47,256936,6
Ensenada,31.87,-116.62,256565,6
Daloa,6.89,-6.45,255168,6
Cirebon,-6.733,108.567,254298,6
Mobile,30.68,-88.05,253466,6
El Fasher,13.63,25.35,252609,6
Khon Kaen,16.42,102.83,251056,6
Governador Valadares,-18.87,-41.97,250878,6
Santa Clara,22.4,-79.967,250512,6
Laiyang,36.968,120.708,250000,6
Jaffna,9.675,80.005,250000,6
Mutare,-18.97,32.65,249365,6
Santa Maria,-29.683,-53.8,249219,6
Los Mochis,25.79,-109,249047,6
Orsk,51.21,58.627,246836,6
Oruro,-17.98,-67.13,246501,6
Lincoln,40.82,-96.68,246220,6
Juliaca,-15.5,-70.14,245675,6
Eugene,44.05,-123.1,245158,6
Nizhenvartovsk,60.935,76.58,244937,6
Nam Định,20.42,106.2,243186,6
Caruaru,-8.28,-35.98,242094,6
Novorossiysk,44.73,37.77,241856,6
Hachinohe,40.51,141.54,239046,6
Seeb,23.68,58.183,237816,6
Århus,56.157,10.211,237551,6
Taiping,4.865,100.72,237095,6
Oostanay,53.221,63.628,236901,6
Monclova,26.9,-101.42,236244,6
Palmas,-10.238,-48.288,235315,6
Kismaayo,-0.357,42.518,234852,6
Punto Fijo,11.72,-70.21,234736,6
Porbandar,21.67,69.67,234684,6
Pensacola,30.421,-87.217,234384,6
Zabol,31.021,61.481,233968,6
Rancagua,-34.17,-70.74,233268,6
Nakhon Si Thammarat,8.4,99.97,232335,6
Syktyvkar,61.66,50.82,230910,6
Ilhéus,-14.78,-39.05,230622,6
Noginsk,64.483,91.233,229731,6
Petropavlovsk,54.88,69.22,228238,6
Monywa,22.105,95.15,226222,6
Sabzewar,36.22,57.63,226183,6
Lancaster,34.698,-118.136,225799,6
Juazeiro do Norte,-7.21,-39.32,225230,6
Tanga,-5.07,39.09,224876,6
Tapachula,14.9,-92.27,221521,6
Saint-Louis,16.02,-16.51,220792,6
Polokwane,-23.89,29.45,220045,6
Baghlan,36.139,68.699,218748,6
Velikiy Novgorod,58.5,31.33,218717,6
Wuhai,39.665,106.812,218427,6
Imperatriz,-5.52,-47.49,218106,6
Sibolga,1.75,98.8,217312,6
Daytona Beach,29.211,-81.023,216890,6
Portoviejo,-1.06,-80.46,213601,6
Lubbock,33.58,-101.88,213300,6
Machala,-3.26,-79.96,213034,6
Huntsville,34.72,-86.61,212733,6
Springfield,37.18,-93.32,210939,6
Abha,18.23,42.5,210886,6
Toamasina,-18.182,49.405,210226,6
Oral,51.271,51.335,209788,6
Rennes,48.1,-1.67,209375,6
Lobito,-12.37,13.541,207932,6
Funchal,32.65,-16.88,204767,6
Criciúma,-28.68,-49.39,204217,6
Colón,9.365,-79.875,204000,6
Salalah,17.025,54.085,203877,6
Sibu,2.303,111.843,203832,6
Mossoró,-5.19,-37.34,202583,6
Biskra,34.86,5.73,202103,6
Daşoguz,41.84,59.965,201424,6
Gedaref,14.04,35.38,201282,6
Dindigul,10.36,77.978,200797,6
Balakovo,52.03,47.8,199572,6
Green Bay,44.53,-88.0,198611,6
Martapura,-3.414,114.836,198239,6
Gemena,3.26,19.77,198056,6
Thanh Hóa,19.82,105.8,197551,6
Talca,-35.43,-71.666,197479,6
Burgas,42.515,27.475,195966,6
Coro,11.42,-69.68,195227,6
Severodvinsk,64.57,39.83,194292,6
Ziguinchor,12.59,-16.29,191716,6
Zlatoust,55.175,59.65,191366,6
Gainesville,29.651,-82.325,191097,6
Đồng Hới,17.483,106.6,189265,6
Mwene-Ditu,-7,23.44,189177,6
Cork,51.893,-8.465,188907,6
Catamarca,-28.47,-65.78,188812,6
Ft. Myers,26.64,-81.86,188606,6
Arapiraca,-9.75,-36.67,187668,6
Kimchaek,40.672,129.203,187270,6
Gibraltar,36.128,-5.346,187083,6
Pinar del Rio,22.418,-83.698,186990,6
Jamaame,0.072,42.751,185270,6
Dese,11.13,39.63,183802,6
Gweru,-19.45,29.82,183358,6
Manta,-0.98,-80.73,183166,6
Brownsville,25.92,-97.5,181399,6
Passo Fundo,-28.25,-52.42,179529,6
Klerksdorp,-26.88,26.62,178921,6
Boma,-5.83,13.05,178638,6
Korhogo,9.46,-5.64,177711,6
Termiz,37.233,67.273,177687,6
Kadugli,11.01,29.7,176931,6
Ouargla,31.97,5.34,176271,6
Turku,60.454,22.255,175945,6
Taitung,22.755,121.14,175000,6
Harar,9.32,42.15,174994,6
Hirosaki,40.57,140.47,174972,6
Bo,7.97,-11.74,174354,6
Evansville,37.975,-87.556,174102,6
Stavanger,58.97,5.68,173132,6
Bata,1.87,9.77,173046,6
Riobamba,-1.67,-78.65,172464,6
Peoria,40.689,-89.579,172308,6
Nova Friburgo,-22.26,-42.54,171991,6
Djelfa,34.68,3.25,170901,6
Cedar Rapids,41.97,-91.66,170621,6
Temirtau,50.065,72.965,170600,6
Uvira,-3.37,29.14,170391,6
Araçatuba,-21.21,-50.45,170024,6
Sarh,9.15,18.39,169196,6
Bandar-e Bushehr,28.92,50.83,169060,6
Atbarah,17.71,33.98,168612,6
Berezniki,59.42,56.76,167748,6
Volgodonsk,47.51,42.16,167731,6
Waco,31.549,-97.146,167347,6
Dibrugarh,27.483,94.9,166366,6
Ayacucho,-13.175,-74.22,166314,6
Rustenburg,-25.65,27.24,165976,6
Kendari,-3.955,122.597,165377,6
Kimberley,-28.747,24.77,165264,6
León,12.436,-86.879,164441,6
Patra,38.23,21.73,163360,6
La Rioja,-29.41,-66.85,162620,6
Dourados,-22.23,-54.81,162202,6
Rubtsovsk,51.52,81.21,161065,6
Bhisho,-32.87,27.39,160997,6
Geelong,-38.167,144.396,160991,6
Xapeco,-27.1,-52.64,160157,6
Nakhodka,42.837,132.887,159551,6
Lafayette,30.2,-92.02,158214,6
Huánuco,-9.92,-76.24,158145,6
Sudbury,46.5,-80.967,157857,6
Hurghada,27.23,33.83,157204,6
Isiro,2.76,27.62,157196,6
Puerto Princesa,9.754,118.744,157144,6
Kashmar,35.181,58.451,157135,6
Ussuriysk,43.8,132.02,157068,6
Salinas,36.682,-121.642,156784,6
Dali,25.594,100.25,156685,6
Muroran,42.35,140.98,155676,6
Batumi,41.6,41.63,155542,6
Chetumal,18.5,-88.3,154517,6
Osorno,-40.579,-73.131,154131,6
Río Cuarto,-33.13,-64.35,153757,6
Limoges,45.83,1.25,152199,6
Luanshya,-13.133,28.4,151993,6
Suhar,24.362,56.734,151349,6
Chillán,-36.607,-72.111,150396,6
Urgentch,41.56,60.64,150110,6
Vryheid,-27.76,30.79,150012,6
Santa Cruz,36.972,-122.026,148444,6
Turbat,25.992,63.072,147791,6
Cam Ranh,11.902,109.221,146771,6
Tabora,-5.02,32.8,146495,6
Hanzhong,33.13,107.03,145986,6
La Ceiba,15.763,-86.797,145926,6
Krishnanagar,23.38,88.53,145926,6
Ajdabiya,30.77,20.22,143833,6
Béchar,31.611,-2.23,143382,6
Calama,-22.45,-68.92,143084,6
Play Ku,13.983,108.0,142900,6
Cajamarca,-7.15,-78.53,142665,6
Phuket,7.877,98.382,141618,6
Melilla,35.3,-2.95,141308,6
Labé,11.32,-12.3,140575,6
Lhokseumawe,5.191,97.141,140322,6
Myitkyina,25.36,97.393,139100,6
Parnaíba,-2.91,-41.77,138008,6
Umtata,-31.58,28.79,137772,6
Cerro de Pasco,-10.69,-76.27,137232,6
Iraklio,35.325,25.13,137154,6
Oulu,65.0,25.47,136752,6
Portland,43.672,-70.246,135866,6
Jequié,-13.85,-40.08,135574,6
Pyay,18.816,95.211,135308,6
Springfield,39.788,-89.637,134715,6
Touggourt,33.1,6.06,133954,6
Pervouralsk,56.91,59.955,133600,6
Uppsala,59.86,17.64,133117,6
Sennar,13.55,33.6,130122,6
Baydhabo,3.12,43.65,129839,6
Kokshetau,53.3,69.42,128873,6
Kamina,-8.73,25.01,128803,6
Moroni,-11.704,43.24,128698,6
Jima,7.68,36.83,128306,6
Surt,31.21,16.59,128123,6
Darnah,32.765,22.639,127974,6
Songea,-10.68,35.65,126449,6
Loja,-3.99,-79.21,126368,6
Macheng,31.18,115.03,126366,6
Montego Bay,18.467,-77.917,126008,6
Magway,20.145,94.92,125973,6
Pangkalpinang,-2.08,106.15,125933,6
Sorong,-0.855,131.285,125535,6
Kelowna,49.9,-119.483,125109,6
Monterey,36.6,-121.894,124288,6
Alagoinhas,-12.14,-38.43,124070,6
San Fernando de Apure,7.9,-67.47,122701,6
Agana,13.47,144.75,122411,6
Tauranga,-37.696,176.154,121500,6
Saginaw,43.419,-83.951,121379,6
Xilinhot,43.944,116.044,120965,6
Sassari,40.73,8.57,120729,6
Trois-Rivières,46.35,-72.55,119693,6
Anuradhapura,8.35,80.383,118302,6
Ourense,42.33,-7.87,118107,6
Setúbal,38.53,-8.9,117974,6
Achinsk,56.27,90.5,117634,6
Vyborg,60.704,28.755,117201,6
Kindia,10.06,-12.87,117062,6
Boké,10.94,-14.3,116270,6
Inhambane,-23.858,35.34,115776,6
Goulimine,28.98,-10.07,115267,6
Tuguegarao,17.613,121.727,115105,6
Delicias,28.2,-105.5,114783,6
Kuito,-12.38,16.94,114286,6
Abilene,32.449,-99.733,114247,6
Laghouat,33.81,2.88,113872,6
Tobolsk,58.2,68.265,113800,6
Curicó,-34.98,-71.24,113711,6
Tyler,32.351,-95.301,112245,6
Nakhon Sawan,15.7,100.07,111915,6
Daugavpils,55.88,26.51,111564,6
Manzanillo,19.05,-104.323,110735,6
Noyabrsk,63.167,75.617,110572,6
Garanhuns,-8.89,-36.5,110085,6
Lichinga,-13.3,35.24,109839,6
Heihe,50.25,127.446,109427,6
Tumbes,-3.57,-80.46,109223,6
San Rafael,-34.6,-68.333,109163,6
Medford,42.327,-122.874,108525,6
Mopti,14.49,-4.18,108456,6
Nehe,48.49,124.88,108253,6
Luxembourg,49.612,6.13,107260,6
Elista,46.329,44.209,106971,6
Bagé,-31.32,-54.1,106098,6
Odessa,31.846,-102.367,106054,6
Salto,-31.39,-57.969,105690,6
Sadah,16.94,43.85,105542,6
Jizan,16.907,42.557,105198,6
Linhares,-19.39,-40.05,105075,6
Mmabatho,-25.83,25.61,104428,6
Zhezqazghan,47.78,67.77,104357,6
Tandil,-37.32,-59.15,104325,6
Albury,-36.06,146.92,104258,6
Grand Junction,39.094,-108.55,104214,6
Kroonstad,-27.66,27.21,103992,6
Ad-Damir,17.59,33.96,103941,6
Lynchburg,37.414,-79.142,103893,6
Velikiye Luki,56.32,30.52,103149,6
Roxas,11.585,122.751,102688,6
Ukhta,63.56,53.69,102187,6
Bontang,0.133,117.5,101691,6
Kansk,56.19,95.71,101502,6
Wichita Falls,33.914,-98.493,101212,6
Teófilo Otoni,-17.87,-41.5,101170,6
Tartu,58.384,26.71,101092,6
Chamdo,31.141,97.181,100000,6
Arlit,18.736,7.389,100000,6
Tumen,42.97,129.82,99721,6
Galle,6.03,80.24,99478,6
Yakima,46.602,-120.505,99287,6
Bam,29.108,58.362,99268,6
Talara,-4.58,-81.28,99074,6
Lahti,60.994,25.665,98826,6
St. George,37.104,-113.583,98638,6
Serov,59.615,60.585,98438,6
Turkistan,43.302,68.255,97360,6
Linköping,58.41,15.63,96732,6
Yola,9.21,12.48,96006,6
Chico,39.729,-121.836,95888,6
Juazeiro,-9.42,-40.5,95132,6
Novy Urengoy,66.083,76.633,94212,6
Malindi,-3.21,40.1,94016,6
Manzhouli,49.6,117.43,93620,6
Nouméa,-22.263,166.444,93060,6
Toowoomba,-27.565,151.956,92800,6
Yuma,32.685,-114.624,92489,6
Itaituba,-4.259,-55.925,92308,6
Moncton,46.083,-64.767,90635,6
Limerick,52.665,-8.623,90054,6
Jönköping,57.771,14.165,89780,6
Ad Dakhla,23.714,-15.937,89292,6
Chaman,30.925,66.446,88568,6
Taldyqorghan,45.0,78.4,88380,6
Charlottesville,38.029,-78.477,87925,6
Nenjiang,49.18,125.23,87236,6
Huaraz,-9.53,-77.53,86934,6
Tumaco,1.81,-78.81,86713,6
Olavarría,-36.9,-60.33,86320,6
Usolye Sibirskoye,52.765,103.645,85900,6
Liepaga,56.51,21.01,85132,6
Savannakhet,16.538,104.773,84898,6
Duluth,46.783,-92.106,84800,6
Palmerston North,-40.353,175.607,82400,6
Sukhumi,43.02,41.02,81546,6
Balqash,46.853,74.95,81364,6
Pisco,-13.71,-76.22,81207,6
Zomba,-15.39,35.31,80932,6
Necochea,-38.56,-58.75,80478,6
Yalta,44.499,34.159,79509,6
Abaetetuba,-1.725,-48.885,79420,6
Idaho Falls,43.467,-112.033,79399,6
Kadoma,-18.33,29.91,79174,6
Paysandú,-32.33,-58.08,79016,6
Gualeguaychú,-33.02,-58.52,78676,6
Ceuta,35.889,-5.307,78674,6
Umeå,63.83,20.24,78197,6
Ovalle,-30.609,-71.199,77138,6
La Rochelle,46.167,-1.15,76997,6
Oudtshoorn,-33.58,22.19,76708,6
Alexandria,31.311,-92.445,76565,6
Tucuruí,-3.767,-49.674,76337,6
Birobidzhan,48.797,132.951,76146,6
Mackay,-21.144,149.15,75922,6
Bend,44.054,-121.309,75441,6
Wausau,44.959,-89.63,75422,6
Gode,5.95,43.45,75000,6
Freeport,28.959,-95.357,74892,6
Red Deer,52.267,-113.8,74857,6
Darkhan,49.462,105.973,74738,6
Manokwari,-0.871,134.069,74504,6
San Ramón de la Nueva Orán,-23.14,-64.32,74059,6
Cozumel,20.51,-86.95,73934,6
Kiffa,16.62,-11.4,73930,6
Farah,32.392,62.097,73647,6
Rapid City,44.081,-103.231,73632,6
Skien,59.2,9.6,73330,6
Tokar,18.433,37.733,73202,6
San Juan,18.809,-71.231,72950,6
Launceston,-41.45,147.13,72458,6
Bacabal,-4.23,-44.8,72372,6
Goya,-29.14,-59.27,72304,6
Nizwa,22.926,57.531,72076,6
Kalamata,37.039,22.114,71823,6
Sur,22.576,59.535,71152,6
Debre Markos,10.34,37.72,70758,6
Karakol,42.492,78.382,70171,6
Lisala,2.14,21.51,70087,6
Arba Minch,6.04,37.55,69622,6
Guajara-Miram,-10.8,-65.35,69586,6
Arecibo,18.44,-66.73,69307,6
Kamloops,50.667,-120.333,68714,6
Galveston,29.301,-94.797,68612,6
Saldanha,-33.01,17.93,68284,6
Balsas,-7.52,-46.05,68056,6
Calbayog,12.067,124.604,67921,6
Khanty Mansiysk,61.002,69.002,67800,6
Kasese,0.171,30.081,67269,6
Puerto Maldonado,-12.6,-69.183,67155,6
Neryungri,56.674,124.71,66320,6
Hastings,-39.638,176.837,66100,6
Lesosibirsk,58.243,92.483,65945,6
Lahat,-3.8,103.533,65906,6
Sodo,6.9,37.75,65737,6
Prince George,53.917,-122.767,65558,6
Parintins,-2.61,-56.74,64428,6
Victoria,28.805,-97.003,64209,6
Mazabuka,-15.86,27.76,64006,6
Pocatello,42.871,-112.445,63998,6
Irecê,-11.3,-41.87,63626,6
Svobodnyy,51.406,128.131,63620,6
Molepolole,-24.4,25.51,63248,6
Medicine Hat,50.033,-110.683,63138,6
Beledweyne,4.74,45.2,62945,6
Graaff Reinet,-32.3,24.54,62896,6
Balboa,8.95,-79.567,62882,6
Wenatchee,47.424,-120.309,62625,6
Madang,-5.225,145.785,62023,6
Bamian,34.813,67.823,61863,6
Berbérati,4.25,15.78,61815,6
Gaalkacyo,6.77,47.43,61200,6
Nelson,-41.293,173.247,60800,6
Zima,53.933,102.033,60239,6
Pirapora,-17.33,-44.93,60164,6
Uíge,-7.62,15.05,60008,6
Ithaca,42.441,-76.497,59930,6
Kotlas,61.263,46.663,59879,6
Gorno Altaysk,51.961,85.958,59868,6
Viedma,-40.813,-62.998,59122,6
Concepción,-23.406,-57.434,59118,6
Grand Forks,47.925,-97.032,58566,6
Rundu,-17.92,19.75,58172,6
Ushuaia,-54.79,-68.31,58028,6
Angoche,-16.23,39.91,57835,6
Picos,-7.08,-41.44,57495,6
Cheremkhovo,53.159,103.074,57395,6
Carson City,39.164,-119.766,57341,6
Bragança,-1.05,-46.77,57163,6
Mafetang,-29.817,27.25,57059,6
Adrar,27.87,-0.29,56910,6
Puerto Barrios,15.717,-88.593,56605,6
Rotorua,-38.132,176.248,56200,6
Paita,-5.09,-81.12,56151,6
Nova Viçosa,-17.88,-39.37,55980,6
Arqalyq,50.242,66.898,55521,6
Jefferson City,38.577,-92.173,55139,6
Marzuq,25.904,13.897,55071,6
Prescott,34.59,-112.448,55038,6
Moquegua,-17.19,-70.94,54517,6
Krasnokamensk,50.066,118.026,54316,6
Mocambique,-15.04,40.682,54315,6
Andorra,42.511,1.527,53998,6
Ruteng,-8.612,120.47,53976,6
Chicoutimi,48.433,-71.067,53940,6
Ilo,-17.64,-71.34,53476,6
Joensuu,62.6,29.767,53388,6
Coari,-4.08,-63.13,53305,6
Bundaberg,-24.879,152.351,52472,6
Fredericton,45.95,-66.633,52337,6
Whangarei,-35.726,174.323,52200,6
Tayshet,55.928,97.988,52184,6
Nyagan,62.147,65.381,52137,6
Itacoatiara,-3.14,-58.44,51509,6
Tefé,-3.36,-64.7,51437,6
Tulun,54.565,100.565,51330,6
Biloxi,30.396,-88.885,50644,6
Araguaína,-7.19,-48.21,50444,6
Bangor,44.801,-68.778,50213,6
El Kharga,25.44,30.55,49991,6
Tacheng,46.75,82.95,49796,6
Dosso,13.05,3.2,49750,6
Vryburg,-26.96,24.73,49588,6
Myrtle Beach,33.689,-78.887,49357,6
Lewiston,46.417,-117.017,49289,6
I-n-Salah,27.217,2.467,49223,6
Invercargill,-46.409,168.365,49200,6
Songkhla,7.21,100.56,48616,6
Port Macquarie,-31.445,152.919,48547,6
Vigan,17.575,120.387,48545,6
Buchanan,5.916,-10.052,48315,6
Smara,26.733,-11.683,48149,6
Mildura,-34.185,142.151,47867,6
Kafue,-15.78,28.18,47554,6
Antalaha,-14.883,50.283,47224,6
Rosso,16.524,-15.813,47203,6
Breves,-1.68,-50.49,47164,6
Progreso,21.283,-89.667,47124,6
Brunswick,31.15,-81.492,47085,6
Boosaaso,11.28,49.18,46969,6
New Amsterdam,6.25,-57.53,46874,6
Kokkola,63.833,23.117,46714,6
Aweil,8.767,27.4,46705,6
Nadym,65.53,72.515,46339,6
Östersund,63.183,14.65,46178,6
Pechora,65.159,57.209,46113,6
Manono,-7.3,27.45,46111,6
Ayakoz,47.965,80.43,45861,6
Buta,2.82,24.74,45677,6
Shaoyang,27.0,111.2,45617,6
Birak,27.533,14.283,45421,6
Usinsk,65.923,57.403,45000,6
Laranjal do Jari,-0.85,-52.48,45000,6
Vallenar,-28.57,-70.76,44895,6
Linden,5.99,-58.27,44690,6
Concord,43.208,-71.538,44606,6
Akhtubinsk,48.279,46.169,44551,6
Cobija,-11.021,-68.769,44437,6
Huancavelica,-12.79,-74.99,44388,6
Bluefields,12.0,-83.765,44373,6
Aracati,-4.56,-37.77,44293,6
Pärnu,58.375,24.514,44192,6
Nabire,-3.352,135.513,43898,6
Oyem,1.617,11.583,43423,6
Nizhneudinsk,54.898,99.028,43326,6
Al Wajh,26.232,36.464,43237,6
Whanganui,-39.933,175.039,43200,6
Bilwi,14.033,-83.383,43001,6
Klamath Falls,42.225,-121.781,42978,6
Tehuantepec,16.33,-95.23,42776,6
Cabo San Lucas,22.893,-109.905,42601,6
Kotabumi,-4.833,104.9,42366,6
Mansa,-11.2,28.89,42277,6
Lindi,-10.0,39.7,41912,6
Lesozavodsk,45.475,133.43,41778,6
Grand Prairie,55.167,-118.8,41462,6
Villarrica,-25.75,-56.433,41157,6
Birsk,55.424,55.544,41014,6
Pyu,18.478,96.438,40386,6
Yambio,4.571,28.416,40382,6
Haugesund,59.412,5.277,40321,6
Inongo,-1.94,18.28,40113,6
Tômbua,-15.8,11.86,40000,6
Pacasmayo,-7.401,-79.571,39282,6
Caloundra,-26.8,153.133,38706,6
Tamworth,-31.103,150.917,38551,6
Kandalaksha,67.164,32.414,38126,6
Maroantsetra,-15.433,49.733,38046,6
Salekhard,66.535,66.61,38025,6
Tynda,55.174,124.708,37335,6
Qulsary,46.983,54.017,37103,6
Morondava,-20.283,44.283,36803,6
Frankfort,38.201,-84.873,36688,6
San José de Mayo,-34.35,-56.71,36529,6
Monaco,43.74,7.407,36371,6
Baykonur,45.691,63.241,36175,6
Alamogordo,32.899,-105.96,36058,6
Atbasar,51.822,68.348,35819,6
Ulaangom,49.983,92.067,35796,6
Xique-Xique,-10.82,-42.73,35433,6
Korsakov,46.642,142.777,35091,6
Januária,-15.48,-44.37,34811,6
Prince Albert,53.2,-105.75,34609,6
Merauke,-8.493,140.402,34412,6
Bouar,5.95,15.6,34372,6
Goba,7.01,39.97,34369,6
Kondopoga,62.209,34.289,34360,6
Gisborne,-38.663,178.018,34300,6
Butte,46.004,-112.534,34190,6
Bodø,67.276,14.429,34073,6
Hwange,-18.37,26.5,33989,6
Sumbe,-11.21,13.85,33277,6
Velikiy Ustyug,60.769,46.299,33237,6
Aral,46.8,61.667,33017,6
Reggane,26.7,0.167,32974,6
Courtenay,49.683,-125.0,32793,6
Altai,46.362,96.256,32488,6
Beyneu,45.183,55.1,32452,6
De Aar,-30.65,24.0,32318,6
Moose Jaw,50.4,-105.55,32166,6
Rumbek,6.8,29.683,32083,6
Kalispell,48.198,-114.316,32062,6
El Goléa,30.567,2.883,32049,6
Arxan,47.183,119.967,32023,6
Coos Bay,43.367,-124.217,31976,6
Jacareacanga,-6.228,-57.76,31661,6
Balyqshy,47.067,51.867,31624,6
Lismore,-28.817,153.293,31430,6
Rio Grande,-53.791,-67.699,31095,6
Gladstone,-23.853,151.247,30489,6
Am Timan,11.033,20.283,30443,6
Borzya,50.389,116.519,30421,6
Ometepec,16.68,-98.42,30271,6
Douglas,31.359,-109.548,30185,6
Khorugh,37.488,71.548,30000,6
Warrnambool,-38.38,142.47,29928,6
Sovetskaya Gavan,48.97,140.275,29740,6
Jaguarão,-32.56,-53.37,29613,6
Swakopmund,-22.669,14.535,29491,6
Key West,24.555,-81.783,29377,6
Bria,6.533,21.983,29027,6
Tarawa,1.338,173.018,28802,6
Mpika,-11.83,31.46,28445,6
Icó,-6.4,-38.85,28323,6
Ouésso,1.61,16.05,28320,6
Arvaikheer,46.25,102.767,28053,6
Ancud,-41.87,-73.83,28020,6
Camiri,-20.05,-63.52,27961,6
Kolpashevo,58.311,82.907,27876,6
Örnsköldsvik,63.318,18.717,27749,6
Mörön,49.645,100.154,27690,6
Mananjary,-21.217,48.333,27686,6
Óbidos,-1.91,-55.52,27587,6
Shalqar,47.836,59.614,27256,6
Timaru,-44.397,171.242,27200,6
Nikolayevsk na Amure,53.15,140.73,27152,6
Puerto Armuelles,8.28,-82.87,27147,6
Conceição do Araguaia,-8.25,-49.29,27115,6
Zeya,53.75,127.267,26999,6
Tara,56.898,74.378,26986,6
Aripuanã,-10.177,-59.444,26983,6
Laramie,41.311,-105.591,26934,6
Rocha,-34.483,-54.333,26874,6
Bor,6.207,31.559,26782,6
Canavieiras,-15.64,-38.96,26375,6
Velsk,61.067,42.097,26300,6
Bayankhongor,46.3,100.983,26252,6
Sena Madureira,-9.07,-68.67,26192,6
Krasnoarmeysk,51.017,45.697,25841,6
Severobaykalsk,55.634,109.313,25800,6
Vicksburg,32.352,-90.878,25701,6
Sept-Îles,50.316,-66.36,25686,6
Majuro,7.103,171.38,25400,6
Ust-Kut,56.765,105.76,25388,6
Carlsbad,32.421,-104.228,25302,6
Chiromo,-16.55,35.133,25235,6
Wewak,-3.553,143.637,25143,6
Ongwediva,-17.78,15.77,25032,6
Moyale,3.52,39.05,24837,6
Farafangana,-22.817,47.833,24764,6
Lamu,-2.262,40.92,24525,6
Watsa,3.04,29.53,24516,6
Tocopilla,-22.09,-70.19,24460,6
Ghat,24.965,10.173,24347,6
Labasa,-16.417,179.383,24187,6
As Sulayyil,20.462,45.572,24097,6
Kourou,5.16,-52.65,24029,6
Koulikoro,12.883,-7.55,23919,6
Iguape,-24.72,-47.57,23784,6
Khromtau,50.27,58.45,23715,6
Dudinka,69.418,86.225,23619,6
Nasca,-14.83,-74.94,23556,6
Bondo,3.81,23.67,23517,6
Santa Maria da Vitória,-13.39,-44.21,23488,6
Mount Gambier,-37.831,140.765,23209,6
Siwa,29.2,25.517,23080,6
Jyekundo,32.998,97.007,23000,6
Inta,66.037,60.167,22921,6
Onega,63.927,38.077,22693,6
Andoany,-13.4,48.267,22680,6
Kemi,65.733,24.582,22641,6
Taupo,-38.693,176.077,22600,6
Erenhot,43.662,111.965,22287,6
Eirunepé,-6.66,-69.874,21750,6
Naryan Mar,67.647,53.057,21658,6
Manicoré,-5.812,-61.297,21549,6
Shimanovsk,52.002,127.697,21466,6
Palatka,60.1,150.9,21452,6
Luena,-11.79,19.9,21115,6
Corner Brook,48.95,-57.933,20791,6
Maryborough,-25.549,152.721,20678,6
Val d'Or,48.117,-77.767,20625,6
Mbala,-8.84,31.37,20570,6
Mo i Rana,66.317,14.167,20409,6
Musina,-22.34,30.03,20191,6
Esquel,-42.9,-71.317,20048,6
Narvik,68.383,17.29,20000,6
Puerto Natales,-51.718,-72.512,20000,6
Tidjikdja,18.55,-11.417,19981,6
Burnie,-41.067,145.917,19972,6
Yeniseysk,58.452,92.157,19920,6
Kavieng,-2.581,150.813,19728,6
Babanusa,11.333,27.8,19700,6
Lillehammer,61.133,10.5,19542,6
North Battleford,52.767,-108.283,19440,6
Zapala,-38.9,-70.067,19152,6
Contamana,-7.34,-75.02,18921,6
Eyl,7.983,49.833,18904,6
Hun,29.117,15.933,18878,6
Züünkharaa,48.867,106.467,18830,6
Slyudyanka,51.654,103.699,18809,6
Molde,62.748,7.183,18594,6
Nara,15.18,-7.28,18459,6
Lijiang,26.8,100.267,18445,6
Kyakhta,50.353,106.453,18431,6
Tindouf,27.674,-8.148,18270,6
Kiruna,67.85,20.217,18154,6
Keetmanshoop,-26.574,18.13,18039,6
Mao,14.119,15.313,18031,6
Forster-Tuncurry,-32.193,152.527,17591,6
Bulgan,48.811,103.532,17348,6
Wadi Halfa,21.8,31.35,17121,6
Ambriz,-7.855,13.125,17000,6
Tôlanaro,-25.027,46.99,16818,6
Mossel Bay,-34.17,22.13,16743,6
Morombe,-21.739,43.366,16727,6
Queenstown,-45.023,168.725,16600,6
Akureyri,65.667,-18.1,16563,6
Marsabit,2.33,37.98,16460,6
Santissima Trindade,-15.0,-59.95,16271,6
Fonte Boa,-2.514,-66.092,16060,6
Bodaybo,57.851,114.193,15933,6
Baruun-Urt,46.7,113.283,15805,6
Udachny,66.423,112.397,15266,6
São Gabriel da Cachoeira,-0.133,-67.083,15231,6
Tsumeb,-19.24,17.71,14959,6
Bemidji,47.474,-94.88,14796,6
Öndörkhaan,47.317,110.65,14723,6
Tórshavn,62.03,-6.82,14398,6
Williams Lake,52.117,-122.15,14168,6
Port Augusta,-32.49,137.77,13897,6
Kem,64.954,34.568,13829,6
Bandarbeyla,9.483,50.817,13753,6
Chañaral,-26.348,-70.621,13543,6
Faya Largeau,17.917,19.117,13400,6
Dolbeau,48.867,-72.233,13337,6
Palmer,61.6,-149.113,13111,6
Muynoq,43.768,59.021,13000,6
Mogocha,53.733,119.767,12647,6
Barcelos,-0.975,-62.924,12584,6
Los Alamos,35.891,-106.298,12233,6
Belomorsk,64.525,34.766,12165,6
Alta,69.967,23.242,12077,6
Aleksandrovsk Sakhalinskiy,50.897,142.156,12024,6
Dundo,-7.38,20.83,11985,6
Robertsport,6.753,-11.369,11969,6
Dolo Bay,4.183,42.083,11810,6
Negele Boran,5.317,39.583,11772,6
Magdagachi,53.45,125.8,11739,6
Río Colorado,-38.967,-64.083,11499,6
Havre,48.545,-109.678,11154,6
Biltine,14.533,20.917,11000,6
Bowen,-20.001,148.209,10983,6
Kenora,49.767,-94.467,10852,6
Khilok,51.35,110.45,10627,6
Filadelfia,-22.34,-60.03,10470,6
Greenville,5.011,-9.039,10374,6
Merowe,18.483,31.817,10234,6
Innisfail,-17.531,146.039,10143,6
Nogliki,51.833,143.167,10098,6
Salaverry,-8.22,-78.99,10066,6
Taltal,-25.4,-70.47,10018,6
Skovorodino,53.983,123.917,10007,6
Grafton,-29.712,152.938,9955,6
Vilyuysk,63.755,121.625,9948,6
Gamba,-2.65,10.0,9928,6
Lobamba,-26.467,31.2,9782,6
Igrim,63.193,64.419,9545,6
San Jose,-17.85,-60.78,9211,6
Cody,44.523,-109.057,9161,6
Porto Nacional,-10.7,-48.42,9129,6
Ménaka,15.917,2.4,9110,6
Dauphin,51.15,-100.05,9077,6
Ketchikan,55.356,-131.664,9070,6
Novo Airão,-2.621,-60.944,9049,6
Namsos,64.483,11.5,9035,6
Sinop,-11.85,-55.46,8961,6
Kemijärvi,66.667,27.417,8883,6
Buyant-Uhaa,44.867,110.15,8776,6
Suntar,62.144,117.632,8639,6
Olovyannaya,50.95,115.567,8247,6
Moree,-29.47,149.83,8203,6
Qarqaraly,49.425,75.465,8195,6
Puerto Aisén,-45.4,-72.7,8067,6
Uliastay,47.75,96.817,8056,6
Illizi,26.483,8.467,7957,6
Keflavík,64.017,-22.567,7930,6
Esperance,-33.857,121.889,7888,6
Dryden,49.783,-92.833,7862,6
Kenai,60.554,-151.258,7610,6
Banff,51.178,-115.572,7502,6
Yarmouth,43.831,-66.113,7500,6
Carnarvon,-24.9,113.65,7392,6
Susuman,62.783,148.167,7367,6
Wick,58.433,-3.083,7147,6
Zambezi,-13.54,23.11,7074,6
Melekeok,7.487,134.627,7026,6
Khandyga,62.666,135.6,6796,6
Ghadamis,30.133,9.5,6623,6
Awjilah,29.108,21.287,6610,6
Lerwick,60.15,-1.15,6594,6
Qazaly,45.763,62.108,6582,6
Flin Flon,54.767,-101.883,6393,6
San Matias,-16.36,-58.42,6352,6
Fort Nelson,58.804,-122.687,6315,6
Smithers,54.767,-127.167,6245,6
Umba,66.681,34.346,6128,6
Bathurst,47.6,-65.65,6111,6
The Pas,53.817,-101.233,6055,6
Tessalit,20.201,1.089,6000,6
Norway House,53.967,-97.833,6000,6
Tazovsky,67.467,78.7,5981,6
Maintirano,-18.067,44.017,5925,6
Northam,-31.657,116.653,5855,6
Kununurra,-15.767,128.733,5679,6
Roma,-26.559,148.791,5496,6
Avarua,-21.196,-159.785,5445,6
Tura,64.283,100.25,5444,6
Sarmiento,-45.6,-69.083,5185,6
Vadsø,70.097,29.766,5139,6
Newman,-23.367,119.733,5138,6
Chernyshevsky,63.013,112.471,5137,6
Ust-Kamchatsk,56.214,162.435,4939,6
Pevek,69.701,170.313,4837,6
Turukhansk,65.838,87.955,4774,6
Funafuti,-8.517,179.217,4749,6
Bagdarin,54.433,113.6,4676,6
Palikir,6.917,158.15,4645,6
Sangar,63.924,127.474,4633,6
Tonantins,-2.873,-67.802,4561,6
Aqtau,43.623,51.236,4479,6
Ilulissat,69.217,-51.1,4413,6
Goondiwindi,-28.555,150.325,4251,6
Manjimup,-34.233,116.15,4240,6
Ely,39.247,-114.888,4216,6
Omsukchan,62.533,155.8,4201,6
Svolvær,68.233,14.567,4197,6
Novyy Uoyin,56.135,111.734,4184,6
Araouane,18.9,-3.53,4026,6
Mayumba,-3.417,10.65,3996,6
Jasper,52.883,-118.083,3907,6
Tennant Creek,-19.65,134.2,3889,6
Perito Moreno,-46.6,-70.933,3766,6
Teeli,51.033,90.233,3732,6
Chersky,68.75,161.33,3707,6
Gaspé,48.837,-64.493,3677,6
Mezen,65.852,44.24,3672,6
Zyryanka,65.736,150.89,3627,6
De-Kastri,51.467,140.783,3615,6
Unalaska,53.869,-166.532,3571,6
Srednekolymsk,67.45,153.71,3459,6
Gander,48.95,-54.55,3345,6
Vanhynsdorp,-31.617,18.733,3331,6
Kirkenes,69.725,30.052,3282,6
Qaqortoq,60.729,-46.036,3224,6
Derby,-17.312,123.642,3199,6
Ust-Maya,60.457,134.543,3062,6
Inuvik,68.35,-133.7,3022,6
Taoudenni,22.667,-3.983,3019,6
Mandalgovi,45.75,106.266,2984,6
Mabaruma,8.2,-59.78,2972,6
Seward,60.126,-149.47,2900,6
Weipa,-12.667,141.867,2830,6
Port Burwell,60.266,-64.741,2762,6
Garoowe,8.4,48.5,2568,6
Provideniya,64.423,-173.226,2536,6
Ísafjörður,66.083,-23.15,2534,6
Nagchu,31.48,92.05,2500,6
Puerto Williams,-54.933,-67.617,2500,6
Rankin Inlet,62.817,-92.095,2472,6
El Dorado,6.733,-61.633,2383,6
Dondo,-9.69,14.43,2353,6
Puerto San Julián,-49.3,-67.717,2347,6
Maltahöhe,-24.84,16.94,2329,6
Cordova,60.543,-145.757,2257,6
Mejillones,-23.1,-70.45,2041,6
Evensk,61.95,159.233,2024,6
Marka,1.72,44.769,1958,6
Amapá,2.05,-50.8,1947,6
Saskylakh,71.917,114.083,1920,6
Charleville,-26.4,146.25,1900,6
Paamiut,62.004,-49.635,1862,6
Tasiilaq,65.602,-37.634,1829,6
Attawapiskat,52.917,-82.433,1802,6
Novy Port,67.698,72.928,1790,6
Moosonee,51.281,-80.658,1725,6
Höfn,64.272,-15.214,1695,6
Inukjuak,58.47,-78.136,1597,6
Ceduna,-32.099,133.662,1586,6
Pond Inlet,72.685,-78.0,1549,6
Oktyabrsky,52.664,156.239,1534,6
Eldikan,60.8,135.183,1516,6
Alexander Bay,-28.608,16.503,1500,6
Verkhoyansk,67.545,133.385,1388,6
Cape Dorset,64.313,-76.539,1326,6
Pangnirtung,66.133,-65.75,1320,6
Chumikan,54.711,135.315,1305,6
Uummannaq,70.675,-52.123,1299,6
Ayan,56.454,138.167,1286,6
Gillam,56.35,-94.7,1281,6
Longyearbyen,78.221,15.621,1232,6
Halls Creek,-18.223,127.671,1209,6
Cloncurry,-20.7,140.5,1202,6
Gjoa Haven,68.633,-95.917,1109,6
Klyuchi,56.3,160.85,1089,6
Exmouth,-21.931,114.123,1085,6
Hooper Bay,61.531,-166.097,1079,6
Omolon,65.25,160.5,1050,6
Fulin,29.35,102.717,1049,6
Norseman,-32.2,121.767,1004,6
Principe da Beira,-12.417,-64.417,956,6
Skagway,59.458,-135.314,955,6
Govorovo,70.211,125.993,943,6
Tarapoto,-6.51,-76.48,936,6
Yulara,-25.241,130.989,930,6
Tuktoyaktuk,69.455,-133.049,929,6
Fort Yukon,66.565,-145.274,833,6
Georgetown,-18.3,143.533,818,6
Watson Lake,60.062,-128.712,802,6
Wyndham,-15.595,128.224,800,6
Uelen,66.154,-169.811,776,6
Yerema,60.381,107.779,745,6
Gambell,63.78,-171.731,681,6
Meekatharra,-26.6,118.483,654,6
Mingan,50.302,-64.017,588,6
Onslow,-21.658,115.096,573,6
Quilpie,-26.617,144.25,560,6
Kangerlussuaq,67.014,-50.71,556,6
Mereeg,3.767,47.3,548,6
Cartwright,53.701,-57.012,505,6
Galena,64.733,-156.927,500,6
Holman,70.733,-117.75,500,6
Bir Lehlou,26.119,-9.653,500,6
Lynn Lake,56.85,-101.05,482,6
Ittoqqortoormiit,70.483,-21.967,469,6
Fada,17.185,21.59,448,6
Fort Resolution,61.167,-113.683,448,6
Xangongo,-16.74,14.97,447,6
Hughenden,-20.85,144.2,421,6
Kimmirut,62.85,-69.883,385,6
Laverton,-28.627,122.404,316,6
Shoyna,67.867,44.133,300,6
Kulusuk,65.567,-37.183,286,6
Fort Simpson,61.85,-121.333,283,6
Amderma,69.763,61.668,282,6
Brochet,57.883,-101.667,278,6
Nimule,3.6,32.05,242,6
Togiak,59.07,-160.378,236,6
Leonara,-28.882,121.328,227,6
Nuussuaq,74.121,-57.067,204,6
Thargomindah,-28.0,143.817,203,6
Kangersuatsiaq,72.38,-55.549,200,6
Three Springs,-29.533,115.75,190,6
Sayhut al Ghamirah,15.211,51.245,189,6
Camooweal,-19.917,138.117,187,6
Wainwright,70.637,-160.038,174,6
Androka,-25.022,44.075,174,6
Karumba,-17.483,140.833,173,6
Al Qunfudhah,19.126,41.079,157,6
Ivugivik,62.417,-77.9,156,6
La Esmeralda,3.174,-65.547,150,6
Alert,82.483,-62.25,125,6
Rigolet,54.177,-58.447,124,6
Lansdowne House,52.217,-87.883,120,6
Kaktovik,70.088,-143.603,101,6
Vorontsovo,71.698,83.564,100,6
Nyingchi,29.651,94.367,100,6
Uranium City,59.567,-108.617,89,6
Savissivik,76.019,-65.112,66,6
Red Devil,61.761,-157.313,25,6
Grise Fiord,76.442,-82.95,23,6
Kovda,66.69,32.87,20,6
Krasino,70.731,54.421,10,6
Matočkin Šar,73.27,56.45,10,6
Indiga,67.69,49.017,10,6
Gyda,70.881,78.466,10,6
Numto,63.667,71.333,10,6
Komsa,61.868,89.258,10,6
Starorybnoye,72.767,104.8,10,6
Mikhaylova,75.095,86.982,10,6
Chagda,60.1,133.9,10,6
Terbyas,64.376,120.547,10,6
Menkere,67.989,123.35,10,6
Sagastyr,73.378,126.592,10,6
Ust-Olenyok,72.998,119.773,10,6
Olenyok,68.525,112.45,10,6
Khakhar,57.667,135.43,10,6
Manily,62.55,165.3,10,6
Timmiarmiut,62.533,-42.217,10,6
Nord,81.717,-17.8,10,6
Qeqertasuaq,69.244,-53.565,10,6
Erldunda,-25.233,133.2,10,6
Gueppi,-0.117,-75.23,10,6
Djado,21.015,12.308,10,6
Rusanovo,70.598,56.372,10,6
Bir Mogrein,25.233,-11.583,10,6
Chernobyl,51.389,30.099,0,6
Ennadai,61.133,-100.883,0,6
Kazachye,70.733,136.217,-99,6
Haora,22.585,88.319,4841638,7
Hechi,24.695,108.083,3830000,7
Zhangzhou,24.52,117.67,3531147,7
Irvine,33.68,-117.83,3010232,7
Quezon City,14.65,121.03,2761720,7
Katowice,50.26,19.02,2746000,7
Xiangtan,27.85,112.9,2586948,7
Bekasi,-6.217,106.972,2378211,7
Mannheim,49.5,8.47,2362000,7
Dammam,26.43,50.098,2054710,7
Fort Lauderdale,26.136,-80.142,2042042,7
Shuyang,34.13,118.773,1770000,7
Zhongli,24.965,121.217,1632616,7
Toluca,19.289,-99.653,1531000,7
Karaj,35.802,50.968,1423000,7
Maanshan,31.673,118.485,1366302,7
Düsseldorf,51.22,6.78,1220000,7
Maoming,21.92,110.87,1217715,7
Cilacap,-7.719,109.015,1174964,7
Shangrao,28.47,117.97,1144577,7
Baoding,38.858,115.469,1107000,7
Zigong,29.402,104.778,1105000,7
Ikare,7.53,5.76,1099931,7
Haifa,32.822,34.978,1011000,7
Kitakyūshū,33.87,130.82,997536,7
Hamamatsu,34.718,137.733,977023,7
Salerno,40.68,14.77,954265,7
Songnam,37.441,127.136,942000,7
Goyang,37.655,126.835,903000,7
Aba,5.1,7.35,897560,7
Tarsus,36.92,34.88,894318,7
Bandar Lampung,-5.45,105.3,881801,7
Novo Hamburgo,-29.71,-51.14,876990,7
Yangjiang,21.85,111.97,872363,7
Bucheon,37.501,126.781,866000,7
Rizhao,35.43,119.45,865000,7
New Haven,41.33,-72.9,846766,7
Basel,47.58,7.59,830000,7
Jhansi,25.453,78.557,826494,7
Nottingham,52.941,-1.166,825600,7
Butterworth,5.417,100.4,821652,7
Bareilly,28.347,79.418,817000,7
Saarbrücken,49.25,6.97,770001,7
Jincheng,35.5,112.83,760000,7
Changhua,24.073,120.513,750000,7
Oyo,7.85,3.93,736072,7
Beihai,21.48,109.1,728978,7
Lowell,42.634,-71.317,723629,7
As Sulaymaniyah,35.561,45.431,723170,7
Hanover,52.367,9.717,722490,7
Moshi,-3.34,37.34,721018,7
Kumamoto,32.801,130.701,718232,7
Lianyungang,34.587,119.226,715600,7
Dehra Dun,30.32,78.05,714223,7
Jeonju,35.831,127.14,711424,7
Qingyuan,23.7,113.03,706717,7
Changzhi,36.184,113.105,706000,7
Akron,41.07,-81.52,703200,7
Tolyatti,53.508,49.42,702879,7
Shizuoka,34.986,138.385,701561,7
Meknes,33.9,-5.56,697628,7
La Plata,-34.923,-57.954,694253,7
Malegaon,20.56,74.525,690844,7
Stockton,37.958,-121.29,685306,7
Bonn,50.72,7.08,680543,7
Puyang,35.7,114.98,666322,7
Ismaïlia,30.59,32.26,656135,7
Shivamogga,13.93,75.56,654055,7
Zhanyi,25.6,103.817,652604,7
Turpan,42.935,89.165,651853,7
Tiruppur,11.08,77.33,650000,7
Diyarbakır,37.92,40.23,644763,7
Morelia,19.733,-101.189,644306,7
Utrecht,52.1,5.12,640000,7
Wrocław,51.11,17.03,634893,7
Raurkela,22.23,84.83,625831,7
Poznań,52.406,16.9,623997,7
Bannu,32.989,70.599,622419,7
Wiesbaden,50.08,8.25,617126,7
Changping,40.225,116.194,614821,7
Taizhou,32.49,119.9,612356,7
Xiangtai,37.05,114.5,611739,7
Oceanside,33.191,-117.346,609854,7
Sangli,16.86,74.575,601214,7
Barcelona,10.13,-64.72,600954,7
El Mansura,31.05,31.38,600000,7
Sohag,26.55,31.7,600000,7
Jalalabad,34.442,70.436,597971,7
Al Hillah,32.472,44.422,594605,7
Abeokuta,7.16,3.35,593100,7
Gary,41.58,-87.33,591180,7
Covington,39.084,-84.509,585489,7
Bikaner,28.015,73.332,576015,7
Shuozhou,39.3,112.42,570000,7
Pereira,4.81,-75.68,568750,7
Binjai,3.62,98.5,564979,7
Tongling,30.95,117.78,562832,7
Bhavnagar,21.778,72.13,554978,7
Kenitra,34.27,-6.58,551786,7
Málaga,36.72,-4.42,550058,7
Matola,-25.97,32.46,543907,7
Bilaspur,22.09,82.16,543454,7
Sargodha,32.085,72.675,542603,7
Leipzig,51.335,12.41,542529,7
Tirunelveli,8.73,77.69,542200,7
Grand Rapids,42.964,-85.67,535829,7
Rouen,49.43,1.08,532559,7
Jiangmen,22.58,113.08,532419,7
Cangzhou,38.32,116.87,527681,7
Jian,27.13,115.0,520248,7
Siliguri,26.72,88.455,515574,7
Ujjain,23.19,75.79,513350,7
Blida,36.42,2.83,511348,7
Karbala,32.615,44.024,510692,7
Gliwice,50.33,18.67,507670,7
Bukittinggi,-0.303,100.361,506964,7
Arak,34.08,49.7,503647,7
Pingtung,22.682,120.482,503530,7
Brighton,50.83,-0.17,503008,7
Bari,41.114,16.873,500577,7
Keelung,25.133,121.733,500000,7
Mazatlán,29.017,-110.133,500000,7
Awka,6.21,7.07,500000,7
Pasuruan,-7.63,112.9,500000,7
Damanhûr,31.05,30.47,500000,7
Shuangyashan,46.67,131.35,500000,7
Tsu,34.717,136.517,500000,7
Chiayi,23.475,120.435,500000,7
Mataram,-8.58,116.135,499409,7
Shahrisabz,39.062,66.831,498545,7
Songyuan,45.18,124.82,495900,7
Beni Suef,29.08,31.09,489450,7
Bologna,44.5,11.34,488172,7
Everett,47.96,-122.2,486903,7
Bhatpara,22.853,88.414,483129,7
Ife,7.48,4.56,482365,7
Zhaoqing,23.05,112.45,480000,7
Ostrava,49.83,18.25,478963,7
Jiaojing,28.68,121.45,471500,7
Chaoyang,41.55,120.42,470296,7
İzmit,40.776,29.931,466504,7
Iligan,8.171,124.215,464599,7
Calabar,4.96,8.33,461796,7
Malatya,38.37,38.3,461574,7
Hamah,35.15,36.73,460602,7
Cranbourne,-38.1,145.283,460491,7
Jingdezhen,29.27,117.18,457298,7
Volta Redonda,-22.52,-44.095,456362,7
Luhansk,48.57,39.334,452000,7
An Nasiriyah,31.043,46.268,451547,7
Chengde,40.96,117.93,449325,7
Xuchang,34.02,113.82,449258,7
Chlef,36.17,1.32,449167,7
Ōita,33.243,131.598,448907,7
Ado Ekiti,7.63,5.22,446749,7
Portsmouth,50.8,-1.08,442252,7
Foz do Iguaçu,-25.523,-54.53,440455,7
Wakayama,34.223,135.168,440006,7
Mawlamyine,16.5,97.67,438861,7
Nantes,47.21,-1.59,438537,7
Khomeini Shahr,32.7,51.47,437138,7
Katsina,12.99,7.6,432149,7
Erzurum,39.92,41.29,420691,7
Akure,7.25,5.2,420594,7
Middlesbrough,54.58,-1.23,416042,7
Meizhou,24.3,116.12,414930,7
Gifu,35.423,136.763,412895,7
Metz,49.12,6.18,409186,7
Al Ayn,24.23,55.74,408733,7
Jeju,33.51,126.522,408364,7
Oshogbo,7.77,4.56,408245,7
Ipatinga,-19.48,-42.52,407894,7
Szczecin,53.42,14.53,407811,7
Tanta,30.79,31.0,404901,7
Taubaté,-23.02,-45.56,403560,7
Pasay City,14.55,121.0,403064,7
Mbale,1.09,34.17,402368,7
Jingmen,31.031,112.201,400000,7
Sikar,27.61,75.14,400000,7
Buraydah,26.366,43.963,398581,7
Columbia,38.952,-92.334,398093,7
Kollam,8.9,76.57,394163,7
Osh,40.54,72.79,391277,7
Stoke,53.0,-2.18,390801,7
Palm Springs,33.777,-116.533,390115,7
Bhilwara,25.35,74.635,389911,7
Comilla,23.47,91.17,389411,7
Samut Prakan,13.607,100.611,388920,7
Grenoble,45.18,5.72,388574,7
Nizamabad,18.67,78.1,388505,7
Brno,49.2,16.61,388277,7
Coventry,52.401,-1.503,388271,7
Qarshi,38.87,65.8,386361,7
Hail,27.524,41.7,385257,7
Béjaïa,36.76,5.07,384937,7
Dezhou,37.45,116.3,379555,7
Parbhani,19.27,76.76,378326,7
Ogden,41.232,-111.968,377224,7
Zhoukou,33.63,114.63,377061,7
Putian,25.43,119.02,376558,7
Shillong,25.57,91.88,375527,7
Khorramabad,33.48,48.35,375198,7
São José do Rio Preto,-20.8,-49.39,374699,7
Kaunas,54.95,23.88,374643,7
Seremban,2.71,101.94,372917,7
Denizli,37.77,29.08,372344,7
Van,38.495,43.4,371713,7
Quzhou,28.97,118.87,370000,7
Rajapalaiyam,9.42,77.58,369991,7
Mahilyow,53.899,30.325,369200,7
Longyan,25.074,116.995,367896,7
Bydgoszcz,53.12,18.01,366452,7
Vladikavkaz,43.05,44.67,364630,7
Tamale,9.4,-0.84,360579,7
St. Charles,38.784,-90.506,360485,7
Lublin,51.25,22.573,360044,7
Sungai Petani,5.65,100.479,358499,7
Simferopol,44.949,34.099,358108,7
Toulon,43.134,5.919,357693,7
San Sebastián,43.32,-1.98,357468,7
Iwaki,37.055,140.89,357309,7
Cà Mau,9.177,105.15,356636,7
Longxi,35.003,104.671,355037,7
Mito,36.37,140.48,353892,7
Neiva,2.931,-75.33,352855,7
Vinnytsya,49.225,28.482,352115,7
Greenville,34.853,-82.394,350954,7
Kuala Terengganu,5.33,103.12,350210,7
Aurora,41.765,-88.3,350000,7
Qoqon,40.54,70.94,350000,7
Việt Trì,21.33,105.43,350000,7
Long Xuyen,10.38,105.42,350000,7
Haarlem,52.38,4.63,349957,7
Buon Me Thuot,12.667,108.05,349945,7
Linz,48.319,14.289,349161,7
Mbombela,-25.47,30.98,348138,7
Verona,45.44,10.99,347459,7
Charleroi,50.42,4.45,345367,7
Al Amarah,31.842,47.151,345007,7
Yeosu,34.737,127.746,341994,7
Jhang,31.28,72.325,341210,7
Yaan,29.98,103.08,340000,7
Tieling,42.3,123.82,340000,7
Kaluga,54.52,36.27,338978,7
Phan Thiet,10.934,108.1,336846,7
Alor Setar,6.113,100.373,336475,7
Muzaffarpur,26.12,85.38,333200,7
Beni,0.49,29.45,332903,7
Heyuan,23.73,114.68,330961,7
Mymensingh,24.75,90.38,330126,7
Patiala,30.32,76.385,329224,7
Maringá,-23.41,-51.93,328335,7
Sagar,23.85,78.75,328240,7
Montpellier,43.61,3.87,327254,7
Itajaí,-26.9,-48.68,327126,7
Yoshkar Ola,56.635,47.875,324406,7
Modesto,37.655,-120.99,323386,7
Volzhskiy,48.795,44.774,323293,7
Chenzhou,25.8,113.03,322997,7
Al Kut,32.491,45.83,321521,7
Podolsk,55.38,37.53,320635,7
Kherson,46.633,32.601,320477,7
Shahjahanpur,27.88,79.905,320434,7
Anápolis,-16.32,-48.96,319587,7
Pachuca,20.106,-98.736,319581,7
Tepic,21.505,-104.88,318781,7
Poltava,49.574,34.57,317847,7
Hrodna,53.678,23.834,317365,7
Bauchi,10.31,9.84,316149,7
Alicante,38.351,-0.484,315863,7
Dezful,32.38,48.47,315482,7
Maiquetía,10.6,-66.97,315442,7
Armenia,4.534,-75.681,315328,7
Timișoara,45.759,21.223,315053,7
Pescara,42.455,14.219,314789,7
Gdynia,54.52,18.53,314664,7
Ninde,26.68,119.53,314077,7
Varna,43.216,27.895,312770,7
Koblenz,50.35,7.6,312633,7
Cherepovets,59.14,37.91,311850,7
Brașov,45.648,25.607,311044,7
Sambalpur,21.47,83.97,310852,7
Sapele,5.89,5.68,309162,7
Dayr az Zawr,35.33,40.13,309141,7
Ratlam,23.35,75.03,307229,7
Ksar El Kebir,35.02,-5.91,306600,7
Rajahmundry,17.03,81.79,304804,7
Olongapo,14.83,120.283,304388,7
Craiova,44.326,23.826,304142,7
Saransk,54.17,45.18,303394,7
Kingston upon Hull,53.75,-0.33,302296,7
Batman,37.89,41.14,302074,7
Qena,26.15,32.72,302027,7
Jinja,0.44,33.2,301619,7
Bidar,17.923,77.518,300136,7
Rạch Giá,10.015,105.091,300000,7
Sóc Trăng,9.604,105.98,300000,7
Curepipe,-20.316,57.517,299975,7
Fort Wayne,41.08,-85.13,299871,7
Kanggye,40.973,126.603,299514,7
Baqubah,33.748,44.657,299479,7
Dumyat,31.42,31.82,299459,7
Al Kharj,24.156,47.312,298428,7
Chernivtsi,48.305,25.922,298251,7
İskenderun,36.58,36.17,297943,7
Cherkasy,49.435,32.071,297568,7
Rampur,28.815,79.025,296418,7
Flint,43.013,-83.688,295212,7
Thiès,14.81,-16.93,293001,7
Panipat,29.4,76.97,292808,7
Białystok,53.132,23.182,291855,7
Cagliari,39.222,9.104,291511,7
Mayagüez,18.202,-67.14,291339,7
Khammam,17.28,80.16,290839,7
Bafoussam,5.49,10.41,290768,7
Kasur,31.125,74.455,290643,7
Limeira,-22.565,-47.402,289665,7
Bhuj,23.234,69.674,289429,7
Karimnagar,18.46,79.11,288251,7
Ciudad Obregon,27.467,-109.925,288002,7
Worcester,42.27,-71.8,287365,7
Coatzacoalcos,18.12,-94.42,287285,7
Tirupati,13.65,79.42,287035,7
Petrópolis,-22.509,-43.2,286071,7
Hosapete,15.28,76.375,286007,7
Mandya,12.57,76.92,285034,7
Alwar,27.545,76.605,283228,7
Cadiz,10.959,123.309,283157,7
Aizawl,23.71,92.72,283021,7
Winston-Salem,36.105,-80.26,281683,7
Ambato,-1.27,-78.62,281425,7
Gorgan,36.83,54.48,281023,7
Newark,40.7,-74.17,280123,7
Tacloban,11.25,125.0,280006,7
Xinzhou,38.41,112.72,279607,7
Owo,7.2,5.59,276574,7
Sukabumi,-6.91,106.9,276414,7
Jinshi,29.632,111.852,274000,7
Crato,-7.23,-39.42,273883,7
Blackpool,53.83,-3.05,272792,7
Majene,-3.534,118.966,272377,7
Yamagata,38.27,140.32,272209,7
Pakalongan,-6.88,109.67,272000,7
Sari,36.55,53.1,271467,7
Gombe,10.29,11.17,270366,7
Münster,51.97,7.62,270184,7
Kiel,54.33,10.13,269427,7
Nancy,48.684,6.2,268976,7
Mokpo,34.807,126.396,268402,7
Tebingtinggi,3.33,99.13,268043,7
Padangsidempuan,1.389,99.273,266882,7
Ann Arbor,42.3,-83.72,265976,7
Lausanne,46.53,6.65,265702,7
Saint-Étienne,45.43,4.38,265684,7
Uruapan,19.42,-102.07,264531,7
Sivas,39.745,37.035,264022,7
Graz,47.078,15.41,263234,7
Naples,26.142,-81.795,262306,7
Balıkesir,39.65,27.89,261516,7
Zhuanghe,39.682,122.962,261510,7
Lakeville,44.65,-93.243,261308,7
Sincelejo,9.29,-75.38,261187,7
Acarigua,9.58,-69.2,260921,7
Kondoz,36.728,68.873,259809,7
Nonthaburi,13.834,100.483,258550,7
Etawah,26.785,79.015,257448,7
Mendefera,14.886,38.816,257390,7
Cascavel,-24.96,-53.46,257172,7
Ondo,7.09,4.84,257005,7
Dzerzhinsk,56.25,43.46,256537,7
Da Lat,11.93,108.42,256019,7
Davenport,41.554,-90.588,255738,7
Raichur,16.21,77.355,255240,7
Rivne,50.617,26.253,255106,7
Freiburg,48.0,7.87,254889,7
Poza Rica de Hidalgo,20.526,-97.444,254481,7
Fort-de-France,14.61,-61.08,253995,7
Pathankot,32.27,75.72,253987,7
Chirala,15.86,80.34,253000,7
Buenaventura,3.872,-77.05,252805,7
Suihua,46.63,126.98,252245,7
Messina,38.2,15.55,252026,7
Luzern,47.05,8.28,250000,7
Quảng Ngãi,15.15,108.83,250000,7
Arua,3.02,30.9,250000,7
Zumpango,19.81,-99.11,250000,7
Kashan,33.98,51.58,250000,7
Niš,43.33,21.9,250000,7
Kirovohrad,48.504,32.26,249454,7
Hafar al Batin,28.434,45.96,249194,7
Jalal Abad,40.943,73.003,248899,7
Vung Tau,10.355,107.085,248767,7
Fukui,36.07,136.22,248707,7
Singkawang,0.912,108.965,248012,7
Miskolc,48.1,20.78,247757,7
Plymouth,50.385,-4.16,247297,7
Udon Thani,17.405,102.789,247231,7
Mirzapur,25.145,82.57,245817,7
Rzeszów,50.029,21.996,245686,7
Qinzhou,21.95,108.62,245376,7
Ternopil,49.536,25.582,244768,7
Hebi,35.95,114.22,244662,7
Gunsan,35.982,126.716,244080,7
Jashore,23.17,89.2,243987,7
Manisa,38.63,27.44,243971,7
Fayetteville,35.051,-78.887,243306,7
Tehuacan,18.45,-97.38,241429,7
Ivano-Frankivsk,48.935,24.709,241239,7
Linchuan,27.97,116.36,241104,7
San Pablo,14.07,121.323,240830,7
Sasebo,33.163,129.718,237444,7
Al Jubayl,27.005,49.646,237274,7
Pathein,16.77,94.75,237089,7
Tegal,-6.87,109.12,237084,7
Zicheng,30.3,111.5,237042,7
Košice,48.73,21.25,236563,7
Tours,47.38,0.7,236096,7
Dera Ghazi Khan,30.06,70.635,236093,7
Springs,-26.27,28.43,236083,7
Luton,51.88,-0.42,235958,7
Oviedo,43.35,-5.83,235651,7
Lübeck,53.87,10.67,235390,7
Jizzax,40.1,67.83,235352,7
Kediri,-7.79,112.0,235143,7
Zacatecas,22.77,-102.58,234481,7
Santa Ana,13.995,-89.56,234478,7
Singaraja,-8.115,115.094,234468,7
Nizhnekamsk,55.64,51.82,234297,7
Kremenchuk,49.084,33.43,232742,7
Ploiești,44.947,26.036,232542,7
Saidpur,25.8,89.0,232209,7
Al Fallujah,33.348,43.777,231819,7
Santa Rosa,38.45,-122.7,231792,7
Shishou,29.7,112.4,231787,7
Ngaoundéré,7.32,13.58,231357,7
Debrecen,47.53,21.63,231286,7
Osnabrück,52.28,8.05,231268,7
Magdeburg,52.13,11.62,229826,7
Tlimcen,34.89,-1.32,229777,7
Noginsk,55.87,38.48,229731,7
Nawabshah,26.245,68.4,229504,7
Bharatpur,27.209,77.507,229384,7
Uitenhage,-33.76,25.39,228912,7
Er Rachidia,31.94,-4.45,228489,7
Fort Collins,40.561,-105.059,228385,7
Fort Pierce,27.447,-80.326,228245,7
Miri,4.4,113.985,228212,7
Hyeson,41.393,128.193,227461,7
Starsy Oskol,51.3,37.84,226977,7
Liaocheng,36.43,115.97,226930,7
Gusau,12.17,6.66,226857,7
Tanjungpinang,0.917,104.471,226666,7
Chon Buri,13.4,101.0,226618,7
Sikasso,11.32,-5.68,225753,7
Mubi,10.27,13.27,225705,7
Kissimmee,28.292,-81.408,225494,7
Novi Sad,45.25,19.85,225457,7
Nyanza,-2.35,29.74,225209,7
Skikda,36.88,6.9,225181,7
Karnal,29.68,76.97,225049,7
Bạc Liêu,9.28,105.72,225000,7
Matsumoto,36.24,137.97,224926,7
Nagercoil,8.18,77.43,224329,7
Haeju,38.039,125.714,224231,7
Adıyaman,37.77,38.28,223744,7
Okara,30.81,73.45,223648,7
Narayanganj,23.62,90.5,223622,7
Hancheng,35.47,110.43,222135,7
Arar,30.99,41.021,222016,7
Itabuna,-14.79,-39.28,221938,7
Banja Luka,44.78,17.18,221738,7
Amol,36.471,52.363,221650,7
Shakhty,47.72,40.27,221312,7
Córdoba,18.92,-96.92,220563,7
Babruysk,53.127,29.193,220517,7
Cabanatuan,15.502,120.962,220250,7
Thanjavur,10.77,79.15,219571,7
Gabès,33.9,10.1,219517,7
Bertoua,4.58,13.68,218111,7
Potsdam,52.4,13.07,218095,7
York,39.963,-76.728,218010,7
Columbus,32.47,-84.98,217980,7
San Pedro de Macorís,18.45,-69.3,217899,7
Mallawi,27.73,30.84,217365,7
Orléans,47.9,1.9,217301,7
Gilgit,35.917,74.3,216760,7
Rybinsk,58.05,38.82,216724,7
Groningen,53.22,6.58,216688,7
Trieste,45.65,13.8,216035,7
Nablus,32.221,35.254,215981,7
Kielce,50.89,20.66,215733,7
Mulhouse,47.75,7.35,215454,7
Biysk,52.534,85.18,215430,7
Zamora,19.98,-102.28,214947,7
Navoi,40.11,65.355,214828,7
Split,43.52,16.47,214741,7
Lutsk,50.747,25.333,213661,7
Nanping,26.63,118.17,213054,7
Limbe,4.03,9.19,212474,7
Kırıkkale,39.85,33.53,211138,7
San-Pedro,4.77,-6.64,210273,7
Pali,25.79,73.33,210103,7
Ijebu Ode,6.82,3.92,209175,7
Tema,5.64,0.01,209000,7
Santander,43.38,-3.8,208763,7
Sidi bel Abbes,35.19,-0.64,208604,7
La Romana,18.417,-68.967,208437,7
Hajjah,15.692,43.602,208287,7
Waitakere,-36.852,174.554,208100,7
Pingliang,35.53,106.68,207256,7
Salzburg,47.81,13.04,206279,7
North Shore,-36.791,174.776,205605,7
Jiutai,44.145,125.844,205399,7
Puqi,29.72,113.88,205164,7
Lampang,18.292,99.481,204081,7
Las Tunas,20.96,-76.954,203684,7
Lianxian,24.782,112.383,203639,7
Pisa,43.72,10.4,203336,7
Agartala,23.835,91.28,203264,7
Edéa,3.8,10.12,203149,7
Rostock,54.07,12.15,203080,7
Ongole,15.506,80.058,202860,7
Djougou,9.7,1.68,202810,7
Khvoy,38.53,44.97,202728,7
Barishal,22.7,90.375,202242,7
Angren,41.03,70.155,202070,7
Taranto,40.508,17.23,202033,7
Al Khums,32.66,14.26,201943,7
Minatitlán,17.98,-94.53,201902,7
Sete Lagoas,-19.45,-44.25,201334,7
Cartagena,37.6,-0.98,201274,7
Puri,19.82,85.9,201026,7
Haldia,22.026,88.058,200762,7
Rivera,-30.9,-55.56,200000,7
Waukegan,42.364,-87.845,200000,7
Kasama,-10.2,31.18,200000,7
Moratuwa,6.78,79.88,200000,7
Nema,16.617,-7.25,200000,7
Az Zawiyah,32.76,12.72,200000,7
Bergamo,45.7,9.67,200000,7
Pokhara,28.204,84.006,200000,7
Meymaneh,35.93,64.77,199795,7
Bacău,46.578,26.92,199668,7
Taza,34.22,-4.02,199633,7
Batu Pahat,1.85,102.933,199619,7
Armavir,45.0,41.13,199548,7
Rashid,31.46,30.39,199509,7
Purnia,25.785,87.48,198453,7
Roanoke,37.271,-79.942,198171,7
Mbanza-Ngungu,-5.25,14.86,197545,7
Kōfu,35.65,138.583,197540,7
Salamanca,20.57,-101.2,197524,7
Proddatur,14.75,78.57,197451,7
El Tigre,8.89,-64.26,197440,7
Burhanpur,21.285,76.172,197233,7
Kure,34.251,132.566,196991,7
Porlamar,10.96,-63.85,196934,7
Manchester,42.996,-71.455,196566,7
Reims,49.25,4.03,196565,7
Engels,51.5,46.12,196011,7
Gandhinagar,23.219,72.644,195891,7
Nagaoka,37.45,138.86,195318,7
Brikama,13.28,-16.66,195136,7
Bongor,10.286,15.387,193941,7
Divinópolis,-20.15,-44.9,193832,7
Machilipatnam,16.2,81.18,192827,7
Oxford,51.752,-1.248,192796,7
Bayamo,20.38,-76.643,192632,7
Klaipėda,55.72,21.12,192307,7
Dunhua,43.35,128.22,191870,7
Muar,2.034,102.567,191346,7
Norwich,52.63,1.3,190756,7
Butuan,8.95,125.544,190557,7
Caen,49.184,-0.35,190099,7
Sadiqabad,28.301,70.13,189876,7
Sơn Tây,21.138,105.505,189547,7
Aberdeen,57.145,-2.105,189364,7
Nandyal,15.464,78.487,188654,7
Mostaganem,35.94,0.09,188354,7
Paarl,-33.7,18.96,187865,7
Rio Grande,-32.049,-52.12,187838,7
Szeged,46.25,20.15,187765,7
Puerto Vallarta,20.677,-105.245,187134,7
Cienfuegos,22.144,-80.44,186644,7
Shendi,16.68,33.42,186611,7
Pécs,46.08,18.22,186262,7
Madiun,-7.635,111.515,186099,7
Ad Damazīn,11.77,34.35,186051,7
Yei,4.09,30.68,185000,7
Ruse,43.854,25.973,184270,7
Tiarat,35.38,1.32,184195,7
Tarlac,15.484,120.583,183930,7
Kalamazoo,42.292,-85.587,183381,7
Pinrang,-3.786,119.652,182731,7
Kamensk Uralskiy,56.42,61.935,182500,7
Biratnagar,26.484,87.283,182324,7
Bahraich,27.567,81.606,182218,7
Barrie,44.384,-79.7,182041,7
Chingola,-12.54,27.85,182015,7
Tonk,26.15,75.79,181734,7
Probolinggo,-7.75,113.15,181656,7
Sirsa,29.49,75.03,181639,7
Hinthada,17.648,95.468,180728,7
Gangneung,37.756,128.896,180611,7
Castello,39.97,-0.05,180610,7
Funtua,11.52,7.32,180475,7
El Jadida,33.26,-8.51,180470,7
Obuasi,6.19,-1.66,180117,7
Zhaodong,46.08,125.98,179980,7
Balkh,36.75,66.9,179969,7
Potosí,-19.57,-65.75,179901,7
Phan Rang,11.567,108.983,179773,7
Almería,36.83,-2.43,179405,7
Vizianagaram,18.111,83.401,179358,7
Si Racha,13.159,100.929,178916,7
El Arish,31.125,33.801,178651,7
Erie,42.13,-80.085,178182,7
Teziutlán,19.82,-97.36,177796,7
Ar Raqqah,35.93,39.02,177636,7
El Oued,33.37,6.86,177497,7
Vellore,12.92,79.15,177081,7
Denton,33.216,-97.129,176930,7
Alappuzha,9.5,76.37,176783,7
Letpadan,17.782,95.741,176571,7
Salatiga,-7.31,110.49,176000,7
Saveh,35.022,50.331,175533,7
Les Cayes,18.2,-73.75,175457,7
Entebbe,0.06,32.46,175128,7
As Samawah,31.31,45.28,174978,7
Tomakomai,42.65,141.55,174806,7
Wahiawa,21.503,-158.024,174766,7
Puerto Cabello,10.46,-68.007,174000,7
Obihiro,42.93,143.17,173890,7
Bida,9.08,6.01,173849,7
Esmeraldas,0.93,-79.67,173101,7
Ulm,48.4,10.0,172955,7
Hong Gai,20.96,107.1,172915,7
Lishui,28.45,119.9,172777,7
Banyuwangi,-8.195,114.37,172424,7
Weinan,34.5,109.5,172321,7
Tébessa,35.41,8.12,171742,7
Pitești,44.856,24.876,171021,7
Burgos,42.35,-3.68,170183,7
Fuyang,32.9,115.82,170023,7
Čačak,43.89,20.33,170000,7
Dijon,47.33,5.03,169946,7
Keluang,2.038,103.318,169828,7
Nîmes,43.83,4.35,169547,7
Al Marj,32.5,20.83,169540,7
Medinipur,22.4,87.334,169127,7
Würzburg,49.8,9.95,168561,7
Hindupur,13.78,77.49,168312,7
Baramula,34.2,74.35,167986,7
Jamalpur,24.9,89.95,167900,7
Ormac,11.064,124.608,167584,7
Miass,54.995,60.095,167500,7
Gonaïves,19.45,-72.683,166678,7
Fatehpur,25.88,80.8,166480,7
Parma,44.81,10.32,166011,7
Tuluá,4.09,-76.21,165501,7
Hà Tĩnh,18.334,105.9,165396,7
Serang,-6.11,106.15,164767,7
